time, uz, alt, vel_alt, uthe, roll, uphi, pitch, upsi, yaw, ux, pos_x, vel_x, uy, pos_y, vel_y, Fz, Fx, Fy
[0.0, 0.5114545668075514, 2.939196825027466, 0.036161888390779495, -0.9939230827033001, -0.03697534470344805, -0.9227056567400171, 0.017834587835661164, 0.0, -0.18981933192755213, -0.01780374565667268, -0.5540854930877686, 0.23736907541751862, 0.03431917835028076, 2.947568655014038, 0.12075365334749222, 1.4357449264543224e-08, 0.6173686081802455, -1.0971821014318582e-11]
[0.05, 0.5122817002064921, 2.94145131111145, 0.0383230522274971, -0.8958214280280465, -0.036593959029010074, -0.7093751686932255, 0.018961491875209992, 0.0, -0.18897844917446738, -0.018153316028994976, -0.5499597787857056, 0.23484501242637634, 0.034820640161656834, 2.945513963699341, 0.12466081231832504, 1.8687739437604694e-08, 1.233968385142741, -2.3345725744836136e-11]
[0.1, 0.5336272336365396, 2.945028066635132, 0.13515417277812958, -0.15863296273436617, -0.03699702526468215, -0.0859422389738039, -0.02066288366414884, 0.0, -0.18712234997776617, -0.01886586203780015, -0.5462515354156494, 0.22927476465702057, 0.035161115452684584, 2.945464849472046, 0.13260534405708313, -3.200289728492746e-06, 1.9108810981734567, -3.73766232079604e-11]
[0.15000000000000002, 0.5718692348598042, 2.9490554332733154, 0.1427260786294937, -0.06007974904203789, -0.07770788906531598, -0.02784448406470987, -0.15846941902338937, 0.0, -0.18452498615737048, -0.015970267997369513, -0.5439278483390808, 0.20004184544086456, 0.03450485762213788, 2.945894718170166, 0.14171738922595978, -1.363064553476976e-05, 2.6709591311070766, -5.088118160198719e-11]
[0.2, 0.6242237036314289, 2.9600114822387695, 0.18247099220752716, -0.029106264057214802, -0.3225697040238367, -0.008694517183219437, -0.3758067280396562, 0.0, -0.16286973624988807, -0.009204467670524854, -0.5433014631271362, -0.013278801925480366, 0.030822496265234586, 2.9540205001831055, 0.3165440559387207, -3.142424243147621e-05, 3.5645376010782877, -6.162675916495692e-11]
[0.25, 0.6950402749558734, 2.96536922454834, 0.20382356643676758, -0.0007292174402231535, -0.4898301657699593, 0.010673680281740252, -0.40210281987897034, 0.0, -0.15976641536296798, 0.018305558057665393, -0.5479150414466858, -0.1290164291858673, 0.001250645294811904, 2.9628186225891113, 0.47378283739089966, -0.000146526069917734, 2.9522901604179865, -2.640070295947132e-11]
[0.3, 0.7540609867369559, 2.9779465198516846, 0.14909133315086365, 0.009494110549316941, -0.6053467892157052, 0.014976689424329035, -0.3106724772089487, 0.0, -0.2274355816060658, 0.033879163934993864, -0.5697134733200073, -0.30539608001708984, -0.021478325985373633, 3.0099635124206543, 0.9495267868041992, -0.00018821308887107893, -0.07088486026537498, 1.57066822442892e-12]
[0.35, 0.8497014301150626, 2.9873287677764893, 0.24729099869728088, 0.022228376429684713, -0.42178757250961296, 0.015939190234884257, -0.21529615965336404, 0.0, -0.2713300871426007, 0.050186445229026516, -0.5981525182723999, -0.37971749901771545, -0.07000319307670017, 3.0720276832580566, 1.327613115310669, -0.00017589105159085403, -3.717935011061866, 1.8964286726133935e-13]
[0.39999999999999997, 0.7956489758689673, 3.000792980194092, 0.44635719060897827, 0.04228098387782987, -0.3013715418994277, 0.02422789845513922, -0.15210732541017236, 0.0, -0.26990884707348023, 0.0641533631395241, -0.6194101572036743, -0.4298274517059326, -0.11203408166067676, 3.1253111362457275, 1.5221987962722778, -0.0037097869399300297, -6.6198840301176425, 2.2564527485050235e-15]
[0.44999999999999996, 0.8510863814313319, 3.040309429168701, 0.9029474854469299, 0.0418409804356784, -0.19616421294594663, 0.022911963653403075, -0.07442947048280457, 0.0, -0.23492614118942684, 0.07244171464909879, -0.6526927351951599, -0.4669971466064453, -0.13237921431660654, 3.218477725982666, 1.7329152822494507, -0.008302487462540909, -9.512872845875908, 4.331188415823533e-16]
[0.49999999999999994, 0.8290734714684436, 3.082399606704712, 1.1934598684310913, 0.04980609940209471, -0.1389083489549753, 0.02616530805161997, -0.04684437022997443, 0.0, -0.20425471139773885, 0.07739300326052084, -0.6749217510223389, -0.474866658449173, -0.14745763123035432, 3.286846876144409, 1.8105658292770386, -6.867384014928833e-05, -11.683788658855109, 1.222463385801962e-17]
[0.5499999999999999, 0.770594252708216, 3.1183524131774902, 1.3913073539733887, 0.06991764200742139, -0.09535599587625901, 0.03460174032580685, -0.025906934373960484, 0.0, -0.17454960804180528, 0.08360305999250647, -0.6904457807540894, -0.47649723291397095, -0.16924122393131258, 3.3362836837768555, 1.8414068222045898, -1.778608489318767e-06, -14.278031874760352, 4.618169937208685e-18]
[0.6, 0.7338850071093924, 3.238736152648926, 1.95936119556427, 0.08576331860846877, -0.054392474939268624, 0.04193715123212825, -0.006707962260623327, 0.0, -0.13701628863682935, 0.08706922283747617, -0.7287794947624207, -0.4705255925655365, -0.17855057574808597, 3.467160224914551, 1.869353175163269, -1.849391044919935e-13, -16.460925940213833, 6.867665612064827e-19]
[0.65, 0.7232599743265606, 3.2957398891448975, 2.1343376636505127, 0.09552349543939381, -0.031546943881596595, 0.045792711319729174, 0.0011563677739380644, 0.0, -0.11718791534805632, 0.09057231168270832, -0.7433249354362488, -0.46658554673194885, -0.1895766547555104, 3.5184450149536133, 1.8631138801574707, -2.2066033754157276e-16, -18.84111332715279, 4.0441908352423173e-19]
[0.7000000000000001, 0.7182520342614047, 3.4615581035614014, 2.4849698543548584, 0.09983605120778187, -0.001424320488562058, 0.04818315247764779, 0.011601113163041157, 0.0, -0.09496894098330816, 0.09306936680950151, -0.7790871858596802, -0.4529845118522644, -0.1935589559748769, 3.6496031284332275, 1.8154363632202148, -1.9683315715079945e-23, -20.78000111184941, 1.5258927304059796e-19]
[0.7500000000000001, 0.711902449465436, 3.6170108318328857, 2.695956230163574, 0.10547078877783565, 0.025883946865134032, 0.05130695359932209, 0.021359111261240214, 0.0, -0.07370615126223669, 0.0960915403874978, -0.8266665935516357, -0.45266568660736084, -0.19835641324520112, 3.743272542953491, 1.742873191833496, -7.487022207093491e-26, -22.425867995844744, 1.3053556005049555e-19]
[0.8000000000000002, 0.7176152073807072, 3.727236032485962, 2.8209354877471924, 0.10294921126995035, 0.03879275821279864, 0.05110719276076576, 0.025654282389460346, 0.0, -0.06308680570638109, 0.0984250312865354, -0.8588359951972961, -0.44928741455078125, -0.1990552954375744, 3.802942991256714, 1.6847599744796753, -1.5277941191228175e-28, -23.650031034705787, 1.1807710099510413e-19]
[0.8500000000000002, 0.6948879653315736, 3.9012272357940674, 2.994145154953003, 0.11485328707220839, 0.054909705608218416, 0.05836740506394377, 0.03060996255744058, 0.0, -0.04820347931277839, 0.10012871078075976, -0.9038451313972473, -0.438345342874527, -0.1980130520090461, 3.890057325363159, 1.5894919633865356, -3.007881652809777e-34, -23.595758740325877, 1.0899703251424468e-19]
[0.9000000000000002, 0.6888866573950315, 4.022911071777344, 3.10790753364563, 0.11812711302231513, 0.06296423539543758, 0.06031500449540615, 0.03323123151790054, 0.0, -0.03984575721884255, 0.10011898224478065, -0.931830883026123, -0.4287102222442627, -0.19711998492479327, 3.9460690021514893, 1.5211608409881592, -6.315810698841043e-37, -23.436915811648955, 1.0431022746495743e-19]
[0.9500000000000003, 0.6353628633019222, 4.213415622711182, 3.251770257949829, 0.16475820926425622, 0.07204423206566446, 0.08657554121115055, 0.03630462327399984, 0.0, -0.029629165403921236, 0.1008409908120033, -0.9709116220474243, -0.4110455811023712, -0.19390382628887892, 4.026515007019043, 1.4189239740371704, -7.244957768732392e-43, -23.388996653675733, 9.663604924119283e-20]
[1.0000000000000002, 0.6149816183967739, 4.344733715057373, 3.3304555416107178, 0.19491884258949102, 0.07947495011553432, 0.10465030304527452, 0.039442325635473736, 0.0, -0.02371822396967449, 0.10219490912270059, -0.9950386881828308, -0.39687395095825195, -0.19314567249268294, 4.077653408050537, 1.349464774131775, -2.2730693929911744e-45, -24.68304602887738, 9.65514395556442e-20]
[1.0500000000000003, 0.5492380939458124, 4.546519756317139, 3.408900737762451, 0.46869386728550677, 0.08884897534304466, 0.2715928365985199, 0.04418968756785412, 0.0, -0.0177994743093774, 0.10126938334061045, -1.0283409357070923, -0.3727271854877472, -0.1911351376771927, 4.150338172912598, 1.2457102537155151, -2.8645018486170636e-50, -24.213206324262803, 8.540418184379514e-20]
[1.1000000000000003, 0.5412851416328934, 4.682182312011719, 3.4115588665008545, 0.5538342771412836, 0.10484503540265178, 0.344151975964593, 0.052544415585850955, 0.0, -0.013960461450407441, 0.1039227609944477, -1.0486503839492798, -0.3552284240722656, -0.1904724921658635, 4.196105480194092, 1.1775447130203247, -1.0767992882146558e-51, -24.578303215368027, 7.740668818319929e-20]
[1.1500000000000004, 0.4681998375710301, 4.88486909866333, 3.3674163818359375, -0.4359609147298252, 0.1655682675850857, -0.26773289959474383, 0.08552338000244156, 0.0, -0.008636223686715228, 0.10627221823775139, -1.0878361463546753, -0.32671767473220825, -0.18714153917506338, 4.2519211769104, 1.0585545301437378, -9.305213164546479e-53, -23.68684881471959, 6.67489068924811e-20]
[1.2000000000000004, 0.4694879905417092, 5.017467021942139, 3.2903149127960205, -0.43820778208409866, 0.24366292678107102, -0.2826939611217247, 0.12832436062105884, 0.0, -0.0033081740713331326, 0.10906265030689602, -1.1122779846191406, -0.2926051616668701, -0.1832125607505441, 4.2849507331848145, 0.9549014568328857, -7.714282522867757e-51, -22.10356941521233, 7.774431854084085e-20]
[1.2500000000000004, 0.4197056792993509, 5.211699485778809, 3.2188186645507812, -0.19960346282460273, 0.38488524588892065, -0.1311049989155893, 0.1796962026941952, 0.0, 0.0010804046592279306, 0.1103478898945958, -1.142558217048645, -0.20002643764019012, -0.1707574236020446, 4.32650899887085, 0.7166215777397156, -4.346784112276052e-50, -21.76078085319555, 9.361925099374544e-20]
[1.3000000000000005, 0.3838352587164401, 5.338881969451904, 3.1483154296875, -0.13637743026081026, 0.4510783794321413, -0.09096947376165679, 0.12530169239501848, 0.0, -0.03240443238055748, 0.10666452925807343, -1.1581861972808838, -0.1539023518562317, -0.16112769782543182, 4.346385478973389, 0.5262671113014221, -7.445088615264708e-49, -18.987614626335105, 1.4607112847541358e-19]
[1.3500000000000005, 0.2880850672444034, 5.524170398712158, 3.009460210800171, -0.06717152760472868, 0.34116256048697724, -0.051911401621972116, -0.0124764051630163, 0.0, -0.10713683329067347, 0.10686258219299298, -1.1782995462417603, -0.16281627118587494, -0.1385469841957092, 4.3635993003845215, 0.28416216373443604, -2.9490188290593645e-48, -18.783968343636218, 1.469222550123281e-19]
[1.4000000000000006, 0.2669495224404757, 5.641039848327637, 2.8570704460144043, -0.05821633788852062, 0.1988714479816613, -0.04940094313155398, -0.06283409991638284, 0.0, -0.12100184073758026, 0.1113707738258671, -1.1914920806884766, -0.1913691908121109, -0.13144635774195196, 4.369950294494629, 0.20911122858524323, -2.3724440154372042e-43, -18.82310976095311, 1.1162658236497156e-19]
[1.4500000000000006, 0.21558967262853773, 5.803458213806152, 2.559844970703125, -0.046371360346919986, 0.0054021415163247035, -0.04392650847977444, -0.09619323802871053, 0.0, -0.11729033945726054, 0.11993479714464712, -1.211992621421814, -0.23533083498477936, -0.12674168452620507, 4.377161026000977, 0.17612901329994202, -5.238059760011902e-41, -19.11616845723557, 1.028285707293236e-19]
[1.5000000000000007, 0.2035173937464821, 5.900646209716797, 2.3107919692993164, -0.044951718040643095, -0.06840300315506137, -0.043405333008075024, -0.09790703971060534, 0.0, -0.1116193746475201, 0.12336950152252626, -1.226027488708496, -0.2569909691810608, -0.1278910194337368, 4.3821940422058105, 0.17831440269947052, -1.6446798105142144e-33, -18.611694845155004, 8.878739392748325e-20]
[1.5500000000000007, 0.2090443725439563, 6.041102409362793, 1.8222299814224243, -0.04738653235363756, -0.11135951034020017, -0.04659267327504187, -0.08598962957497067, 0.0, -0.10346998490382367, 0.13005305203629455, -1.2493849992752075, -0.28032320737838745, -0.1324159286916256, 4.3885064125061035, 0.1847945898771286, -1.2740727503761886e-30, -18.60393173081598, 8.571000235479493e-20]
[1.6000000000000008, 0.22811250832943142, 6.095378875732422, 1.5751044750213623, -0.05169876488415616, -0.11188137749351784, -0.05071666255323713, -0.07343119233752979, 0.0, -0.09795077927400181, 0.13261268913737398, -1.2600651979446411, -0.2883879542350769, -0.1353592510521412, 4.392179012298584, 0.18592742085456848, -8.022013341900399e-27, -17.70037390283207, 7.670518739861608e-20]
[1.6500000000000008, 0.2690815945077056, 6.1756463050842285, 1.10788893699646, -0.06238103049321089, -0.09187997440226167, -0.06141441374539554, -0.05376032773705022, 0.0, -0.08834791810539057, 0.1373007187338538, -1.2801258563995361, -0.30171269178390503, -0.1397307322919369, 4.399665355682373, 0.1855258196592331, -1.393430791870134e-22, -17.623139107412786, 7.30448853273678e-20]
[1.7000000000000008, 0.27351877025710025, 6.213713645935059, 0.8046247959136963, -0.06452453765856844, -0.0722755007053141, -0.06319912486810059, -0.04176471824116862, 0.0, -0.0800310785546048, 0.13869873934699473, -1.293408989906311, -0.3097871243953705, -0.1418988239765167, 4.405139446258545, 0.1832623928785324, -2.506238248451145e-20, -16.655158151819084, 6.254298552136527e-20]
[1.7500000000000009, 0.3124379459109654, 6.248917579650879, 0.6006057858467102, -0.07915627047314822, -0.05194971592422409, -0.07772844692136852, -0.033007880716277575, 0.0, -0.06844092357183124, 0.14260849961993244, -1.3132425546646118, -0.3145676255226135, -0.1456788584589958, 4.413850784301758, 0.181834876537323, -2.92298888128638e-20, -16.500391047270586, 5.871074311681981e-20]
[1.800000000000001, 0.31822704848180217, 6.258426666259766, 0.10793819278478622, -0.08250810221865759, -0.043462338703431094, -0.08054565315009451, -0.0321670395251093, 0.0, -0.05906608592450452, 0.14346834418981153, -1.326453685760498, -0.3272974193096161, -0.1474576586484909, 4.41987943649292, 0.17592668533325195, -1.183677795320982e-20, -15.489045918572725, 4.9157612765528275e-20]
[1.850000000000001, 0.3594782831952342, 6.252954959869385, -0.26985979080200195, -0.10686202039564303, -0.04168263422644201, -0.10476051663562344, -0.03708731741277191, 0.0, -0.0473063564364241, 0.1466816075305524, -1.3463490009307861, -0.33860403299331665, -0.1504712888598442, 4.429134368896484, 0.1701231747865677, -6.276129567520602e-23, -15.280861386198062, 4.5802415063663234e-20]
[1.900000000000001, 0.34656005779129323, 6.237078666687012, -0.5120843052864075, -0.0995965690359883, -0.046179050245537576, -0.09741357800300797, -0.044697330770504244, 0.0, -0.03863475713364298, 0.14802685168081323, -1.3597725629806519, -0.34783148765563965, -0.15208689473569392, 4.435421466827393, 0.16736498475074768, -1.5703784100084858e-24, -14.972595092592636, 4.2155477380524993e-20]
[1.950000000000001, 0.3802378978130372, 6.220381259918213, -0.6736844778060913, -0.1273315901876466, -0.05263585621492586, -0.12448699577127076, -0.052616927443036504, 0.0, -0.031235066416189335, 0.15049062781708958, -1.3682208061218262, -0.35391929745674133, -0.1551672139018774, 4.440581321716309, 0.1669318675994873, -5.821164155613863e-29, -14.006808481390497, 3.504100191378587e-20]
[2.000000000000001, 0.3574794810169156, 6.158041954040527, -1.0640100240707397, -0.10999980945920734, -0.06723736791262988, -0.10656984738840854, -0.06769440860425216, 0.0, -0.02126756041426737, 0.15121578471462602, -1.3900964260101318, -0.37378570437431335, -0.15701230719685555, 4.454713344573975, 0.16980214416980743, -1.1165013375727925e-34, -13.00022484462134, 2.815653788878095e-20]
[2.0500000000000007, 0.3892313061812133, 6.073916435241699, -1.407657265663147, -0.14138775525277023, -0.0821365647463943, -0.13736159431882586, -0.08207138890105348, 0.0, -0.013405550895620597, 0.1547209985588797, -1.4122469425201416, -0.39935198426246643, -0.16083102077245712, 4.468623161315918, 0.17753350734710693, -4.199446430087266e-37, -12.701546478749119, 2.5810179286875062e-20]
[2.1000000000000005, 0.4640157355673621, 6.0261335372924805, -1.5775238275527954, -0.34655130251846167, -0.09291623786233472, -0.35457846554866607, -0.09217148177481782, 0.0, -0.008751647896465806, 0.15778360829541432, -1.4235354661941528, -0.41218510270118713, -0.16411416858434677, 4.475330352783203, 0.18264798820018768, -2.4615004795696027e-44, -11.467145167682034, 2.0682449862046263e-20]
[2.1500000000000004, 0.38319941838650956, 5.92210578918457, -1.878117322921753, -0.14044954415861777, -0.10467115141666584, -0.1353031183284113, -0.10317098786462837, 0.0, -0.003310527441930151, 0.1599840386497033, -1.4457799196243286, -0.4404395818710327, -0.16768103756010533, 4.488580703735352, 0.1953260451555252, -1.844344707908741e-47, -11.043891637231122, 1.888837409819082e-20]
[2.2, 0.38740300959124874, 5.843971252441406, -2.008253335952759, -0.14709622079978316, -0.11780791906871696, -0.1407929423189377, -0.11483647071180125, 0.0, -0.0009134068152130283, 0.16103848983234154, -1.461775541305542, -0.46795761585235596, -0.1700334280077368, 4.498010158538818, 0.2128438502550125, -4.070398472743916e-54, -9.496035619437556, 1.495433328112938e-20]
[2.25, 0.3907473774608683, 5.786380767822266, -2.1084747314453125, -0.15661224249823139, -0.16479075510828167, -0.15018753287661865, -0.15604728868810752, 0.0, 0.0024363890125489143, 0.16725168462954926, -1.473624348640442, -0.49003714323043823, -0.17650922185741363, 4.505171775817871, 0.22880135476589203, -1.4370965115862862e-56, -8.863179722060446, 1.3555094140526394e-20]
[2.3, 0.3960816896141836, 5.62388801574707, -2.4266090393066406, -0.16700581845482487, -0.1888680965300184, -0.1588650482519065, -0.18216156813464812, 0.0, 0.00020086087584945652, 0.16915435296262832, -1.507677674293518, -0.552734911441803, -0.18025149168446658, 4.525595664978027, 0.2751314640045166, -5.143244527093231e-60, -6.927718639031354, 1.0107602817468355e-20]
[2.3499999999999996, 0.47275300924562924, 5.5545454025268555, -2.562391757965088, -0.4518851718198648, -0.1799676886322963, -0.47210692725700093, -0.17796385243127844, 0.0, -0.005629097781469016, 0.17626839772805136, -1.5205931663513184, -0.5745192170143127, -0.18813626137562095, 4.536188125610352, 0.2920766770839691, -1.4077215935056554e-68, -6.308499509538814, 8.58763599763887e-21]
[2.3999999999999995, 0.5159179353930079, 5.358803749084473, -2.9186222553253174, 0.797942545932675, -0.16054515452446008, 1.273710966116272, -0.1614566185834663, 0.0, -0.013950058230598902, 0.17915471896800786, -1.5561023950576782, -0.6225140690803528, -0.19212301794439554, 4.56599235534668, 0.3290129005908966, -1.4494813472652724e-72, -5.647219794724306, 7.003848589773289e-21]
[2.4499999999999993, 0.6417741216695355, 5.276640892028809, -2.9914605617523193, 0.16271229371246712, -0.16940935718318004, 0.15282539959012056, -0.16733909016620696, 0.0, -0.016499302742811563, 0.1881097527344489, -1.5709009170532227, -0.6479905247688293, -0.2028544494509697, 4.578336715698242, 0.35101988911628723, -3.532161974150735e-79, -4.249923502352254, 4.3637997203712914e-21]
[2.499999999999999, 0.6544197718470478, 5.061362266540527, -2.9879672527313232, 0.15447309268413226, -0.25615385265020657, 0.1400602515820314, -0.18548967142646067, 0.0, -0.023788274372129888, 0.18870373056360704, -1.6149240732192993, -0.7616094946861267, -0.21048105120658878, 4.613269329071045, 0.4766435921192169, -1.0964932247820406e-79, -3.4740288657806477, 3.407002522793215e-21]
[2.549999999999999, 0.6808256301820201, 4.883365154266357, -2.9915342330932617, 0.14606525665699177, -0.2791542502503928, 0.12290508976635639, -0.04501997647876009, 0.0, -0.0741499675926088, 0.19557053953898762, -1.6574968099594116, -0.8000714778900146, -0.2346812871098518, 4.6507463455200195, 0.6183897256851196, -2.4180442156746308e-76, -1.908247699268781, 1.5330841150788591e-21]
[2.5999999999999988, 0.6623921689855471, 4.7658772468566895, -2.9189860820770264, 0.17004254804045463, -0.16577640961155596, 0.13535359083679582, 0.0296098273838402, 0.0, -0.09255962245435417, 0.19234550044403734, -1.6861677169799805, -0.7777190804481506, -0.24474341928958893, 4.679727077484131, 0.6857041120529175, -1.0299207903528823e-75, -1.6020273463553527, 4.695530733253372e-22]
[2.6499999999999986, 0.6468399556721394, 4.685906887054443, -2.8428189754486084, 0.20466754175010696, -0.036384911892673906, 0.14507391615878823, 0.06968246499375969, 0.0, -0.09071134072815598, 0.1852892060481254, -1.705495834350586, -0.7513137459754944, -0.26604691296815874, 4.701113700866699, 0.6996917128562927, -2.3200028222420905e-69, -1.6239146046582347, 3.136241694291122e-22]
[2.6999999999999984, 0.681909352983953, 4.489136695861816, -2.6826720237731934, 0.1683999405269608, 0.044892589561572396, 0.11161230496727055, 0.09366848052701994, 0.0, -0.07628316230854626, 0.17856907466193617, -1.7523199319839478, -0.6736144423484802, -0.27256549239158634, 4.754291534423828, 0.6506593823432922, -5.484932263410916e-63, -1.6931071295398519, 1.4836931571075264e-22]
[2.7499999999999982, 0.6490631897893505, 4.332338333129883, -2.602969169616699, 0.21597574006527623, 0.10096658126808984, 0.130354586893549, 0.11279551364561718, 0.0, -0.05851853217131106, 0.1689640145301417, -1.7875534296035767, -0.6044307351112366, -0.2851875874400139, 4.797484397888184, 0.5714015364646912, -3.268398294130589e-61, -1.7135579436615824, 1.1403397980417943e-22]
[2.799999999999998, 0.6673663848031426, 4.230617523193359, -2.526482105255127, 0.19540618311697, 0.13637618597545048, 0.10987511106512549, 0.12001315068900426, 0.0, -0.0471037365117551, 0.16089773818567324, -1.808803677558899, -0.5514516830444336, -0.2904293665289879, 4.823144435882568, 0.498452365398407, -1.306731375788516e-56, -1.7457694531970238, 6.333594387554368e-23]
[2.849999999999998, 0.7224365347601959, 4.161309719085693, -2.424448251724243, 0.14746025562555484, 0.14906736210837215, 0.07512707269847838, 0.11703676060706211, 0.0, -0.04020526577204566, 0.14819373447599357, -1.8223928213119507, -0.4767625331878662, -0.29327894061803816, 4.839239597320557, 0.3789587914943695, -1.2785048101289839e-54, -1.7453179896110929, 5.134737422617292e-23]
[2.8999999999999977, 0.7597777132575476, 3.9884886741638184, -2.3612189292907715, 0.1269522970253074, 0.16983553769741494, 0.060950681172915744, 0.11333112191138829, 0.0, -0.031509006101868214, 0.14127214518433776, -1.853553056716919, -0.4301794469356537, -0.2960257190465927, 4.872043609619141, 0.2941589653491974, -1.7149065102852373e-50, -1.6568390006419769, 3.035023757065503e-23]
[2.9499999999999975, 0.8482559507573968, 3.8522775173187256, -2.172581911087036, 0.09329021426773926, 0.17820256499297235, 0.041625740137174794, 0.10512135646545567, 0.0, -0.026054897290618512, 0.13057029196730136, -1.874940276145935, -0.35430699586868286, -0.2935664248466492, 4.890025615692139, 0.14389652013778687, -3.256416832884438e-48, -1.612247840671512, 2.448271742194591e-23]
[2.9999999999999973, 0.8784050386251434, 3.7695319652557373, -1.9802137613296509, 0.08273641204892311, 0.16246792532414175, 0.03561761793915735, 0.08874247100577096, 0.0, -0.024434773744332654, 0.12166345983996336, -1.8867794275283813, -0.3060627281665802, -0.28331942439079283, 4.896536350250244, 0.039147716015577316, -6.053991599250011e-40, -1.4593232448333984, 1.3446468324767494e-23]
[3.049999999999997, 0.8936443314122187, 3.6638529300689697, -1.5151432752609253, 0.0788190420359579, 0.13890368496080188, 0.03251010661771328, 0.06671539791500102, 0.0, -0.022220099701534025, 0.11563418537820891, -1.901199460029602, -0.23976734280586243, -0.28098048429936173, 4.897910118103027, -0.12449447810649872, -2.5669621183774e-35, -1.3915328725726959, 1.0297400564825721e-23]
[3.099999999999997, 0.8870911055594927, 3.6107304096221924, -1.1285113096237183, 0.07879720843081019, 0.12244132382212505, 0.031856178507426725, 0.05402775621538863, 0.0, -0.02054361739311876, 0.11137120912650852, -1.9088633060455322, -0.2036362588405609, -0.27609827734529974, 4.893261432647705, -0.22804604470729828, -4.711286106562445e-29, -1.2184417513969459, 5.0746075562240065e-24]
[3.149999999999997, 0.7863749714048454, 3.584352731704712, -0.8281359672546387, 0.10182250727568397, 0.11021314418296069, 0.04064028731677179, 0.04416029920737129, 0.0, -0.01856304603627679, 0.10415513734908076, -1.9112282991409302, -0.18083275854587555, -0.26193395867943764, 4.889981746673584, -0.2950115501880646, -1.2039685952977088e-15, -1.1728356370446311, 3.7518388749519664e-24]
[3.1999999999999966, 0.6979607884765864, 3.5571467876434326, -0.015171133913099766, 0.14457914528331864, 0.09726142277399462, 0.05754716864980428, 0.03442777758992911, 0.0, -0.015168769241063694, 0.1003591627104872, -1.9139208793640137, -0.13283683359622955, -0.2540500819683075, 4.873820781707764, -0.4495832920074463, -1.5683250988490246e-06, -1.0798344238394044, 1.86028061710668e-24]
[3.2499999999999964, 0.5912583551539188, 3.5616793632507324, 0.23727530241012573, 0.30897823238021466, 0.09344931482024883, 0.1261973648836698, 0.030756349929082005, 0.0, -0.012578406007926694, 0.0955473038183152, -1.9141991138458252, -0.1190563216805458, -0.2423182415962219, 4.864612579345703, -0.4980059862136841, -3.3068120513735455e-05, -1.0538206623493935, 1.5352344160161796e-24]
[3.2999999999999963, 0.5616079784809508, 3.598003387451172, 0.6439443826675415, 0.45333345642402906, 0.10404651863107678, 0.19303742652662093, 0.032706866544436206, 0.0, -0.008780433607866815, 0.0934945357389789, -1.9149762392044067, -0.09093687683343887, -0.23742612332105636, 4.833183288574219, -0.606010377407074, -0.00012335280852320162, -0.9959598429541962, 1.1179436196712867e-24]
[3.349999999999996, 0.5604863777107242, 3.617981433868408, 0.7071535587310791, 0.44498292115034727, 0.1283980496606429, 0.18968993074606824, 0.04184474602433761, 0.0, -0.005956025179085846, 0.08983750116279404, -1.914760708808899, -0.08064170181751251, -0.22721244305372237, 4.818868160247803, -0.6446312069892883, -9.244295785659576e-05, -0.9768581037787674, 1.0248639300253694e-24]
[3.399999999999996, 0.6274035570815145, 3.6725528240203857, 0.7323233485221863, 0.20185003731231593, 0.20357672902083435, 0.08100934513424565, 0.07125809007354253, 0.0, -0.0011073405326152141, 0.08833928512943809, -1.9138761758804321, -0.044109974056482315, -0.22339716017246247, 4.7749481201171875, -0.7668474912643433, -5.3673121879220684e-05, -0.9052784980637383, 6.916173136025118e-25]
[3.4499999999999957, 0.7488317442558081, 3.716754674911499, 0.6942534446716309, 0.09480909945939944, 0.3093646139612253, 0.03777987008388813, 0.11441324331561277, 0.0, 0.0066256626028803655, 0.08366527253166704, -1.9108701944351196, 0.009383992291986942, -0.21064060926437378, 4.729328155517578, -0.9231595396995544, -4.7004895558586435e-05, -0.8628802873280571, 4.958145305914989e-25]
[3.4999999999999956, 0.8174725639114715, 3.7460992336273193, 0.7381607890129089, 0.07095624771918542, 0.3435484836940796, 0.028130001213094964, 0.1327189567851075, 0.0, 0.008710288167529378, 0.08018196929159804, -1.9068694114685059, 0.06701003015041351, -0.20262106984853745, 4.692174434661865, -1.0784159898757935, -2.7545046323004773e-05, -0.6855813405220118, 8.142455631253678e-26]
[3.5499999999999954, 0.8552455853153746, 3.7692673206329346, 0.8076111674308777, 0.05512439123842489, 0.3025967547233069, 0.02155983313955004, 0.12262439684409104, 0.0, 0.0015847642076267565, 0.06899646686797083, -1.898985505104065, 0.11359264701604843, -0.17660342335700988, 4.665950775146484, -1.192291498184204, -1.6569260044551803e-05, -0.6082188565009886, 2.77365556697411e-26]
[3.599999999999995, 0.8612852417823277, 3.845097780227661, 1.2133454084396362, 0.050317053940944906, 0.21799652348226312, 0.019286389627153597, 0.08826553898744197, 0.0, -0.00999224068841377, 0.06279870932987307, -1.8717118501663208, 0.22344905138015747, -0.1639867067337036, 4.585060119628906, -1.4610650539398193, -1.2794253313954992e-07, -0.4474491446313686, 1.8332309795815596e-27]
[3.649999999999995, 0.7133689012223422, 3.9358503818511963, 1.7106972932815552, 0.07271758900915848, 0.15582089313716047, 0.02812074564356334, 0.05943031599190199, 0.0, -0.01410314939828318, 0.053016603001237526, -1.8455730676651, 0.282173752784729, -0.13735618382692336, 4.502989292144775, -1.6265939474105835, -1.4295806059224468e-09, -0.4124620639091887, 8.042557119081945e-28]
[3.699999999999995, 0.4565595183184191, 4.012713432312012, 2.0509045124053955, -0.2298164021208957, 0.12171353329795255, -0.09626360491960108, 0.043454261502675354, 0.0, -0.013733089279937393, 0.047825873204492574, -1.8273907899856567, 0.3059067130088806, -0.11641106039285658, 4.4426703453063965, -1.703715443611145, -1.0326650646375317e-17, -0.37924931290055824, 2.573577816696308e-28]
[3.7499999999999947, 0.39115733464473174, 4.149720668792725, 2.389517068862915, -0.09570039329074037, 0.09625370657355346, -0.04576679230602618, 0.030479849173904193, 0.0, -0.011082139263985076, 0.05044431812367112, -1.7999011278152466, 0.3226078152656555, -0.10584145590662956, 4.34651517868042, -1.7730056047439575, -2.239281731821422e-21, -0.38584253987938705, 2.4308958216376255e-28]
[3.7999999999999945, 0.31653571571879824, 4.246715545654297, 2.365771532058716, -0.05747811557933832, 0.07382315983973119, -0.0303035933408485, 0.02085409295873807, 0.0, -0.009216696821081912, 0.05435179889970623, -1.7818779945373535, 0.3243902623653412, -0.10322084724903105, 4.280087947845459, -1.791370153427124, -7.967273527279647e-24, -0.3990061657985328, 2.1304896051995263e-28]
[3.8499999999999943, 0.2921664904719754, 4.312752723693848, 2.2778046131134033, -0.04535492897621816, 0.018653167812896224, -0.027204268312426325, -0.0003091123770304009, 0.0, -0.009339271023671093, 0.05493573230326816, -1.7693169116973877, 0.3222654461860657, -0.091662957072258, 4.233246803283691, -1.7926363945007324, -5.92067295733012e-23, -0.4762889128987555, 1.1255374988677411e-27]
[3.899999999999994, 0.32702397584297765, 4.466668128967285, 1.9202567338943481, -0.054197323106834054, -0.06709508273492945, -0.033998385098644, -0.03414777055339066, 0.0, -0.0087255536421698, 0.057677426975924394, -1.7394170761108398, 0.30462074279785156, -0.09205229312181472, 4.111837863922119, -1.765573501586914, -6.589784622775757e-18, -0.6138239472693529, 1.0953561824070401e-26]
[3.949999999999994, 0.4184211733187383, 4.520708084106445, 1.7477147579193115, -0.1041425832172213, -0.09021088355324679, -0.06706925296083634, -0.04620499660851565, 0.0, -0.008258387873430056, 0.057010709642634945, -1.7215101718902588, 0.3016360104084015, -0.08891213268041609, 4.069975852966309, -1.7483233213424683, -7.073778702627356e-16, -0.684468298421463, 2.751414126600465e-26]
[3.999999999999994, 0.48820080172398944, 4.63772439956665, 1.293615698814392, -0.3986239020203965, -0.08960185703551263, -0.27567654266655234, -0.05053545752897535, 0.0, -0.007482896721826309, 0.05715148163841658, -1.6736032962799072, 0.2949071526527405, -0.08843051269650459, 3.9657442569732666, -1.7020888328552246, -5.791028734153105e-12, -0.9041569183915256, 2.778786134002523e-25]
[4.049999999999994, 0.5869942770615928, 4.712044715881348, 1.0247797966003418, 0.11847082757693775, -0.08045859465052187, 0.07618669607554576, -0.04988559667127232, 0.0, -0.006629974846297875, 0.05447095953044878, -1.6371076107025146, 0.28116047382354736, -0.08518360778689384, 3.879173517227173, -1.6561006307601929, -3.5686120909720705e-11, -1.0124768724238997, 6.910184988454658e-25]
[4.099999999999993, 0.6252853030183796, 4.754847526550293, 0.9497641921043396, 0.0790535468598761, -0.11520365234149521, 0.05097888636590199, -0.07327983667094888, 0.0, -0.005475454496893812, 0.05451634917703819, -1.614950180053711, 0.2610782980918884, -0.0847523856163025, 3.8220486640930176, -1.6118663549423218, -9.662026812254545e-11, -1.161173715418095, 2.07895098086189e-24]
[4.149999999999993, 0.6263492496271932, 4.814291000366211, 0.911909282207489, 0.07738436116090228, -0.20880392813472384, 0.0512779188952932, -0.1260037174901786, 0.0, -0.005444975593497945, 0.055342769030576285, -1.5861642360687256, 0.1904723346233368, -0.08372249275445938, 3.7394516468048096, -1.488316535949707, -1.1159146948224102e-10, -1.7275144197993797, 3.6945434875432164e-23]
[4.199999999999993, 0.6030239273096555, 4.854207992553711, 0.971250057220459, 0.09904461454949602, -0.19407169555860668, 0.06856579520549369, -0.1029129598388726, 0.0, -0.021038135470756808, 0.059206520505943196, -1.5709774494171143, 0.13417428731918335, -0.08587299481034279, 3.6884703636169434, -1.3763400316238403, -7.192208772590042e-11, -3.0524491153143876, 2.8572034538989522e-21]
[4.249999999999993, 0.5070212141662187, 4.883398532867432, 1.020432710647583, -0.9010266047684241, -0.10312908624728787, -1.1735683485261623, -0.05730839676355806, 0.0, -0.03736808703680659, 0.06580559145851467, -1.5616605281829834, 0.10682447999715805, -0.0901173311471939, 3.6550676822662354, -1.3168848752975464, -1.0556163318011837e-11, -3.5259067658934358, 1.0863832057916743e-20]
[4.299999999999993, 0.44587300863932666, 4.963253498077393, 1.1212142705917358, -0.148002107781512, -0.020440869530543537, -0.116006515193207, -0.009936140437683877, 0.0, -0.043421562943006614, 0.06925698570373025, -1.5432116985321045, 0.07756070792675018, -0.08920946948230264, 3.5717406272888184, -1.251082181930542, -2.7308131297713344e-12, -4.000738034271868, 3.9359245298194346e-20]
[4.3499999999999925, 0.3471884692259594, 5.049464225769043, 1.207821011543274, -0.0549503971544675, 0.01829806147672075, -0.04701429600442438, -0.060864327697665824, 0.0, -0.039861872753428285, 0.07099393805130315, -1.513312578201294, 0.06452471017837524, -0.08309207409620284, 3.504673480987549, -1.238495111465454, -2.5127228033714066e-13, -4.441592447598703, 1.278122821204558e-19]
[4.399999999999992, 0.2998567397184454, 5.090283393859863, 1.2044318914413452, -0.041471417862631296, 0.0074984238491334326, -0.03815471127222195, -0.17943674786102615, 0.0, -0.03978394551194958, 0.07434649177952014, -1.5018119812011719, 0.014933956786990166, -0.08087525226175785, 3.472254991531372, -1.2322055101394653, -5.299146729503031e-14, -6.160332794620626, 3.4317724274612976e-19]
[4.449999999999992, 0.2741072978728309, 5.162230968475342, 1.0174503326416016, -0.03593912557507418, -0.03469879857816989, -0.039076045432369214, -0.2056637360970286, 0.0, -0.03768341897590139, 0.08547365229934079, -1.4859955310821533, -0.07268092781305313, -0.07866593860089777, 3.4114458560943604, -1.2103071212768555, -7.2665695041108e-14, -7.262489165957993, 5.4386504085644345e-19]
[4.499999999999992, 0.2869925103434237, 5.20053768157959, 0.7874762415885925, -0.0376438910599328, -0.05802888285191985, -0.04388641708034369, -0.17319994667858601, 0.0, -0.03724958311987441, 0.09076419187566259, -1.479270100593567, -0.10258589684963226, -0.07791544482111931, 3.370560646057129, -1.1945363283157349, -2.140690647725236e-13, -8.908986242916377, 1.8815347493503845e-18]
[4.549999999999992, 0.37417294754448205, 5.221529960632324, 0.610929548740387, -0.05958234526552842, -0.06860938748618244, -0.074255647712863, -0.13117662581073689, 0.0, -0.037302949186435466, 0.09364854616473683, -1.4753704071044922, -0.11639221012592316, -0.07530133485794066, 3.342154026031494, -1.1841647624969482, -7.86597895399255e-13, -9.306513484448871, 2.990650251626056e-18]
[4.599999999999992, 0.4439348210096654, 5.251501560211182, 0.1374197155237198, -0.11558499764206218, -0.06707482160882021, -0.15243824016473922, -0.07648380667394505, 0.0, -0.03554658706643437, 0.09406647889359088, -1.4705253839492798, -0.13675089180469513, -0.07192267127335071, 3.2676353454589844, -1.1605743169784546, -3.4681109607550206e-14, -9.841395676566082, 9.401577896846481e-18]
[4.6499999999999915, 0.5591555608538887, 5.252111434936523, -0.17520692944526672, 0.15447590432654965, -0.05952114730420403, 0.20518994973507965, -0.04674145624618189, 0.0, -0.030140038469275602, 0.09481354458476933, -1.4692403078079224, -0.15073898434638977, -0.07246039591729639, 3.2055912017822266, -1.138498067855835, -4.0232986169892555e-15, -10.03186462666425, 1.4675443115750042e-17]
[4.699999999999991, 0.5992841269615451, 5.2430338859558105, -0.3187725245952606, 0.08772848712789523, -0.06171097711043008, 0.11717260444707905, -0.04952588791382239, 0.0, -0.02569932164003018, 0.09740478533943141, -1.46979820728302, -0.16200102865695953, -0.07328333597630263, 3.1643805503845215, -1.118923544883728, -2.7252549827754384e-16, -10.308596227960237, 4.957174345705462e-17]
[4.749999999999991, 0.6332724251120279, 5.219881534576416, -0.337127685546875, 0.06416359613368057, -0.06280609093293865, 0.08893164290980542, -0.05967753337268637, 0.0, -0.020371551651578952, 0.10187211421355725, -1.4655334949493408, -0.19583521783351898, -0.07369819942861795, 3.103863000869751, -1.0624432563781738, -4.972745205375058e-18, -10.586139383168236, 8.446580000254298e-17]
[4.799999999999991, 0.6059095314995618, 5.210052967071533, -0.29320743680000305, 0.08366644477267025, -0.005514124493174459, 0.11736498885698658, 0.0018237380726671586, 0.0, -0.024862212828463813, 0.10480617215853863, -1.4653760194778442, -0.19802027940750122, -0.07506061669439076, 3.0757060050964355, -1.047947645187378, -1.3785181104889933e-17, -11.037622597038082, 3.1189896362985115e-16]
[4.849999999999991, 0.5248851482336718, 5.202538967132568, -0.24821032583713531, 0.40889797124124516, 0.03448102692022402, 0.6439468770450656, 0.05211063907125566, 0.0, -0.026834767114613065, 0.10356278533599998, -1.4648460149765015, -0.1851220577955246, -0.07474890382960439, 3.0514557361602783, -1.0476185083389282, -1.2976008308318546e-16, -10.974894636494186, 3.9885803669995097e-16]
[4.899999999999991, 0.4698340891433474, 5.189494609832764, -0.1370164006948471, -0.18712197981441733, 0.046583421816475505, -0.2619607325145109, 0.07753781660456494, 0.0, -0.026242685969472237, 0.09981051669470825, -1.464242935180664, -0.12360009551048279, -0.0729716498404741, 2.985341787338257, -1.0714718103408813, -1.4245044687349901e-15, -10.182065824194346, 5.577106141502919e-16]
[4.94999999999999, 0.39813883318281634, 5.183365345001221, -0.0961042270064354, -0.06784067141428576, 0.08200333189142905, -0.09272710278344436, 0.1510077900542028, 0.0, -0.023408884929846944, 0.09640938176108342, -1.4616622924804688, -0.055642858147621155, -0.07074443228542804, 2.9273598194122314, -1.1005619764328003, -2.41811601124098e-15, -9.821341245302966, 6.226758146201306e-16]
[4.99999999999999, 0.3696974641702075, 5.18016242980957, -0.0704486146569252, -0.052666570429101396, 0.16076664481249364, -0.07043960343436892, 0.2592900500392012, 0.0, -0.019161064547686395, 0.09174609022729951, -1.4575821161270142, 0.03996744751930237, -0.06871739827562123, 2.886458396911621, -1.1523107290267944, -5.272590152720308e-15, -7.235490256481955, 4.683813878002054e-16]
[5.04999999999999, 0.3214429111200575, 5.175988674163818, -0.12189931422472, -0.03255648212515952, 0.2779503990761677, -0.043701670600400415, 0.26260323929114815, 0.0, -0.029788382252272667, 0.07641938340363516, -1.4443422555923462, 0.19388578832149506, -0.05696848712861537, 2.8185930252075195, -1.2811264991760254, -6.343409264672843e-15, -5.58662485775961, 2.6400937858233347e-16]
[5.09999999999999, 0.31627735003501034, 5.168990612030029, -0.23289671540260315, -0.027152465988885127, 0.30293020071235205, -0.03813851005766153, 0.1894443950796421, 0.0, -0.057973599844241074, 0.06850792088784831, -1.4322364330291748, 0.2464967668056488, -0.0487975906021893, 2.768397569656372, -1.369591236114502, -2.289792737073114e-15, -4.370220687767434, 1.2658825073482245e-16]
[5.14999999999999, 0.36504915369421337, 5.149043560028076, -0.5190697908401489, -0.024943533470902102, 0.18073846227244614, -0.04363862529027486, 0.08024458404323517, 0.0, -0.08962102578603362, 0.05866156483928952, -1.4068148136138916, 0.27102530002593994, -0.03354814331978559, 2.694857120513916, -1.4342867136001587, -2.2901914175687338e-17, -3.5152521256664824, 3.0067086561784166e-17]
[5.1999999999999895, 0.4218233380142244, 5.125133037567139, -0.7399339079856873, -0.035374703233245854, 0.09735844521497605, -0.06779525513896753, 0.0368716505585061, 0.0, -0.09388892122173038, 0.055488765246558366, -1.389754056930542, 0.2737444043159485, -0.028987616598606103, 2.6443309783935547, -1.4475740194320679, -4.107271692418629e-22, -3.519426516580768, 2.0452078797543895e-17]
[5.249999999999989, 0.5673707848986675, 5.103017807006836, -0.8914011716842651, 0.03971936424589134, 0.021130926935391356, 0.09194373260397014, 0.00034471577511114963, 0.0, -0.0918168412446278, 0.04902585294815588, -1.3780343532562256, 0.27204790711402893, -0.021220023147761807, 2.6085994243621826, -1.4479942321777344, -3.762679036517558e-24, -3.973830312219151, 3.639332950832689e-17]
[5.299999999999989, 0.6319527156003395, 5.027716159820557, -1.21744966506958, 0.014685910690413539, -0.02778400930204056, 0.0417671630458571, -0.02693734804093782, 0.0, -0.08293730583767753, 0.047235130846712776, -1.35092294216156, 0.25857609510421753, -0.01661454796791076, 2.5145621299743652, -1.428978681564331, -1.5318329310878063e-29, -4.7050865294673, 9.103710642205828e-17]
[5.349999999999989, 0.722143497347806, 4.952676296234131, -1.2786943912506104, 0.0037251394974209522, -0.025918164181975692, 0.022724273365138905, -0.0180230982249964, 0.0, -0.07174114511481666, 0.04468692993157669, -1.3306822776794434, 0.23650872707366943, -0.007326093241572379, 2.4366016387939453, -1.3968796730041504, -2.4217497599447944e-30, -5.1195639871911585, 1.440698914127638e-16]
[5.399999999999989, 0.7313371441694339, 4.902608871459961, -1.2321641445159912, 0.000616008783553513, -0.007801472523012499, 0.02181868657535171, 0.014899511049753476, 0.0, -0.06518518407101005, 0.044764924321768304, -1.3183501958847046, 0.23432931303977966, -0.0012639522552490294, 2.3849992752075195, -1.3799136877059937, -4.4349004663487984e-29, -5.945073340532809, 3.953723393234322e-16]
[5.449999999999989, 0.7082939470982212, 4.868917942047119, -1.1635959148406982, -0.004736806747351695, 0.006522914662392925, 0.02323195008313821, 0.039138525198939324, 0.0, -0.05688274278163065, 0.042703088985345763, -1.3097580671310425, 0.24227137863636017, 0.00870766289532185, 2.3490824699401855, -1.3723338842391968, -1.5259720454784363e-27, -5.912234501502919, 3.945220110411615e-16]
[5.4999999999999885, 0.6347740829388386, 4.795665264129639, -0.8527284860610962, -0.018374246293820354, 0.010066386078406282, 0.03213773823024626, 0.04461470731944015, 0.0, -0.0430609221498455, 0.037177079900005475, -1.2874350547790527, 0.2767108082771301, 0.021261462718248372, 2.2558274269104004, -1.3607232570648193, -1.0843405747762814e-21, -5.430860056379454, -5.764804556624564e-16]
[5.549999999999988, 0.5725867464121015, 4.752957820892334, -0.6078776717185974, -0.04831448192976513, 0.010544727392823238, 0.0637819231016601, 0.04399156381847034, 0.0, -0.03108710972111149, 0.03704720873458914, -1.2602088451385498, 0.3070420026779175, 0.028103979378938677, 2.1869242191314697, -1.3480442762374878, -8.96430427537685e-20, -5.274930932360211, -3.301452443666688e-15]
[5.599999999999988, 0.5409508559959275, 4.731705665588379, -0.5002375841140747, -0.11709233787995159, 0.009320584810927585, 0.12188976377011261, 0.04417495569853411, 0.0, -0.024641068902558707, 0.035138579434734016, -1.241240382194519, 0.32366737723350525, 0.03399480529129507, 2.1412599086761475, -1.3393847942352295, -6.525183440180708e-18, -5.125196105819375, -1.0392124925857043e-14]
[5.649999999999988, 0.5064330280276018, 4.7187113761901855, -0.46626463532447815, 0.7321818639326245, 0.004561837508211849, -0.7624816112269294, 0.045836339387583205, 0.0, -0.018229035242083542, 0.03157720488671282, -1.2278151512145996, 0.33360904455184937, 0.041092470511794155, 2.109257221221924, -1.3330515623092651, -5.695407487241646e-16, -4.975223515071659, -5.407452584518592e-14]
[5.699999999999988, 0.5345614151559195, 4.685626029968262, -0.4888328015804291, -0.19627874316246474, -0.01633167529105296, 0.11812006622912677, 0.06084650689565935, 0.0, -0.009795727058814093, 0.02701403784248745, -1.1946954727172852, 0.3585803508758545, 0.04558030888438258, 2.0247609615325928, -1.3112425804138184, -4.735948230061427e-16, -4.840634042953605, -3.365139834620991e-13]
[5.749999999999988, 0.5482196469884407, 4.658534049987793, -0.40714573860168457, -0.12991846019053147, -0.05542759596132153, 0.0672663575637356, 0.03203251273679717, 0.0, -0.0009546719517809893, 0.023863070648723318, -1.1665211915969849, 0.39128783345222473, 0.04638525724411109, 1.9546247720718384, -1.2707792520523071, -9.417959958272973e-16, -4.606969249063209, -9.854128131875803e-13]
[5.799999999999987, 0.5385388303323332, 4.642971038818359, -0.35311052203178406, -0.16983106035232487, -0.06037165194172053, 0.08666164207894334, -0.07550671044321733, 0.0, 0.01350632563431554, 0.022979376267467485, -1.1480871438980103, 0.3656960129737854, 0.045527721047412026, 1.9087111949920654, -1.2341029644012451, -5.677584002379789e-15, -5.380818795238479, -1.0587728271268677e-11]
[5.849999999999987, 0.5268588661609367, 4.634136199951172, -0.2883528470993042, -0.2629044211607921, -0.0585757437563917, 0.18761176123426213, -0.10043996703090849, 0.0, 0.021985981369160516, 0.029662802020597866, -1.136420488357544, 0.32253050804138184, 0.042802709937131325, 1.8773173093795776, -1.2084397077560425, -1.2883438390067414e-13, -7.029478649187499, -3.5678971329798436e-11]
[5.899999999999987, 0.5334750162263434, 4.615070343017578, -0.27356529235839844, -0.18660682137116463, -0.07928326714363834, 0.15786652457808278, -0.017205838541815927, 0.0, 0.024738481316818526, 0.0346346583582852, -1.1121654510498047, 0.26092952489852905, 0.04159452408563566, 1.7979319095611572, -1.14824640750885, -2.5723180704576394e-13, -8.903969488332047, -1.1394966182974717e-10]
[5.949999999999987, 0.575622820674079, 4.608109474182129, -0.30056315660476685, -0.06426207215205343, -0.10571241199460588, 0.057265778405401944, 0.030753894243039554, 0.0, 0.023363766977295204, 0.03486672755600607, -1.1008951663970947, 0.26075175404548645, 0.039201847911733215, 1.7724473476409912, -1.1190520524978638, -1.3569614623057873e-13, -10.575005638317226, -8.521736109494546e-10]
[5.999999999999987, 0.6326308802002083, 4.585984706878662, -0.38442978262901306, -0.02869846244643393, -0.16355100088155816, 0.023371149944224696, 0.1051318825301825, 0.0, 0.018007354150347397, 0.026567154080845135, -1.070317268371582, 0.30272120237350464, 0.032634906332849156, 1.7122312784194946, -1.016213297843933, -2.4732153738893464e-14, -9.386153512173989, -1.1085166265491977e-08]
[6.0499999999999865, 0.6654767923758431, 4.564160346984863, -0.38022613525390625, -0.019376673540262665, -0.1616940520633035, 0.01247531167664574, 0.13660934232133368, 0.0, 0.017427661776976883, 0.01797734417193891, -1.0427627563476562, 0.3754330575466156, 0.02792665843774249, 1.6663639545440674, -0.9035654067993164, -2.476724874806529e-14, -8.215680422124876, -4.578997941552766e-08]
[6.099999999999986, 0.6795363062249442, 4.550698280334473, -0.32309338450431824, -0.01536156329479199, -0.12273733441201423, 0.007649532241095377, 0.12106860069337932, 0.0, 0.022498715508577374, 0.012019657492300663, -1.0226223468780518, 0.4260842800140381, 0.024139653179792185, 1.6382406949996948, -0.8368387222290039, -3.5865801476665896e-14, -6.8506421145407295, -1.8253686228207538e-07]
[6.149999999999986, 0.6755354216192394, 4.536314487457275, -0.1730898916721344, -0.012581603708804167, -0.07096489981292417, 0.0018294164201677896, 0.08422446548484143, 0.0, 0.02800813799930101, 0.0028066613994847407, -0.9900152683258057, 0.4854070246219635, 0.019303524432185453, 1.5987882614135742, -0.7651540040969849, -7.468938180996705e-13, -4.628142239929309, -1.428130421929416e-06]
[6.199999999999986, 0.6586507061324127, 4.532188415527344, -0.04855186119675636, -0.014182932210207876, -0.048658008755742686, 0.00015260176353602738, 0.06339141273180722, 0.0, 0.028502300592811593, 0.0002102386492470916, -0.9672072529792786, 0.5119075775146484, 0.019541061676210687, 1.5736080408096313, -0.7327681183815002, -4.71837177209005e-12, -3.6002578499893416, -7.159179969283292e-06]
[6.249999999999986, 0.603654997747526, 4.535140514373779, 0.13903488218784332, -0.02266692665016636, -0.03043982825504239, -0.006241156811439289, 0.04472704869715904, 0.0, 0.02658104666190541, -0.0054173602445804795, -0.9321860074996948, 0.5370259284973145, 0.019678521611900573, 1.5367143154144287, -0.6984831690788269, -1.7348915254438477e-10, -3.412378402165202, -1.5207739114246112e-05]
[6.299999999999986, 0.5747844473712747, 4.54292106628418, 0.24701161682605743, -0.03179374273411593, -0.02179615640934052, -0.013166351895375654, 0.033933040617904295, 0.0, 0.02458376339382224, -0.007905827575551182, -0.9086225032806396, 0.5461660623550415, 0.01909776092769763, 1.5123964548110962, -0.6835034489631653, -1.6107851308829588e-09, -3.2671320240927666, -3.968628308367907e-05]
[6.349999999999985, 0.5089559649680462, 4.551291465759277, 0.3120654821395874, 0.8515088268831037, -0.01743669994578327, 0.8704504363086835, 0.026686661931411754, 0.0, 0.022606128243919433, -0.011479829356599844, -0.8926025032997131, 0.5495386719703674, 0.017142778472045768, 1.4992066621780396, -0.672539234161377, -2.450231128458146e-09, -3.2971408287396087, -6.510410677364889e-05]
[6.399999999999985, 0.49116425831751714, 4.577462196350098, 0.37095606327056885, 0.07727958003609323, -0.016762199784242853, 0.06441057461814474, 0.01796925024727616, 0.0, 0.01983414811869211, -0.011259707159895087, -0.8524549007415771, 0.5494289994239807, 0.013545678794022189, 1.4668289422988892, -0.6513805389404297, -2.6003801609714462e-09, -3.584305845599986, -0.00012183153210063708]
[6.449999999999985, 0.45537373198044157, 4.603628158569336, 0.4632214605808258, 0.019706477614579426, -0.016689250807821184, 0.024761788000822814, 0.09485719892267755, 0.0, 0.014718565865299427, -0.012538868046301546, -0.8192287683486938, 0.5639110207557678, 0.009981273157556978, 1.4388763904571533, -0.6322766542434692, -3.0956980047988624e-09, -3.6824835772336164, -0.00017513151976329396]
[6.499999999999985, 0.44332012398134096, 4.622290134429932, 0.49743568897247314, 0.013376013458106822, 0.03403182929441142, 0.023788684038422752, 0.2252154887698727, 0.0, 0.006357791204595417, -0.014703920985155702, -0.7955485582351685, 0.6391798257827759, 0.008269063051623856, 1.4196066856384277, -0.6345192790031433, -2.8693875805488167e-09, -3.4302786937421588, -0.0002479961343133537]
[6.549999999999985, 0.4113591786669004, 4.653759479522705, 0.5214553475379944, 0.010779680011815071, 0.11575752094100458, 0.034570094815086445, 0.2524896542723681, 0.0, -0.00519660796180061, -0.03161668490438557, -0.7522898316383362, 0.8016358017921448, 0.009861090828479706, 1.3876112699508667, -0.6897507905960083, -2.2967788275024555e-09, -1.0852288100233087, -0.00029397457975063087]
[6.5999999999999845, 0.4198472911083919, 4.672369480133057, 0.42317694425582886, 0.015155905086402298, 0.11202206720750221, 0.046669022333877555, 0.19274851200886733, 0.0, -0.020414093404264397, -0.03902194987614052, -0.7193245887756348, 0.8569735884666443, 0.01267806737039967, 1.3634957075119019, -0.726032555103302, -1.034876909575324e-09, -0.3737013451348107, -0.0002458580656151386]
[6.649999999999984, 0.48115661797957, 4.682335376739502, 0.33079203963279724, 0.06730299640375975, 0.07687015547900528, 0.17082918278023076, 0.13947228599830505, 0.0, -0.030370581465990663, -0.046115602885509775, -0.6953018307685852, 0.8791701197624207, 0.018284834249448684, 1.3457067012786865, -0.7440425753593445, -5.448969586650799e-10, -0.3135329138981898, -0.00026346048405282183]
[6.699999999999984, 0.5320184725689105, 4.694430828094482, 0.05373332276940346, -0.09325595702926255, 0.033578052617979935, -0.22627964195956962, 0.08907732558326466, 0.0, -0.03593106242442798, -0.046980849598411784, -0.6317963004112244, 0.903874933719635, 0.019585109549222643, 1.2966011762619019, -0.7672187685966492, -1.798794567037276e-10, -0.2965139403302891, -0.0003413954955895819]
[6.749999999999984, 0.6194259444797835, 4.691336154937744, -0.08499795198440552, -0.021264815303118523, 0.02091784720217943, -0.047458113896658057, 0.08238903453701596, 0.0, -0.03552421102546966, -0.04816627096347907, -0.5818282961845398, 0.9157106280326843, 0.021593481593589783, 1.2640246152877808, -0.769385039806366, -9.691499192755688e-12, -0.26295591182609424, -0.00037710444211470066]
[6.799999999999984, 0.6451965106563095, 4.687037467956543, -0.06284205615520477, -0.018975379330019887, 0.02236765470536847, -0.04178290746300543, 0.08556572574353237, 0.0, -0.03451585460459075, -0.05238452377690887, -0.5480645895004272, 0.9358599781990051, 0.02379980024976387, 1.2420716285705566, -0.7737737894058228, -5.2294889955806325e-12, -0.21142927036667064, -0.0004923446263302797]
[6.849999999999984, 0.65527115919078, 4.683721542358398, 0.03192538395524025, -0.017953353877235404, -0.014450615922905048, -0.03906862522006227, -0.009721779540330516, 0.0, -0.03478002162001572, -0.0526277251479868, -0.4962235689163208, 0.928813099861145, 0.024192971377445666, 1.2071255445480347, -0.7648774981498718, -7.397039448235278e-12, -0.20130023977718903, -0.0005982954039233811]
[6.8999999999999835, 0.6343984228291802, 4.68572473526001, 0.12796328961849213, -0.020820225740263643, -0.022558248356901008, -0.04592778168223919, -0.033703144211201776, 0.0, -0.033826457225830185, -0.05298853109031727, -0.4624476432800293, 0.8951322436332703, 0.024032961773068812, 1.1832958459854126, -0.7469982504844666, -2.285523542237962e-11, -0.2325366958994658, -0.0008827916692707967]
[6.949999999999983, 0.5670656496159483, 4.696141242980957, 0.27832162380218506, -0.04321848265195731, -0.0172753611304146, -0.09536157280031897, -0.029513654345330424, 0.0, -0.03096331547948644, -0.0505886934566982, -0.414008229970932, 0.8461061716079712, 0.02297621683242928, 1.1473546028137207, -0.7241991758346558, -1.6639681453171053e-10, -0.40715680832789364, -0.0013545996249752757]
[6.999999999999983, 0.5257680350688698, 4.707653522491455, 0.35416680574417114, -0.14621296391120595, -0.015835841796763964, -0.3234081047963398, -0.028001792671944463, 0.0, -0.02749268638747022, -0.04898201131751743, -0.38300657272338867, 0.8185814619064331, 0.022697561086475415, 1.1232072114944458, -0.7120052576065063, -3.1001603284599676e-10, -0.6536713845470875, -0.002283045410675789]
[7.049999999999983, 0.45391170923531443, 4.729384422302246, 0.39529719948768616, 0.04324728617282244, -0.017367493404377276, 0.08961275084060985, -0.03431943766083265, 0.0, -0.020518616325778918, -0.04670815889244124, -0.33814290165901184, 0.7810236811637878, 0.02258572804635675, 1.0866507291793823, -0.6972337365150452, -4.940901061550009e-10, -0.7312032162661954, -0.003018666862561766]
[7.099999999999983, 0.43818566478827725, 4.744270324707031, 0.3858282268047333, 0.034127276973349614, -0.03046606640744484, 0.0671142865929789, -0.06161052910205533, 0.0, -0.01624327495578485, -0.044736798573545844, -0.30934712290763855, 0.7509105205535889, 0.022774365880587226, 1.0620737075805664, -0.6866492629051208, -4.36629909960699e-10, -0.8243147839981043, -0.004016683497552903]
[7.149999999999983, 0.424379589197965, 4.764531135559082, 0.3433089554309845, 0.027648951206246896, -0.05022729828927543, 0.05086478106980693, -0.10486655411521537, 0.0, -0.013282805552999162, -0.040397573287015376, -0.2700369656085968, 0.6764907836914062, 0.02197428400065704, 1.0346719026565552, -0.653028130531311, -2.779056206172504e-10, -1.3285808019586205, -0.0065425261477982995]
[7.199999999999982, 0.427322857596412, 4.7748894691467285, 0.24158932268619537, 0.026837554023604736, -0.029210428680932796, 0.04763286536051151, -0.06560731945127386, 0.0, -0.016820243242099804, -0.0365263956851455, -0.2460366189479828, 0.6408938765525818, 0.020592618270152224, 1.0172045230865479, -0.638483464717865, -8.187503818916307e-11, -2.313752167752149, -0.01099268191398576]
[7.249999999999982, 0.48421183935627016, 4.781496047973633, 0.0386299267411232, 0.0820899634323938, 0.004736853976539458, 0.13849485235357106, 0.004368509980746943, 0.0, -0.019737306434746985, -0.033314187598865314, -0.21148142218589783, 0.6185571551322937, 0.019854180837318075, 0.9896887540817261, -0.632193922996521, -3.1402014378339496e-11, -2.2989826672861167, -0.013987073942788135]
[7.299999999999982, 0.5252881032143726, 4.778792858123779, -0.10825522243976593, -0.14458129503998834, 0.016234833315782127, -0.23289167950189466, 0.03022384025815569, 0.0, -0.019493542750633235, -0.03360828468994405, -0.18866945803165436, 0.6158726215362549, 0.021202081459009606, 0.9702650308609009, -0.6343935132026672, -7.330367997610144e-13, -2.03069647355769, -0.018618906283333854]
[7.349999999999982, 0.6087961177561995, 4.7735700607299805, -0.19507427513599396, -0.023286487627330824, 0.023757843014773513, -0.034829350905240745, 0.04711727791547259, 0.0, -0.018135278522932292, -0.03190413296559439, -0.1727267950773239, 0.6163145899772644, 0.021338892371968662, 0.9563727378845215, -0.6375894546508789, -1.5361817714011258e-13, -1.6015449132622668, -0.022197493926917108]
[7.399999999999982, 0.6381743443819887, 4.7529754638671875, -0.26810193061828613, -0.018760941350173584, 0.03552289621130372, -0.02732261695735872, 0.06945986715688093, 0.0, -0.015529031928213014, -0.03246515741016066, -0.13050006330013275, 0.6394911408424377, 0.022297431539124165, 0.9175217151641846, -0.6563384532928467, -4.4025505526662755e-14, -0.6313941869577191, -0.026204410320436473]
[7.4499999999999815, 0.6272173515152859, 4.7384490966796875, -0.16276095807552338, -0.023238170928223015, -0.011804163843875675, -0.031632994001888855, 0.004428532707324667, 0.0, -0.018455641964568014, -0.0343766158278525, -0.09384744614362717, 0.6432998776435852, 0.02526244493525509, 0.8829604387283325, -0.6586199402809143, -1.2799519402534824e-13, -0.08509281841515604, -0.030477441363378904]
[7.499999999999981, 0.6050057096707486, 4.732350826263428, -0.08018521964550018, -0.029141399153465777, -0.021325600740985523, -0.03847316332351392, -0.015596748160536175, 0.0, -0.019419829329132974, -0.033892841473959004, -0.06976065039634705, 0.6245766878128052, 0.025685651748936996, 0.8596236109733582, -0.645933985710144, -4.552382550760033e-13, 0.34471421017459636, -0.037662684481961126]
[7.549999999999981, 0.5469306439704562, 4.7302727699279785, -0.025295499712228775, -0.07306210086507214, -0.018736913107254193, -0.09263335612374876, -0.01892614232026095, 0.0, -0.019248504864773513, -0.031796917201005484, -0.05501408502459526, 0.6084641218185425, 0.025159661204808156, 0.8461160063743591, -0.6363190412521362, -5.497372030645149e-12, 0.746836171471144, -0.055705637925068156]
[7.599999999999981, 0.5115288523872612, 4.731281280517578, 0.07444062829017639, -0.628057840615187, -0.020186338755305507, -1.1375928377197688, -0.0225397027056551, 0.0, -0.01653690762640765, -0.030636282014334226, -0.01952059008181095, 0.5691165924072266, 0.02451050360867789, 0.8125849366188049, -0.6136642694473267, -1.4499930040864506e-11, 1.211546185100098, -0.0726151205043985]
[7.649999999999981, 0.4852416165735393, 4.733007907867432, 0.082252636551857, 0.10189104875841339, -0.024755093608941736, 0.12731367517156236, -0.028645999632482093, 0.0, -0.013479478567994542, -0.029372353058864008, -0.006396423559635878, 0.554410994052887, 0.023652668796464042, 0.7996159791946411, -0.6055004596710205, -2.4669453698171655e-11, 1.788043527488242, -0.1000801995239969]
[7.699999999999981, 0.4374663447181239, 4.755795955657959, 0.23624059557914734, 0.011739818012631886, -0.22101193211507336, -0.015191302382598892, -0.2576252802721541, 0.0, -0.007013299771726116, 0.01021301588832945, 0.055592529475688934, 0.18504463136196136, 0.007893271124894156, 0.7216514945030212, -0.41320693492889404, -1.0011284368993796e-10, -17.18184790432066, -0.3488018875665786]
