time, uz, alt, vel_alt, uthe, roll, uphi, pitch, upsi, yaw, ux, pos_x, vel_x, uy, pos_y, vel_y, Fz, Fx, Fy
[0.0, 0.8863499944935399, 2.9569694995880127, 0.012915033847093582, -0.005940396835028924, -0.018021933751445545, 0.004706502655592823, 0.00793975531245239, 0.0, 0.024779740307113652, 0.004171639405141403, 1.4468532800674438, 0.01905667409300804, 0.005265390954237992, 1.4329253435134888, 0.008271165192127228]
[0.05, 0.8862865178952581, 2.958650588989258, 0.011532601900398731, -0.0025011545111909565, -0.017996005314263267, 0.004535423778164066, 0.00803900304689048, 0.0, 0.02488930736678663, 0.004019712509487205, 1.4514977931976318, 0.018884064629673958, 0.002216766944412007, 1.4323431253433228, 0.008226324804127216]
[0.1, 0.8820522605302676, 2.9599273204803467, 0.08402109146118164, 0.0012155142429525147, -0.017925977214164973, 0.003723602350861137, 0.008073131917829077, 0.0, 0.024851424635886365, 0.003284427050668736, 1.4537146091461182, 0.018785372376441956, -0.001072155046548018, 1.4320520162582397, 0.009201208129525185]
[0.15000000000000002, 0.8659198595791168, 2.966419219970703, 0.3645195960998535, 0.0059283611769835876, -0.01599586776540888, 0.003116658081789942, 0.007593239646212368, 0.0, 0.024357510845919573, 0.0026987848668127415, 1.455757975578308, 0.020564839243888855, -0.005133570750933325, 1.4318538904190063, 0.013953601941466331]
[0.2, 0.814525145506828, 3.0221590995788574, 1.1548216342926025, 0.01169484758361624, -0.009931056892956239, 0.0020660207890732807, 0.006590422997341074, 0.0, 0.0212619067400315, 0.001682828278192305, 1.46038019657135, 0.022671356797218323, -0.009526202061608334, 1.4320740699768066, 0.02005140669643879]
[0.25, 0.7928958657629592, 3.0588486194610596, 1.44842529296875, 0.01607611928093797, -0.008151016689929489, 0.00165252019610403, 0.006019831868663571, 0.0, 0.01889183403325041, 0.0013102776242929874, 1.462181568145752, 0.02378607727587223, -0.01274780412646338, 1.4322290420532227, 0.02034679800271988]
[0.3, 0.7368340179160797, 3.1885149478912354, 2.1075572967529297, 0.020284509685587926, -0.003000813149041528, 0.0016503920193632155, 0.004836835328449231, 0.0, 0.014995620561315573, 0.0012160660868686607, 1.466204047203064, 0.021952837705612183, -0.014948387412501173, 1.4327019453048706, 0.015303239226341248]
[0.35, 0.6862062494261902, 3.3487343788146973, 2.5757246017456055, 0.022664655248813077, 0.0027332819694906568, 0.0024508264970475274, 0.0037467254528641327, 0.0, 0.011734939820722748, 0.0016817758257584798, 1.469525694847107, 0.017955146729946136, -0.015555338395935947, 1.4326180219650269, 0.002714495873078704]
[0.39999999999999997, 0.6625047007469356, 3.4342751502990723, 2.763857364654541, 0.025802002862004972, 0.006012867780917706, 0.003226766470878043, 0.0031761119468774997, 0.0, 0.009996511729308372, 0.002137755374626349, 1.4707931280136108, 0.015656258910894394, -0.01709783160074755, 1.432306170463562, -0.00501946872100234]
[0.44999999999999996, 0.6168823177988384, 3.631014823913574, 3.031437635421753, 0.025688240225405133, 0.011076174011984066, 0.0048455593128432315, 0.0025840419919540137, 0.0, 0.007763153479282978, 0.002989163254606564, 1.473718523979187, 0.010246203280985355, -0.015850293821234027, 1.429884433746338, -0.025114288553595543]
[0.49999999999999994, 0.5973938321120584, 3.7288055419921875, 3.1052212715148926, 0.027662551133096118, 0.01404100112056193, 0.0059872725950609555, 0.0023643714418189266, 0.0, 0.006697309380264518, 0.0035768024592941036, 1.4748477935791016, 0.007611481007188559, -0.0165299501756884, 1.4282301664352417, -0.03614109009504318]
[0.5499999999999999, 0.5592513037448203, 3.942355155944824, 3.184340000152588, 0.024924694308471416, 0.01871325801066692, 0.00820874799290223, 0.002708986690315376, 0.0, 0.005285852320658659, 0.004590856133657973, 1.4768728017807007, 0.002282221568748355, -0.013942524775310439, 1.42354416847229, -0.06122108921408653]
[0.6, 0.5431590280771564, 4.04385232925415, 3.1841228008270264, 0.02654784123701905, 0.02068715552482499, 0.009705806010545466, 0.003175000396976114, 0.0, 0.00461681952330171, 0.005271961704723082, 1.4775323867797852, -0.0002489522157702595, -0.014423767582335066, 1.4208896160125732, -0.07247215509414673]
[0.65, 0.5117002485186364, 4.258701801300049, 3.135272741317749, 0.022474472819662847, 0.02327951070401224, 0.012916047566171911, 0.004408164869720213, 0.0, 0.0036300854912678527, 0.006609512295963493, 1.4785455465316772, -0.006218321155756712, -0.01150308945903562, 1.4140589237213135, -0.09759078174829483]
[0.7000000000000001, 0.4982787274583743, 4.358217239379883, 3.0912911891937256, 0.023570774225311796, 0.024225558103147433, 0.014704008513685238, 0.005563331678434441, 0.0, 0.002945569487552808, 0.007327222726078508, 1.4787652492523193, -0.008384257555007935, -0.011748260946992654, 1.410353660583496, -0.10921353101730347]
[0.7500000000000001, 0.47294687811753133, 4.564260959625244, 2.954594373703003, 0.01858573645341208, 0.02448444624200833, 0.017811726156769882, 0.00731919857619472, 0.0, 0.0023062923067586187, 0.00842489125213457, 1.4789806604385376, -0.012337704189121723, -0.008792472991867892, 1.4013166427612305, -0.13283079862594604]
[0.8000000000000002, 0.462579789206958, 4.657498359680176, 2.8723831176757812, 0.019952901484766042, 0.024093824269922844, 0.01978188899385321, 0.008961785266488312, 0.0, 0.0020162820238684765, 0.00915189585488727, 1.478890299797058, -0.014099523425102234, -0.009232840462972878, 1.3966114521026611, -0.14270393550395966]
[0.8500000000000002, 0.44316533266906344, 4.8479156494140625, 2.6718311309814453, 0.013639375875306399, 0.023312025887339334, 0.023086832042269852, 0.011636048182616194, 0.0, 0.0016650237873779626, 0.010233101754158591, 1.4786055088043213, -0.017377635464072227, -0.006046484721704146, 1.3827519416809082, -0.16383196413516998]
[0.9000000000000002, 0.43537159125661873, 4.93269681930542, 2.566744327545166, 0.014049030842328638, 0.022453290451272163, 0.025073970780610303, 0.01336301082122054, 0.0, 0.0015630818345051072, 0.01091878288131971, 1.4783328771591187, -0.01857844553887844, -0.0061188747434775675, 1.3756203651428223, -0.17369846999645233]
[0.9500000000000003, 0.4373634405222544, 5.004209041595459, 2.3190104961395264, 0.009946307640573871, 0.021072715584074017, 0.02660333589543012, 0.015432647680299276, 0.0, 0.0014576434481350692, 0.011638072212782213, 1.4780796766281128, -0.019853170961141586, -0.00435183467537513, 1.3690487146377563, -0.1931675672531128]
[1.0000000000000002, 0.41708580032319, 5.174283504486084, 2.1944386959075928, 0.007875906412172486, 0.018805984282791604, 0.0293510141690176, 0.01815343197208731, 0.0, 0.0013316982159838869, 0.012245407836564536, 1.4772018194198608, -0.019991040229797363, -0.00328641214302966, 1.3520052433013916, -0.20125944912433624]
[1.0500000000000003, 0.40900520201381757, 5.316457748413086, 1.9255484342575073, 0.0010356127088483281, 0.016051723684572493, 0.03103780372857281, 0.02130755540302319, 0.0, 0.0012135744704440308, 0.012698701190513818, 1.4762471914291382, -0.019192634150385857, -0.00042377524116533893, 1.3350675106048584, -0.21840068697929382]
[1.1000000000000003, 0.40625653477182255, 5.376957416534424, 1.7983137369155884, 0.002361493071692572, 0.0145454324436595, 0.032158507226164076, 0.022918461081357207, 0.0, 0.0011280635358642372, 0.013069109244881227, 1.4757888317108154, -0.018243631348013878, -0.0009598700670003096, 1.326977252960205, -0.22516709566116333]
[1.1500000000000004, 0.3944133521654404, 5.4913411140441895, 1.6812022924423218, 0.0007563613411623664, 0.011661129078895731, 0.03450975056591061, 0.025557545064844037, 0.0, 0.0009921291301368896, 0.013616512237645994, 1.4748625755310059, -0.017720429226756096, -0.00029849679459648115, 1.30923330783844, -0.23066304624080658]
[1.2000000000000004, 0.4039294249686281, 5.538200378417969, 1.366369605064392, -0.0011976859476349282, 0.009138331389834616, 0.0341205006067048, 0.027316491928105216, 0.0, 0.000960428005771192, 0.013787625162117867, 1.4744453430175781, -0.015589417889714241, 0.00048406257500236555, 1.300790786743164, -0.24372270703315735]
[1.2500000000000004, 0.4069196637390912, 5.623917102813721, 1.058233380317688, -0.008553795704980032, 0.0051715175624347, 0.03259090581327389, 0.029629355862659554, 0.0, 0.000875561825471079, 0.01326657787483163, 1.4758175611495972, -0.011231697164475918, 0.0034826419761452496, 1.277793288230896, -0.2569271922111511]
[1.3000000000000005, 0.40943349621164216, 5.656927585601807, 0.9142652153968811, -0.007856707885419938, 0.0032926856096297053, 0.0325637558332067, 0.031242659802087343, 0.0, 0.0007858133283412692, 0.013337407054660532, 1.4766809940338135, -0.009343909099698067, 0.003218571901713131, 1.2665519714355469, -0.26261577010154724]
[1.3500000000000005, 0.416551245050951, 5.712072849273682, 0.6195589900016785, -0.013984420240653803, 0.0010194397524881601, 0.03030276254228758, 0.032869989487377425, 0.0, 0.0006646406184290653, 0.012626518500176686, 1.4786159992218018, -0.004243491683155298, 0.005828283154586278, 1.242418885231018, -0.2729838788509369]
[1.4000000000000006, 0.42080494448111705, 5.731080055236816, 0.48454219102859497, -0.012071153798331487, -0.001003688176504732, 0.0298253612214419, 0.03333645478618136, 0.0, 0.000532097043123651, 0.012554382286376464, 1.479406714439392, -0.0013710446655750275, 0.005082108171828741, 1.2314420938491821, -0.2764184772968292]
[1.4500000000000006, 0.4250157755922026, 5.744176864624023, 0.36773890256881714, -0.00981050723459516, -0.0033134365414619897, 0.02962617371484469, 0.03341512989151089, 0.0, 0.00043352337198721783, 0.012595276415616618, 1.4802128076553345, 0.001032139640301466, 0.004171584703504733, 1.221643328666687, -0.27989280223846436]
[1.5000000000000007, 0.4376868549172265, 5.762085914611816, 0.07962102442979813, -0.01373515076967238, -0.0068627596960349315, 0.02644716142102032, 0.032743754951403574, 0.0, 0.0002573128348701175, 0.011578274513502105, 1.4821701049804688, 0.007968666963279247, 0.006014176207127027, 1.1971839666366577, -0.2861144542694092]
[1.5500000000000007, 0.45204540074398974, 5.760138511657715, -0.1813235580921173, -0.015990687853173903, -0.00973949953101584, 0.024218374453346868, 0.031648168783861175, 0.0, 0.0002226274116879241, 0.010949945691491656, 1.4842050075531006, 0.013010729104280472, 0.00723125364615327, 1.1742669343948364, -0.29034173488616943]
[1.6000000000000008, 0.45971365030708633, 5.752923011779785, -0.30248376727104187, -0.01323943844894632, -0.010395883921342094, 0.02403911863815912, 0.03087900512352592, 0.0, 0.0002458280579534918, 0.011053240207304915, 1.4851391315460205, 0.015327195636928082, 0.0060884653271283465, 1.163741111755371, -0.29203879833221436]
[1.6500000000000008, 0.4767134855994388, 5.726090431213379, -0.5391514301300049, -0.015165575151774665, -0.010969802337840706, 0.021246019979850084, 0.029655445850198896, 0.0, 0.0003282328000134657, 0.010129788458678046, 1.4887123107910156, 0.020904866978526115, 0.0072318206383578665, 1.1403744220733643, -0.2955108880996704]
[1.7000000000000008, 0.48510745162432906, 5.708082675933838, -0.6419868469238281, -0.012372905823254518, -0.012175818056174846, 0.02090222554329032, 0.02829391183353588, 0.0, 0.0003854045364138241, 0.01014130233151702, 1.4904965162277222, 0.023256028071045876, 0.006003806614063002, 1.1295119524002075, -0.2964785099029541]
[1.7500000000000009, 0.5037213527824429, 5.658952713012695, -0.8429247736930847, -0.012858240389621387, -0.013522923393886948, 0.018993682582968196, 0.026447183187767592, 0.0, 0.0003694718904831951, 0.009568674177583735, 1.4943642616271973, 0.027071649208664894, 0.006478495778149289, 1.1065802574157715, -0.29688119888305664]
[1.800000000000001, 0.5127857217986264, 5.631396293640137, -0.9300727844238281, -0.009910859217938862, -0.013916979206809073, 0.01901899737554723, 0.02503207478090725, 0.0, 0.00036862543463097973, 0.009753846386591002, 1.496045470237732, 0.02884438820183277, 0.005083232833965584, 1.0960708856582642, -0.29722359776496887]
[1.850000000000001, 0.5321989302919197, 5.564146518707275, -1.0924592018127441, -0.00946862520392777, -0.014060894525960927, 0.017481345433020167, 0.023105681906487215, 0.0, 0.0004646649495894095, 0.009304501169400868, 1.499693512916565, 0.03242061287164688, 0.005040112909480136, 1.0739346742630005, -0.29557856917381287]
[1.900000000000001, 0.5411163536582365, 5.528897285461426, -1.1542080640792847, -0.006160261151937814, -0.013613424229576213, 0.01796433993631569, 0.021906552034538732, 0.0, 0.0005626309929529663, 0.009721843947805172, 1.5013198852539062, 0.0332854762673378, 0.0033339981745095365, 1.06378173828125, -0.2945772707462311]
[1.950000000000001, 0.5491405055715342, 5.496471405029297, -1.207686185836792, -0.0027164266750361204, -0.012676865153309949, 0.018691227497080343, 0.02083177653119388, 0.0, 0.0005440383464565476, 0.010265305581188856, 1.502777338027954, 0.03375205770134926, 0.0014919641969592945, 1.054905652999878, -0.29382452368736267]
[2.000000000000001, 0.5692624585413449, 5.406348705291748, -1.3158321380615234, -0.00288522777768551, -0.011357633861827296, 0.01803685819324561, 0.019570593447832428, 0.0, 0.000551026810620278, 0.010268819842676177, 1.5062861442565918, 0.03548527508974075, 0.0016427236207029183, 1.0325618982315063, -0.2929047644138336]
[2.0500000000000007, 0.5879339982077229, 5.315699577331543, -1.3954880237579346, -0.002708311098179871, -0.009694329074474293, 0.015909360409718732, 0.018571998093178815, 0.0, 0.0005588193839898831, 0.009354443115276799, 1.5138367414474487, 0.038881804794073105, 0.0015925136000361911, 1.0109920501708984, -0.2915296256542206]
[2.1000000000000005, 0.5964330808695504, 5.271306037902832, -1.4225196838378906, -0.00037771948349657746, -0.00796019889075038, 0.01575585776088336, 0.018413758590142482, 0.0, 0.00048543568767749285, 0.009398092481860144, 1.517646312713623, 0.04039895534515381, 0.0002253123719479569, 1.0009236335754395, -0.2921639084815979]
[2.1500000000000004, 0.6034744949766825, 5.231866836547852, -1.4370777606964111, 0.0021903871257813773, -0.0063268147709238795, 0.015685036529251913, 0.018445482651289334, 0.0, 0.0004131246165538859, 0.009466295811449397, 1.5211228132247925, 0.04214789718389511, -0.0013220074955688499, 0.9920878410339355, -0.29278963804244995]
[2.2, 0.6196652995531653, 5.1295976638793945, -1.4364155530929565, 0.001148115506627518, -0.004626824476716685, 0.013276257711070261, 0.017772541864356846, 0.0, 0.00042985234314671877, 0.008227319596915337, 1.529029369354248, 0.047214724123477936, -0.0007115103560763961, 0.9697252511978149, -0.2940261960029602]
[2.25, 0.6334826322413746, 5.034272193908691, -1.4121328592300415, 0.00018676651743019528, -0.0030795692454899273, 0.012047398814040487, 0.016926450263313398, 0.0, 0.00043377538324151314, 0.007632187160705125, 1.5361528396606445, 0.04975394159555435, -0.00011832193295995691, 0.9487097263336182, -0.29615262150764465]
[2.3, 0.639378638282952, 4.990049839019775, -1.3913216590881348, 0.0022902145082336544, -0.00169296135295081, 0.012452538378928752, 0.01650280816611986, 0.0, 0.0003289489269873516, 0.00796229859597417, 1.5391772985458374, 0.050845254212617874, -0.0014644303338043757, 0.9389023184776306, -0.29695403575897217]
[2.3499999999999996, 0.6496944966283296, 4.89906644821167, -1.3148012161254883, 0.000844643192588502, -0.00025187631538030217, 0.011554539776101007, 0.01553854009882712, 0.0, 0.00023702290116755766, 0.007507254997918442, 1.5455752611160278, 0.053436025977134705, -0.0005487967981449016, 0.9180024266242981, -0.30070945620536804]
[2.3999999999999995, 0.6535849883899022, 4.858112812042236, -1.266373872756958, 0.002337223957637935, -4.2025183511754293e-05, 0.012160275364399764, 0.014530754616306065, 0.0, 0.0003201877604976794, 0.007948165207870004, 1.5483418703079224, 0.05437410622835159, -0.001527690224880425, 0.908136785030365, -0.3032318651676178]
[2.4499999999999993, 0.6566039986336699, 4.823495388031006, -1.2204325199127197, 0.004251136356784101, 0.0003913847462794357, 0.012679866975843229, 0.013818067057406734, 0.0, 0.0002751478643248853, 0.008326097583886048, 1.5516120195388794, 0.05535272881388664, -0.0027915543544315274, 0.8991609811782837, -0.3049600124359131]
[2.499999999999999, 0.6620507638887645, 4.740596294403076, -1.077301263809204, 0.0016422343583002794, 0.0008360470405050653, 0.010785664965216933, 0.012955281840970573, 0.0, 0.00032776158165236894, 0.007140934634413454, 1.5625050067901611, 0.058532748371362686, -0.0010873067316972684, 0.8749414086341858, -0.3100583851337433]
[2.549999999999999, 0.6634147242950271, 4.711187839508057, -1.0159707069396973, 0.003327392441871576, 0.0009624549281243407, 0.011103452567220269, 0.01264252327207815, 0.0, 0.0003366905258800302, 0.007366496656347098, 1.566648244857788, 0.05982423946261406, -0.0022075853675869866, 0.8654800057411194, -0.312064528465271]
[2.5999999999999988, 0.6650490368096851, 4.6436944007873535, -0.8474290370941162, 0.0007348785845380708, 0.0019837657622898174, 0.009759578743655076, 0.012546006531243013, 0.0, 0.00030874266612306516, 0.006490804526141036, 1.5760802030563354, 0.06275797635316849, -0.0004887536593542463, 0.8413507342338562, -0.317226380109787]
[2.6499999999999986, 0.664805668253913, 4.620855331420898, -0.7756046056747437, 0.0023429522435122916, 0.0022569167098119083, 0.0102640406605777, 0.01233768235283685, 0.0, 0.00020274433578617475, 0.006823832043466083, 1.5797020196914673, 0.06410796195268631, -0.0015576928332284995, 0.8319172263145447, -0.3194315433502197]
[2.6999999999999984, 0.6622335358660542, 4.571776390075684, -0.5832015872001648, -0.0003719557710474404, 0.0023019289339403647, 0.009698303926041027, 0.011698877256032964, 0.0, 0.0001426896731556309, 0.0064227434703147054, 1.5880908966064453, 0.0656551942229271, 0.0002463331814075709, 0.8077240586280823, -0.32489141821861267]
[2.7499999999999982, 0.6604804541895397, 4.556375026702881, -0.5052551627159119, 0.001285668502002242, 0.0022260917940652046, 0.01064873375728565, 0.011463616477784693, 0.0, 0.00012091032827161442, 0.007033546368139552, 1.591300368309021, 0.06612920016050339, -0.0008492075317248632, 0.7982472777366638, -0.32684966921806335]
[2.799999999999998, 0.6540859769186327, 4.527215957641602, -0.30056092143058777, -0.001040873014171892, 0.0017589620789971686, 0.010943847442419692, 0.010869008451385664, 0.0, 0.0001886860024976439, 0.007158502933947153, 1.5987703800201416, 0.06593842059373856, 0.0006808614604252999, 0.7739190459251404, -0.3307555913925171]
[2.849999999999998, 0.6460266638480298, 4.513216495513916, -0.10961919277906418, -0.003990469265056849, 0.0015533897896833117, 0.01009651030837681, 0.010512442122602645, 0.0, 0.0001974070454455427, 0.006522836517476314, 1.608883023262024, 0.06766987591981888, 0.002578094633951894, 0.7496368288993835, -0.33648934960365295]
[2.8999999999999977, 0.6416763570459771, 4.5109453201293945, -0.022127395495772362, -0.002893647103665865, 0.0010524588182091183, 0.010838774385474124, 0.010525412754422304, 0.0, 0.00020852088175329618, 0.006955257630287811, 1.6136574745178223, 0.06816533207893372, 0.001856899186770844, 0.7380946278572083, -0.33864277601242065]
[2.9499999999999975, 0.6318632146946356, 4.514424800872803, 0.14987987279891968, -0.0055673189072418085, 0.0004133823778526222, 0.009963976652259947, 0.010745327889711123, 0.0, 0.00019938679636976846, 0.006296078679992243, 1.6236026287078857, 0.07034125179052353, 0.003517995000317492, 0.7134639620780945, -0.34284740686416626]
[2.9999999999999973, 0.6270731197518807, 4.519980430603027, 0.22247515618801117, -0.004292350740440365, -0.00048224999880987484, 0.010956627405214879, 0.010771078395588244, 0.0, 0.0002707712129005135, 0.006870881475617119, 1.6277790069580078, 0.07077402621507645, 0.0026917958706814266, 0.7019525766372681, -0.34441041946411133]
[3.049999999999997, 0.62274298518999, 4.526819229125977, 0.28274616599082947, -0.0022642611073927952, -0.0015924600060608842, 0.012088472684565383, 0.010693932664142026, 0.0, 0.00022944967687934647, 0.007528378279793177, 1.631521224975586, 0.0712188184261322, 0.0014101581637730315, 0.6918503642082214, -0.34470781683921814]
[3.099999999999997, 0.6116195178390784, 4.552000999450684, 0.4151359498500824, -0.004252160535625853, -0.002919005203097412, 0.012515963830979998, 0.010672074445085012, 0.0, 0.0001818427739030268, 0.007655407505974819, 1.6401362419128418, 0.07076089829206467, 0.002600923764869173, 0.6661137342453003, -0.34559541940689087]
[3.149999999999997, 0.6072108554487656, 4.5642900466918945, 0.46080416440963745, -0.002038472622864282, -0.0036764498525444166, 0.014007480002376156, 0.010692686049891802, 0.0, 0.000174475716502513, 0.008506050244812035, 1.6433956623077393, 0.07080083340406418, 0.0012379058620800854, 0.6561295986175537, -0.3454817831516266]
[3.1999999999999966, 0.5957990188970615, 4.601632118225098, 0.5627147555351257, -0.0034324135941093186, -0.003564295078916888, 0.014861375721128335, 0.011103429552907107, 0.0, 0.00012705393650488234, 0.008855044993561621, 1.6510026454925537, 0.07018723338842392, 0.0020452625376848055, 0.630721390247345, -0.34460458159446716]
[3.2499999999999964, 0.5855413210379136, 4.642209053039551, 0.6336565613746643, -0.0064666475859743245, -0.003359941852890053, 0.014608274018001266, 0.012028757180315907, 0.0, 0.00015436743072671017, 0.00855435657990089, 1.660251498222351, 0.07168921083211899, 0.0037869462147435418, 0.603471040725708, -0.346969336271286]
[3.2999999999999963, 0.5808651475127936, 4.662797451019287, 0.6598359942436218, -0.005524648891587663, -0.0032163418169267365, 0.015915799513145867, 0.012536661392794333, 0.0, 0.00013772401522817347, 0.00924571393067839, 1.6645630598068237, 0.0720321536064148, 0.003209515139484184, 0.5904466509819031, -0.34835922718048096]
[3.349999999999996, 0.571811803555149, 4.708688259124756, 0.6927497386932373, -0.008651072068590948, -0.0032244403762575194, 0.01575202457703477, 0.013649948847757155, 0.0, 9.93788193058034e-05, 0.009007938630792899, 1.6735243797302246, 0.07363132387399673, 0.0049475223259075884, 0.5628677606582642, -0.3503609895706177]
[3.399999999999996, 0.5678186605495783, 4.731118679046631, 0.7008149027824402, -0.007443967066780178, -0.0040055446155395635, 0.017232022840428483, 0.014110320237863534, 0.0, 2.9988244153912255e-05, 0.009785632737432446, 1.6773501634597778, 0.07410233467817307, 0.004227529135159322, 0.5502294898033142, -0.35122808814048767]
[3.4499999999999957, 0.5644448603334024, 4.751057147979736, 0.7047204375267029, -0.005687323893466564, -0.0048573388247905415, 0.018671158337360404, 0.014574120895183076, 0.0, -1.2046375373029399e-05, 0.01054006418661908, 1.6807689666748047, 0.07509207725524902, 0.003210774994298296, 0.5391016006469727, -0.35169336199760437]
[3.4999999999999956, 0.5565856116541923, 4.8025641441345215, 0.6989057660102844, -0.008648688205229443, -0.005684156611903476, 0.018927641442337852, 0.01514801214557453, 0.0, 2.7081875055419157e-05, 0.010536111126381396, 1.6888552904129028, 0.07646992802619934, 0.004814717864562584, 0.5111358165740967, -0.3525822162628174]
[3.5499999999999954, 0.5500148973819455, 4.850583553314209, 0.6794365048408508, -0.010468413878509594, -0.006708605428102602, 0.01972112561097443, 0.016006062940561817, 0.0, -4.686248199242737e-05, 0.010848319301865582, 1.696151852607727, 0.07695575803518295, 0.005759113810784006, 0.4851069748401642, -0.3515738844871521]
[3.599999999999995, 0.5473246884178796, 4.872435569763184, 0.6650065779685974, -0.00872910812173859, -0.006666227476480807, 0.021419388599074093, 0.016617320059525275, 0.0, -0.00014718840675793867, 0.011725153374455097, 1.6993519067764282, 0.07778693735599518, 0.004778873943186351, 0.4731137156486511, -0.3514162302017212]
[3.649999999999995, 0.5425491915340305, 4.9168925285339355, 0.6226926445960999, -0.011688269072134574, -0.007120361980408111, 0.020899324432186672, 0.017798004094260994, 0.0, -0.00022631325394840664, 0.011340562739361546, 1.7079921960830688, 0.08094079047441483, 0.006343134964613237, 0.4450242519378662, -0.35185542702674866]
[3.699999999999995, 0.5407074596275273, 4.9366774559021, 0.5985953211784363, -0.010211926644632306, -0.008076286214089559, 0.022139585588615184, 0.01848165569476523, 0.0, -0.0002511540770782608, 0.01197299537754759, 1.7120698690414429, 0.08252684026956558, 0.005523210437918799, 0.4317971467971802, -0.3514662981033325]
[3.7499999999999947, 0.5376051460595598, 4.9758620262146, 0.5407422780990601, -0.012958568275347797, -0.008959992920140209, 0.021301442992074846, 0.01944061333784515, 0.0, -0.00026859193255125745, 0.011453497770603272, 1.7207024097442627, 0.08655136078596115, 0.006968563908738665, 0.40396198630332947, -0.3513926863670349]
[3.7999999999999945, 0.5364711149759112, 4.993025779724121, 0.5112250447273254, -0.011571177040758572, -0.0094346472182498, 0.023011111424221957, 0.02011023718328018, 0.0, -0.0002739212455419739, 0.012346975967076786, 1.7245151996612549, 0.08722040057182312, 0.006209523246853629, 0.39126986265182495, -0.3515988886356354]
[3.8499999999999943, 0.5349447081910417, 5.025655746459961, 0.4434181749820709, -0.013705617847365738, -0.010169654776994802, 0.022554360631442078, 0.02093207523186353, 0.0, -0.00022353266092111588, 0.012067382158303386, 1.7325923442840576, 0.09065072983503342, 0.007334072188468127, 0.36450862884521484, -0.3506150543689728]
[3.899999999999994, 0.534574607433072, 5.039300918579102, 0.41008123755455017, -0.011819465674741542, -0.010948774091615201, 0.024049130056934535, 0.021172520471020275, 0.0, -0.0001653959748303859, 0.012858533311469196, 1.7362349033355713, 0.09214707463979721, 0.006320508143813186, 0.35225051641464233, -0.3497611880302429]
[3.949999999999994, 0.5343979748853281, 5.0503458976745605, 0.38081347942352295, -0.009463190050196394, -0.011426620785324313, 0.02563160253074016, 0.02143278047385693, 0.0, -0.0001303823388743445, 0.013700476925674682, 1.7394753694534302, 0.09378442913293839, 0.005058922274214797, 0.34151801466941833, -0.348753958940506]
[3.999999999999994, 0.5346024440369783, 5.075169563293457, 0.30386313796043396, -0.010991643679891385, -0.012079400887693853, 0.024863571209864946, 0.022146585233773546, 0.0, -8.60518082494088e-05, 0.013294865665320697, 1.7475948333740234, 0.09809330850839615, 0.005878213085596884, 0.3146348297595978, -0.3459799885749817]
[4.049999999999994, 0.5332942323540376, 5.093571662902832, 0.27393171191215515, -0.013830004427352533, -0.012131982174036382, 0.024952331983774598, 0.02277629980395033, 0.0, -6.0696141434115155e-05, 0.013309697134930281, 1.7564586400985718, 0.09983430802822113, 0.00737822865598705, 0.2860836684703827, -0.3452998995780945]
[4.099999999999993, 0.536409955425192, 5.100381374359131, 0.19599543511867523, -0.012326024323514448, -0.01138056316387403, 0.025071911161729323, 0.023592893158548695, 0.0, 3.484977389727095e-05, 0.013451641437350979, 1.7606867551803589, 0.10450869053602219, 0.006614215765459265, 0.2726154327392578, -0.3445524573326111]
[4.149999999999993, 0.5372156914570206, 5.105442047119141, 0.1661171168088913, -0.010737907901073672, -0.01076207476900858, 0.026294701332060407, 0.024186310492069936, 0.0, -5.052247363903414e-06, 0.014129182666804761, 1.7644604444503784, 0.10693766921758652, 0.005770789218249792, 0.26074397563934326, -0.34454548358917236]
[4.199999999999993, 0.5398898061701565, 5.114713191986084, 0.08912931382656097, -0.01365029471353696, -0.011520682381434997, 0.024693701455413056, 0.02462270848435805, 0.0, 6.056392348530342e-05, 0.013334588186043245, 1.7739194631576538, 0.11255466938018799, 0.007372360372436881, 0.23153117299079895, -0.34369680285453796]
[4.249999999999993, 0.5410585274167253, 5.116974830627441, 0.060757674276828766, -0.011628029056058394, -0.012086447486040656, 0.025967619471594244, 0.024668385389558713, 0.0, 0.00015945809007520377, 0.014053160856807564, 1.7776483297348022, 0.1149943619966507, 0.006293849757307027, 0.22028884291648865, -0.3428642451763153]
[4.299999999999993, 0.5444545007731892, 5.11898136138916, -0.008229268714785576, -0.01327955048012206, -0.011952451957855886, 0.024597578402347525, 0.025030972944639074, 0.0, 0.0002909608913248273, 0.013394963878423094, 1.787118911743164, 0.12010210007429123, 0.007232723995091284, 0.19247256219387054, -0.3396261930465698]
[4.3499999999999925, 0.5458795844248697, 5.118460178375244, -0.03316168487071991, -0.011174687850510179, -0.01212369819507173, 0.02619530808331026, 0.02510963239524817, 0.0, 0.0002527655841016896, 0.014302755529199015, 1.7908391952514648, 0.12178266793489456, 0.006102381473323183, 0.18178749084472656, -0.33882787823677063]
[4.399999999999992, 0.5499173231788517, 5.113831520080566, -0.09451503306627274, -0.012577262949921194, -0.012271036521908663, 0.02493739427255832, 0.02519580343913523, 0.0, 0.00028849171663558127, 0.013716348501797124, 1.8003491163253784, 0.1266816109418869, 0.006918970747662179, 0.15518802404403687, -0.33576521277427673]
[4.449999999999992, 0.5539746103012259, 5.105767726898193, -0.146108478307724, -0.014713167186669217, -0.01245386674899983, 0.022279899108803985, 0.02516919525570973, 0.0, 0.00022902877082031441, 0.01234454107892961, 1.812770128250122, 0.1334134042263031, 0.008153332806773779, 0.1274862438440323, -0.3339008390903473]
[4.499999999999992, 0.5559964221555147, 5.100780010223389, -0.16896161437034607, -0.013199150482646471, -0.012288341628420544, 0.022802299261543854, 0.02534084548749525, 0.0, 0.0001677581948571295, 0.012680194549810418, 1.8189024925231934, 0.1364130973815918, 0.0073410150280393965, 0.11452138423919678, -0.3327912986278534]
[4.549999999999992, 0.5577241651293245, 5.0957465171813965, -0.18621806800365448, -0.01154125682959405, -0.01213611080195666, 0.02346538193167385, 0.02542835038622502, 0.0, 0.00017176952705006679, 0.013089613121175334, 1.8244132995605469, 0.13959839940071106, 0.0064388962665129085, 0.10312014073133469, -0.33234038949012756]
[4.599999999999992, 0.5620832697384102, 5.08079719543457, -0.22312629222869873, -0.013699040065829528, -0.01299620157845805, 0.020359227267826373, 0.024349867060442516, 0.0, 0.00010933572596309844, 0.01144516240857043, 1.8379895687103271, 0.14709176123142242, 0.007702079132457372, 0.07512897253036499, -0.33020785450935364]
[4.6499999999999915, 0.563830686732387, 5.074299335479736, -0.23643282055854797, -0.011541752947122615, -0.013381847180402359, 0.021418422464726004, 0.023689533624809092, 0.0, 4.852983051732627e-05, 0.01207821085849576, 1.8433281183242798, 0.14946326613426208, 0.0065093764963459755, 0.06439374387264252, -0.32867154479026794]
[4.699999999999991, 0.5683262156926974, 5.055927753448486, -0.26578983664512634, -0.01285447899068962, -0.012738066589675046, 0.019400890496636496, 0.02326449508620926, 0.0, -1.3299254629346316e-05, 0.011027418265126647, 1.8566020727157593, 0.15438930690288544, 0.007307314982946213, 0.03788887336850166, -0.3251942992210388]
[4.749999999999991, 0.5700253160091429, 5.048244953155518, -0.2747070789337158, -0.010811612388141647, -0.012797610468840804, 0.020722379939591164, 0.022601652528565268, 0.0, -5.400834215738836e-05, 0.011813972262234927, 1.8617888689041138, 0.15628039836883545, 0.006164456422091881, 0.027728913351893425, -0.3242042362689972]
[4.799999999999991, 0.5742231684950183, 5.027517318725586, -0.2915922701358795, -0.011630282814761054, -0.0128609202239858, 0.01928607690948595, 0.021790176816178546, 0.0, -6.754566109848392e-05, 0.011075885460254994, 1.8748035430908203, 0.1600097268819809, 0.006679921247291817, 0.0024655384477227926, -0.32011011242866516]
[4.849999999999991, 0.5778958941048777, 5.006856441497803, -0.2989209294319153, -0.013724581610182156, -0.012606935835665488, 0.01688772618970121, 0.02094529668356494, 0.0, -7.386758514352965e-05, 0.009760275504991103, 1.8903436660766602, 0.16481804847717285, 0.007933008595656606, -0.024361776188015938, -0.31846243143081665]
[4.899999999999991, 0.5795093373760716, 4.997024059295654, -0.2999126613140106, -0.012417719165145231, -0.012151217699126015, 0.017441697352207446, 0.020593712941249405, 0.0, -3.846519692211918e-05, 0.010108651556501487, 1.897828459739685, 0.16743291914463043, 0.00719764889192856, -0.03696171194314957, -0.31747373938560486]
[4.94999999999999, 0.5808470184140849, 4.98831844329834, -0.2991030812263489, -0.011112257926139091, -0.011726378880748298, 0.01844334296346889, 0.020288131239146134, 0.0, -9.687213573761088e-05, 0.0107139756083773, 1.904511570930481, 0.16944880783557892, 0.006455885546269059, -0.0480516292154789, -0.31751564145088196]
[4.99999999999999, 0.583749755633433, 4.966583728790283, -0.2889661490917206, -0.013486674961178178, -0.012134730302248339, 0.016080603390799204, 0.01936518195282127, 0.0, -0.0001256777657219076, 0.009387857502664992, 1.9207932949066162, 0.17400695383548737, 0.007874338653327137, -0.07522398978471756, -0.3162263035774231]
[5.04999999999999, 0.5861050228270982, 4.94666862487793, -0.274023175239563, -0.014650374973114166, -0.012438721436429635, 0.014485172370709527, 0.01835691805665236, 0.0, -0.00012951536905842493, 0.008490426112316693, 1.9358670711517334, 0.17741113901138306, 0.008588173709419562, -0.10008300840854645, -0.31307780742645264]
[5.09999999999999, 0.5870282632646295, 4.9376397132873535, -0.2645634114742279, -0.013097854223730457, -0.012035885824024692, 0.015845075960804096, 0.018236338177736136, 0.0, -8.05822504853703e-05, 0.009302285932844406, 1.942691683769226, 0.1785387545824051, 0.007690215686455344, -0.1113252118229866, -0.3120113015174866]
[5.14999999999999, 0.5885325896509722, 4.9194536209106445, -0.2389110028743744, -0.013908497786956108, -0.012494283994442707, 0.014855453188027036, 0.01743173928999007, 0.0, 6.501977792338015e-06, 0.008743561534122299, 1.9571211338043213, 0.18089817464351654, 0.008187035445792017, -0.13487355411052704, -0.30861684679985046]
[5.1999999999999895, 0.5890192950678041, 4.911757469177246, -0.22527091205120087, -0.012037791585764292, -0.013185071571137224, 0.01661338912638507, 0.01645954464529891, 0.0, 1.2791216629725405e-05, 0.009786507142461695, 1.9636971950531006, 0.18122129142284393, 0.0070918126888293714, -0.1455778330564499, -0.30682241916656494]
[5.249999999999989, 0.5896530254589081, 4.897024154663086, -0.19362376630306244, -0.013294004365061854, -0.0134005819527124, 0.015333874921439923, 0.015852949128677105, 0.0, -3.397959828702121e-05, 0.009042374454841483, 1.9799354076385498, 0.18331468105316162, 0.007840233425104585, -0.17052829265594482, -0.30348819494247437]
[5.299999999999989, 0.5897844025080426, 4.890803813934326, -0.1777331680059433, -0.012008820709713661, -0.013399750407610721, 0.01672019697301588, 0.015648404292061324, 0.0, -2.450991337349909e-05, 0.009862230443450894, 1.9875863790512085, 0.18410953879356384, 0.00708394582078694, -0.18214362859725952, -0.3025578260421753]
[5.349999999999989, 0.5897654343459773, 4.88584566116333, -0.16276971995830536, -0.010209949260268266, -0.01327024681298807, 0.01851853039116134, 0.015539360560948493, 0.0, -3.179297884161467e-05, 0.010922837759452526, 1.9943474531173706, 0.18444852530956268, 0.006022717074839555, -0.1923271119594574, -0.3011021316051483]
[5.399999999999989, 0.5893265426016453, 4.875339984893799, -0.12365900725126266, -0.011688792685088595, -0.012979317814981411, 0.017688632814762892, 0.015796043908812122, 0.0, -1.4422992708274807e-05, 0.010425468176449404, 2.0108041763305664, 0.185385599732399, 0.006889907374164152, -0.21727196872234344, -0.2981424331665039]
[5.449999999999989, 0.5890030725966267, 4.872066497802734, -0.10800453275442123, -0.009928896536624281, -0.01286112025381643, 0.019411054937598007, 0.01583331175672572, 0.0, 6.8396301637862574e-06, 0.011434607181603496, 2.0171420574188232, 0.18645867705345154, 0.005849444719962633, -0.22682465612888336, -0.29711297154426575]
[5.4999999999999885, 0.5878954995480472, 4.865597248077393, -0.06836922466754913, -0.010901404811745346, -0.011993324864378128, 0.01887947545657668, 0.016671801713666702, 0.0, 3.13578202198743e-05, 0.011100477550824127, 2.0327963829040527, 0.187339648604393, 0.006410283107748965, -0.2504536807537079, -0.2934565842151642]
[5.549999999999988, 0.5875301808718372, 4.862709045410156, -0.05307288095355034, -0.012160990978786604, -0.01152790690467933, 0.018809770183515925, 0.0172347514164355, 0.0, -5.435641638828675e-06, 0.01105261120757079, 2.047274589538574, 0.1877497434616089, 0.007146565688486331, -0.2720799148082733, -0.29210278391838074]
[5.599999999999988, 0.5855431142014548, 4.861976146697998, -0.014007026329636574, -0.009815957868482874, -0.011236271221061413, 0.020270184648714343, 0.0177645530207329, 0.0, -5.7573869731344005e-05, 0.011870692900808576, 2.0539183616638184, 0.1897837370634079, 0.005749032189832144, -0.28195780515670776, -0.28881388902664185]
[5.649999999999988, 0.583588370580305, 4.862247467041016, 0.021499160677194595, -0.012813468529983631, -0.010907945376359618, 0.018348064378051514, 0.018417132744559923, 0.0, -0.00010095616534179853, 0.010708918745061073, 2.0710079669952393, 0.19395990669727325, 0.00747945944493951, -0.3076828122138977, -0.28920164704322815]
[5.699999999999988, 0.5825949398187191, 4.863278865814209, 0.03691087290644646, -0.012296208518713584, -0.011114828946163665, 0.01946008236675069, 0.018688612188442515, 0.0, -6.179941667155636e-05, 0.011338776863428233, 2.079190969467163, 0.19593459367752075, 0.00716542663905529, -0.31994688510894775, -0.2893844544887543]
[5.749999999999988, 0.5805385810205931, 4.866717338562012, 0.06497111171483994, -0.015382565626175643, -0.01096024606550697, 0.017338733036930457, 0.019080660856632372, 0.0, 2.490888229425062e-06, 0.010066812295015111, 2.0965185165405273, 0.20063616335391998, 0.0089322198705677, -0.3456256091594696, -0.2898315191268921]
[5.799999999999987, 0.5795429441547942, 4.868968963623047, 0.07682792097330093, -0.014604639213308217, -0.011110970899858017, 0.01861539901358442, 0.019038029153045775, 0.0, 9.382404087564687e-06, 0.010789669505546336, 2.104355812072754, 0.20255693793296814, 0.008466084284895328, -0.35707205533981323, -0.2897087335586548]
[5.849999999999987, 0.5786637422308988, 4.871252059936523, 0.09827542304992676, -0.013323583035641254, -0.011726254143219159, 0.02029511127599354, 0.018908943440561123, 0.0, 2.9403269188869115e-05, 0.011745657729933252, 2.1113052368164062, 0.20591571927070618, 0.007711918847764392, -0.3671548366546631, -0.2878384590148926]
[5.899999999999987, 0.5764618290055915, 4.878100395202637, 0.1071445643901825, -0.015377756107254226, -0.012864156627695886, 0.018619589373299505, 0.018605719664424113, 0.0, 1.393550603001751e-05, 0.010734723111333208, 2.128577947616577, 0.20771577954292297, 0.008866925226761274, -0.39179736375808716, -0.28701406717300415]
[5.949999999999987, 0.5743412239711617, 4.885838031768799, 0.12372887879610062, -0.016828121075083084, -0.013776099657690707, 0.017481832259994362, 0.01823643659776673, 0.0, -8.035028422654179e-05, 0.01004155990693955, 2.1446993350982666, 0.21072711050510406, 0.009667473318641442, -0.4142923951148987, -0.28469687700271606]
[5.999999999999987, 0.5733612461573331, 4.889677047729492, 0.13061697781085968, -0.015163230500475395, -0.013789815530637925, 0.019208854234403206, 0.018625104909032533, 0.0, -0.00012269177168873418, 0.01101496740227341, 2.1521198749542236, 0.21200460195541382, 0.008696279443569654, -0.4244590997695923, -0.2826857268810272]
[6.0499999999999865, 0.5717858558181267, 4.896543025970459, 0.1396436244249344, -0.01727510180194193, -0.014084730117505644, 0.01821232632551309, 0.01904679714911361, 0.0, -7.192765875967851e-05, 0.010414702100054282, 2.1679368019104004, 0.21492597460746765, 0.009880280123217872, -0.4489879012107849, -0.2805969715118408]
[6.099999999999986, 0.5711439739307248, 4.899784088134766, 0.14201432466506958, -0.016432807552925893, -0.014597339917175949, 0.020173019514117038, 0.018901025796813076, 0.0, -0.00012556684890589124, 0.01152326170708639, 2.175274610519409, 0.2157347947359085, 0.00938825412464657, -0.4604293406009674, -0.27986109256744385]
[6.149999999999986, 0.5698766117232033, 4.906911373138428, 0.1445498764514923, -0.01872107119502888, -0.014971085417919718, 0.01956890070770111, 0.018719192065757267, 0.0, -0.00011602029134571982, 0.011153282553110523, 2.1908175945281982, 0.2178540825843811, 0.010671990489446032, -0.48431336879730225, -0.27858906984329224]
[6.199999999999986, 0.5692834217917138, 4.910658836364746, 0.14452390372753143, -0.017301236561405767, -0.015135834744663896, 0.021552278647843492, 0.018810541444990357, 0.0, -0.00012988716273957168, 0.012271254997131949, 2.1980550289154053, 0.21883384883403778, 0.009852578185002472, -0.49495312571525574, -0.276650995016098]
[6.249999999999986, 0.5680223816976653, 4.918796539306641, 0.14396443963050842, -0.01849109005935649, -0.015796075461396133, 0.020871915660875193, 0.019074278782246733, 0.0, -0.00010201588046741334, 0.011857437139866173, 2.2134487628936768, 0.2214258313179016, 0.01050683878310963, -0.5171226263046265, -0.27334997057914734]
[6.299999999999986, 0.5674486529704925, 4.922712326049805, 0.14308097958564758, -0.016847724725718886, -0.01634392865600278, 0.022933240987357353, 0.019332679102760496, 0.0, -0.0001097745445979434, 0.013015718587526273, 2.2206499576568604, 0.22237162292003632, 0.009563638155495553, -0.5270684957504272, -0.2711448669433594]
[6.349999999999985, 0.5669893410988394, 4.926095485687256, 0.1416420340538025, -0.01506125350403358, -0.016937068757536936, 0.025183747750491543, 0.01968984274740896, 0.0, -0.000181674725212226, 0.01428193597307461, 2.2269599437713623, 0.22351545095443726, 0.008542924876848518, -0.5357437133789062, -0.26942020654678345]
[6.399999999999985, 0.5658823744341068, 4.935004711151123, 0.1359473466873169, -0.01548305268294361, -0.017337024703507, 0.024116554121286566, 0.02040348225915709, 0.0, -0.00011744602378141508, 0.013649779286375896, 2.243192195892334, 0.22677816450595856, 0.008764835532904434, -0.5570776462554932, -0.2643291652202606]
[6.449999999999985, 0.5649745948613333, 4.943102836608887, 0.12894335389137268, -0.01695437990331903, -0.017331926189143455, 0.022956716018690065, 0.021159179313178348, 0.0, -0.00011703075855312458, 0.01297224024902352, 2.259289503097534, 0.23043711483478546, 0.00958223669410943, -0.5796209573745728, -0.26122260093688965]
[6.499999999999985, 0.5645636956999541, 4.946879863739014, 0.12544454634189606, -0.015833210982829637, -0.016821533130072133, 0.024758308612475972, 0.02195095313820705, 0.0, -4.587542995386842e-05, 0.013980498886333452, 2.266946315765381, 0.23206496238708496, 0.008942343715895688, -0.5901246070861816, -0.2597728967666626]
[6.549999999999985, 0.5638927853311966, 4.954451084136963, 0.11559388041496277, -0.017192013737830806, -0.015871636261913628, 0.023609583903678864, 0.023257610716239788, 0.0, -2.4069263826975135e-05, 0.013315748241194254, 2.2832698822021484, 0.23562470078468323, 0.009698110537953088, -0.6119481921195984, -0.25672465562820435]
[6.5999999999999845, 0.563664705462474, 4.957732200622559, 0.1101609393954277, -0.016015116410038728, -0.015827103730217295, 0.025292993478705887, 0.023553952139719166, 0.0, 4.930097256429644e-05, 0.014259808684506041, 2.2909579277038574, 0.23768332600593567, 0.009030816239904163, -0.6216658353805542, -0.2555532157421112]
[6.649999999999984, 0.5634153582989192, 4.963741779327393, 0.09708251059055328, -0.018117469871512065, -0.015900996163250417, 0.02379174754760176, 0.023800213749630556, 0.0, 1.2836208562313633e-05, 0.013407165760999026, 2.307469129562378, 0.24217379093170166, 0.010211667796132723, -0.644300639629364, -0.25384682416915894]
[6.699999999999984, 0.563381949975109, 4.966275691986084, 0.09023583680391312, -0.01757426876552128, -0.016013742652186524, 0.02553592522745878, 0.023894220944341432, 0.0, -5.459263391747668e-05, 0.014389607226748091, 2.315293788909912, 0.24406881630420685, 0.009905274616772139, -0.6547259092330933, -0.2537730932235718]
[6.749999999999984, 0.5633963650558587, 4.970888137817383, 0.07637571543455124, -0.019094414725291622, -0.01613017755646065, 0.024333447274493374, 0.024274300092075433, 0.0, -0.00011241292397504473, 0.013712082234661374, 2.3320152759552, 0.24765551090240479, 0.010762217536823125, -0.6764252185821533, -0.25097179412841797]
[6.799999999999984, 0.5634970795878329, 4.972566604614258, 0.06955886632204056, -0.017706383783702435, -0.01616249614364453, 0.026094739087318776, 0.024525239409002756, 0.0, -0.00014197883598934008, 0.014707647739237273, 2.3399274349212646, 0.2495475858449936, 0.009981936718775591, -0.686050534248352, -0.24895070493221283]
[6.849999999999984, 0.5636252418505152, 4.973788261413574, 0.06357839703559875, -0.01647554520515756, -0.016698740336813882, 0.02831250855316078, 0.024503005591743916, 0.0, -0.00011346815298470966, 0.015961909720993275, 2.34686541557312, 0.2509400248527527, 0.009290596867358634, -0.6944717168807983, -0.2481878101825714]
[6.8999999999999835, 0.5640163014257262, 4.976405143737793, 0.048603516072034836, -0.017401237315083144, -0.017516238258784313, 0.02670127636046104, 0.024611051200887173, 0.0, -0.00012114319878942678, 0.015063535196447715, 2.3648548126220703, 0.254869669675827, 0.009819072345037518, -0.7150385975837708, -0.2443246692419052]
[6.949999999999983, 0.5644533084625725, 4.978299140930176, 0.034905511885881424, -0.017584661347934873, -0.017904669677269926, 0.025341193607615796, 0.024722357820387234, 0.0, -4.902363217387283e-05, 0.014306983237531316, 2.382012128829956, 0.2587762176990509, 0.009929931692459773, -0.7336476445198059, -0.23975133895874023]
[6.999999999999983, 0.5646493925826594, 4.97904634475708, 0.029061682522296906, -0.01603044017075811, -0.017488774165278147, 0.02711176928594147, 0.025414915972757118, 0.0, -4.498977272800495e-06, 0.01531239602520737, 2.390183448791504, 0.26067376136779785, 0.009055681704761703, -0.742030143737793, -0.2378314584493637]
[7.049999999999983, 0.5648424529851394, 4.979559898376465, 0.023962555453181267, -0.014728591917143194, -0.017098841913264214, 0.028903793243490475, 0.026181958219061333, 0.0, -0.00010853095749411657, 0.01633063742700193, 2.3976120948791504, 0.26312485337257385, 0.008323412183690107, -0.7498243451118469, -0.23697136342525482]
[7.099999999999983, 0.5653869852831891, 4.980734825134277, 0.010386493057012558, -0.016296343161906608, -0.017192857879793345, 0.02615526367748238, 0.026403740921498737, 0.0, -0.00016317841512625012, 0.014791218713883447, 2.4179282188415527, 0.2687586843967438, 0.00921770877906259, -0.771064043045044, -0.23406821489334106]
[7.149999999999983, 0.5659824789170106, 4.980846881866455, -0.0010039166081696749, -0.017332556212801976, -0.016914532137665285, 0.023449679379044183, 0.026292585810113317, 0.0, -9.482956616384082e-05, 0.013274540921839682, 2.437253475189209, 0.2750813663005829, 0.009813603672068315, -0.7901853322982788, -0.2311696857213974]
[7.199999999999982, 0.5663013995293006, 4.980556964874268, -0.006072921212762594, -0.016281886923614094, -0.01631651769648396, 0.024580222206868174, 0.026825905647000048, 0.0, -5.7765557603961566e-05, 0.013922618305936038, 2.4463837146759033, 0.27828529477119446, 0.00922405660738921, -0.7987331748008728, -0.23018144071102142]
[7.249999999999982, 0.5666084086984745, 4.980105876922607, -0.010445739142596722, -0.015074438531737216, -0.015905942539066437, 0.026102000753477142, 0.02707945370310345, 0.0, -7.4859387536730795e-06, 0.01479297281872529, 2.4544546604156494, 0.2812304198741913, 0.008544861362338903, -0.8062133193016052, -0.2294527292251587]
[7.299999999999982, 0.5674161583103037, 4.97841739654541, -0.020472418516874313, -0.01608134638010596, -0.016149920257193324, 0.023149469575342765, 0.026279058786236143, 0.0, -3.5771487216208134e-05, 0.013137730004699553, 2.4753425121307373, 0.28724831342697144, 0.00912804819535587, -0.8246374726295471, -0.22673451900482178]
[7.349999999999982, 0.5682678710319018, 4.9759297370910645, -0.028960535302758217, -0.016571225729525383, -0.01634702150938281, 0.020769549538932626, 0.0251709176028152, 0.0, 1.2342138756649103e-05, 0.01180436511373499, 2.495306968688965, 0.2924061715602875, 0.009419788891393707, -0.8414505124092102, -0.22367361187934875]
[7.399999999999982, 0.5687193324794871, 4.9745073318481445, -0.03315391764044762, -0.01525070936437186, -0.015939783278473944, 0.022289819530871217, 0.025187533032200643, 0.0, -7.388067653581586e-05, 0.01267875110779721, 2.5047607421875, 0.29446443915367126, 0.008676200977279835, -0.8490767478942871, -0.22223196923732758]
[7.4499999999999815, 0.5698597311719378, 4.969690799713135, -0.04014090076088905, -0.015952016248442325, -0.015593352597001219, 0.020208814944401396, 0.02499630675375802, 0.0, -0.00017121311091876468, 0.011517757830393369, 2.524991512298584, 0.2986723482608795, 0.009093039557089247, -0.8656238317489624, -0.2198072373867035]
[7.499999999999981, 0.5703612887962405, 4.96736478805542, -0.042601894587278366, -0.015011638444774619, -0.015881243550556274, 0.02188805226455207, 0.023810471404847027, 0.0, -0.0001281322757439155, 0.012486091736582522, 2.5345654487609863, 0.3002810776233673, 0.008564752207562233, -0.8732632398605347, -0.219242662191391]
[7.549999999999981, 0.5708065413226232, 4.965240955352783, -0.04461292549967766, -0.01358206240390588, -0.015852894652235192, 0.02414518199577579, 0.022995522956624007, 0.0, -0.00013027036842671374, 0.013784906748806856, 2.5429534912109375, 0.30118098855018616, 0.007755467391021405, -0.8799112439155579, -0.21792130172252655]
[7.599999999999981, 0.5718298545614348, 4.959927082061768, -0.04795965179800987, -0.01389408810309516, -0.015594931037128305, 0.022429895420095113, 0.022053798007688166, 0.0, -4.257156087553411e-05, 0.012828235203994648, 2.564579963684082, 0.3034830093383789, 0.007947564798495683, -0.8963985443115234, -0.2141316533088684]
[7.649999999999981, 0.57226710839394, 4.957647800445557, -0.04936403036117554, -0.012268703683950078, -0.015446782574109323, 0.024920601466123567, 0.021500753698851505, 0.0, -8.446498592404165e-05, 0.014264193523743487, 2.572997808456421, 0.3037811815738678, 0.0070235086847942885, -0.9026675224304199, -0.21232888102531433]
[7.699999999999981, 0.5731629064503413, 4.952075481414795, -0.049580786377191544, -0.012767646406398325, -0.014956679658183482, 0.023308510503440127, 0.021981422329038318, 0.0, -4.325348867397776e-05, 0.013361993510444328, 2.594703435897827, 0.30585646629333496, 0.007320327416203615, -0.918326199054718, -0.20949174463748932]
[7.7499999999999805, 0.5737611668455959, 4.9475417137146, -0.047331832349300385, -0.013621291861586218, -0.014279837164808865, 0.021413330699045784, 0.02260700547720273, 0.0, -1.4990564396767815e-05, 0.01228801580964324, 2.6153407096862793, 0.30964338779449463, 0.007817643948253933, -0.9327686429023743, -0.20847244560718536]
[7.79999999999998, 0.574002214453063, 4.945541858673096, -0.04591548442840576, -0.012633624093272974, -0.013850469595767129, 0.023269300033403967, 0.022934452395560564, 0.0, -2.2773736459690862e-05, 0.01335904096520317, 2.6251330375671387, 0.3108898103237152, 0.007254077852183821, -0.9394707679748535, -0.20785678923130035]
[7.84999999999998, 0.5742466480600059, 4.943552494049072, -0.04459293931722641, -0.011342549423793997, -0.013360997608134084, 0.025279869402153016, 0.023379449928441817, 0.0, -6.354865933082688e-05, 0.014519973501222597, 2.6338491439819336, 0.31254398822784424, 0.006515782241543547, -0.9454152584075928, -0.20683817565441132]
[7.89999999999998, 0.574679833626295, 4.938877582550049, -0.038862090557813644, -0.012188181520842773, -0.013173657435447312, 0.022602003095060535, 0.022872566365358917, 0.0, -0.00015370126150719685, 0.012991127628505114, 2.656947135925293, 0.3169100880622864, 0.007006438528320863, -0.9609519243240356, -0.20467230677604675]
[7.94999999999998, 0.5750161473244834, 4.934876918792725, -0.03331896290183067, -0.012903792266842856, -0.01313490878938336, 0.020389463612714518, 0.022639273825096014, 0.0, -9.794173387323329e-05, 0.0117258957940711, 2.6789021492004395, 0.32086411118507385, 0.007421843454731826, -0.9752588272094727, -0.2029542773962021]
[7.99999999999998, 0.5751042860495647, 4.933300971984863, -0.0303118284791708, -0.012076567743725801, -0.012712930857075836, 0.02198167430876508, 0.02312025596675418, 0.0, -6.941468452400039e-05, 0.012643791643229277, 2.689269781112671, 0.3226411044597626, 0.006947301911191264, -0.9818572998046875, -0.20246927440166473]
[8.04999999999998, 0.575206088476441, 4.930159568786621, -0.022945238277316093, -0.013118329554264953, -0.012205749492380572, 0.019839259178249646, 0.023298087255757282, 0.0, -0.0001443853308597544, 0.01141316010165068, 2.711416721343994, 0.3263736367225647, 0.00754766122714659, -0.9957343339920044, -0.20180095732212067]
[8.09999999999998, 0.575202694453201, 4.928801536560059, -0.018880223855376244, -0.012359505207517, -0.012350380755483179, 0.021565328323081022, 0.022715094407566545, 0.0, -0.00017374523947393143, 0.01240635826549523, 2.721890449523926, 0.3277886211872101, 0.007111236238592049, -1.0021905899047852, -0.2014150768518448]
[8.14999999999998, 0.5752259782959462, 4.927662372589111, -0.01595568284392357, -0.01155168412001683, -0.012438787453708787, 0.02395460379612434, 0.02199293938289241, 0.0, -8.42708664811847e-05, 0.01378194663702055, 2.7310657501220703, 0.3283114731311798, 0.00664703139847727, -1.007806658744812, -0.2014208883047104]
[8.199999999999982, 0.5751366438598496, 4.925415515899658, -0.007675213273614645, -0.01258304999967708, -0.012554044713009489, 0.02160622409559509, 0.021356308244395574, 0.0, -2.0930068492258063e-05, 0.012428465262020322, 2.754741907119751, 0.3316493332386017, 0.007239044753426967, -1.0221043825149536, -0.20009668171405792]
[8.249999999999982, 0.5750739041425189, 4.923005104064941, 0.0005932883359491825, -0.013813288347490443, -0.012544638200978748, 0.019618340068087766, 0.021038064336843503, 0.0, -4.926573161040894e-05, 0.011283443040657648, 2.7776272296905518, 0.3345826268196106, 0.007945695950621362, -1.0360921621322632, -0.1994779407978058]
[8.299999999999983, 0.5750411338383316, 4.922000885009766, 0.004161262884736061, -0.013363594409274919, -0.012235871028491132, 0.02127740926127411, 0.02165586615524568, 0.0, -6.311694992610668e-05, 0.012237232315646496, 2.788468837738037, 0.3360985517501831, 0.007686813920893813, -1.0426832437515259, -0.19947856664657593]
[8.349999999999984, 0.575001082414563, 4.92114782333374, 0.007419025991111994, -0.012751526606726656, -0.012177852827641944, 0.023208001260311306, 0.022269434643954675, 0.0, -7.423347576138524e-05, 0.013347022217169005, 2.7979977130889893, 0.3378622233867645, 0.00733451417026041, -1.048431158065796, -0.19954368472099304]
[8.399999999999984, 0.5748392494776265, 4.919450759887695, 0.01542583853006363, -0.01439194696062403, -0.01241400526983124, 0.020510727834947833, 0.02191744031271041, 0.0, -6.279177129314482e-05, 0.01179202503675908, 2.8225717544555664, 0.3417084515094757, 0.008275367851967703, -1.0630258321762085, -0.1993384063243866]
[8.449999999999985, 0.5745792666347886, 4.918482780456543, 0.023107070475816727, -0.015401931287174816, -0.012868621467079738, 0.018363514116412256, 0.021176972338954304, 0.0, -9.731640539346826e-06, 0.01055248066494352, 2.845953941345215, 0.3449130952358246, 0.00885182267631968, -1.076596975326538, -0.19797739386558533]
[8.499999999999986, 0.5743937227963263, 4.918372631072998, 0.02687780186533928, -0.014741145219148894, -0.012966988173471755, 0.020179130846819576, 0.021426795778075484, 0.0, -7.2414825928694e-05, 0.011592339589158798, 2.8570001125335693, 0.3460138142108917, 0.008469558979282144, -1.0829012393951416, -0.19717127084732056]
[8.549999999999986, 0.5739816910349537, 4.918499946594238, 0.03415534272789955, -0.015725576789607933, -0.013309357965090083, 0.018022702302800783, 0.02134160192037357, 0.0, -0.00015155493753004015, 0.01034582133800814, 2.8805575370788574, 0.34920334815979004, 0.00902840352562442, -1.0961569547653198, -0.19575513899326324]
[8.599999999999987, 0.5737419127043937, 4.918909072875977, 0.037403129041194916, -0.015106657899598272, -0.014058135234501508, 0.019774001514480524, 0.020548622038289353, 0.0, -0.00017150548729614635, 0.011346652378434907, 2.8917107582092285, 0.3504989445209503, 0.008669677099455389, -1.1023271083831787, -0.19496308267116547]
[8.649999999999988, 0.5734273225425819, 4.919213771820068, 0.042348142713308334, -0.014060687137862233, -0.014465698371273922, 0.02150784770318666, 0.02004945016238266, 0.0, -0.00023935388455123332, 0.0123350896002241, 2.9015743732452393, 0.3528626561164856, 0.00806517891941616, -1.1077325344085693, -0.19341319799423218]
[8.699999999999989, 0.5732281639043967, 4.9196953773498535, 0.04462790489196777, -0.015591071337106924, -0.01470172011816682, 0.019550942246276657, 0.019718369070400168, 0.0, -0.000260782568637028, 0.011208578882769285, 2.9273829460144043, 0.3538806140422821, 0.008939673918758474, -1.121677041053772, -0.1927511841058731]
[8.74999999999999, 0.5728090415220188, 4.920823097229004, 0.04908905550837517, -0.01636782472147505, -0.015001858838268645, 0.017595385251759594, 0.01945003821541825, 0.0, -0.0003122247070674944, 0.010079836013694707, 2.951792001724243, 0.35599687695503235, 0.009377926996793011, -1.1346081495285034, -0.19056496024131775]
[8.79999999999999, 0.572582047987821, 4.9215407371521, 0.05119023099541664, -0.015672540275876626, -0.014876790705241718, 0.019575829585153564, 0.019629961803112307, 0.0, -0.00020671886088148092, 0.011210200596767847, 2.963273763656616, 0.35654985904693604, 0.00897626987937266, -1.140607237815857, -0.1892748922109604]
[8.84999999999999, 0.5724029265237063, 4.922189235687256, 0.05260602384805679, -0.01496346964128013, -0.014810314707184616, 0.021878927408198353, 0.019937564934470364, 0.0, -0.0001688077444541462, 0.012525560751075263, 2.973323106765747, 0.3572882413864136, 0.008567823703950067, -1.1458020210266113, -0.18845054507255554]
[8.899999999999991, 0.5718801047840109, 4.924497127532959, 0.055515356361866, -0.0157145218114175, -0.015346079667021204, 0.01950979774466105, 0.01958950492261675, 0.0, -0.00014408059193317063, 0.011158680998921602, 2.9992024898529053, 0.35960063338279724, 0.00898927295623149, -1.1590044498443604, -0.18566612899303436]
[8.949999999999992, 0.5713606966442212, 4.926814079284668, 0.0583345890045166, -0.016360389059962704, -0.015555807778598121, 0.01761197993738033, 0.01909539388059694, 0.0, -2.3596918025676493e-05, 0.010063833687297921, 3.023719072341919, 0.3616095781326294, 0.009349967445095354, -1.1712123155593872, -0.1832198053598404]
[8.999999999999993, 0.5710735199053161, 4.928099155426025, 0.05988138169050217, -0.016013267951405646, -0.015416904296204247, 0.01947863045128608, 0.01971174830859154, 0.0, 4.2694385509773736e-05, 0.011125137112555389, 3.035288095474243, 0.36258232593536377, 0.009147270281665221, -1.1769201755523682, -0.18272723257541656]
[9.049999999999994, 0.5709304460519937, 4.929015636444092, 0.0598379410803318, -0.015431123171962727, -0.015289487759230573, 0.021937316289681125, 0.02023509849206733, 0.0, 4.593468178456247e-05, 0.01252669131164355, 3.045207977294922, 0.3631238341331482, 0.008812917892847726, -1.1820909976959229, -0.18187463283538818]
[9.099999999999994, 0.5706249613727109, 4.930922031402588, 0.059893809258937836, -0.017047532382102746, -0.015356431400820934, 0.02018360947576451, 0.01982115496655696, 0.0, 4.7303013829024475e-08, 0.0115188355937057, 3.069941282272339, 0.36463475227355957, 0.009730671934601778, -1.1961172819137573, -0.1805362105369568]
[9.149999999999995, 0.5703845946770041, 4.932799816131592, 0.05882454290986061, -0.018009946926036528, -0.01574468129571209, 0.01891875037248733, 0.019234135237667628, 0.0, -5.6503427176539934e-05, 0.010792251378087453, 3.0935378074645996, 0.3656235933303833, 0.010275545940898367, -1.2089952230453491, -0.1780896633863449]
[9.199999999999996, 0.570212498393712, 4.9339280128479, 0.058696236461400986, -0.017572784624025832, -0.015700708698959946, 0.02086157672345871, 0.01985504833190564, 0.0, -1.7709057542110223e-05, 0.011897257750866377, 3.104776620864868, 0.3667537271976471, 0.01002343402274897, -1.2148948907852173, -0.17678669095039368]
