time, uz, alt, vel_alt, uthe, roll, uphi, pitch, upsi, yaw, ux, pos_x, vel_x, uy, pos_y, vel_y, Fz, Fx, Fy
[0.0, 0.8891360585437345, 2.930231809616089, 0.03996219113469124, 0.0035140737155415305, -0.017031475168834107, 0.0011146559075025716, 0.013134063061005915, 0.0, -0.13500109188179887, 0.000991081170688201, 1.446179747581482, 0.03546461462974548, -0.003124504455107634, 1.5462526082992554, -0.03477480635046959]
[0.05, 0.8882922629645937, 2.93491530418396, 0.041832368820905685, 0.007188084359058052, -0.01653180339482165, 0.001188165445805452, 0.012724629498899442, 0.0, -0.13511115543241486, 0.001055438669298225, 1.44837486743927, 0.03366097807884216, -0.006385234201070055, 1.5442376136779785, -0.032667018473148346]
[0.1, 0.8756821797723188, 2.9394779205322266, 0.2625957429409027, 0.011609111473315762, -0.016343573073762156, 0.0006433556764971646, 0.012415369663333767, 0.0, -0.13473620408261144, 0.0005633751788921551, 1.4492632150650024, 0.03572917729616165, -0.010166350859488617, 1.5435210466384888, -0.028929585590958595]
[0.15000000000000002, 0.8337047008921167, 2.9765613079071045, 0.93296879529953, 0.017583027724771164, -0.009282446457462786, -0.0003865202567299539, 0.006801940724005725, 0.0, -0.11937791483442993, -0.00032224377107330573, 1.4514923095703125, 0.038869231939315796, -0.014660564830284748, 1.542292833328247, -0.021240634843707085]
[0.2, 0.8029914589508577, 3.0237839221954346, 1.3642503023147583, 0.021873062491742392, -0.007193092928706712, -0.00018706641355677723, 0.0060636092197790484, 0.0, -0.11258665562345116, -0.00015021273409483466, 1.4531110525131226, 0.037288419902324677, -0.017566684239938755, 1.540136694908142, -0.02079315111041069]
[0.25, 0.757184922655029, 3.1248090267181396, 1.9173115491867065, 0.024937638720266938, 0.003561193234231661, 0.000393714089164329, 0.003948726264682195, 0.0, -0.08255085140309422, 0.00029811438755573613, 1.4554598331451416, 0.03388819471001625, -0.01888632071646258, 1.5370162725448608, -0.027551041916012764]
[0.3, 0.7276406802501358, 3.2090988159179688, 2.2176480293273926, 0.02727183797595058, 0.006642386486609087, 0.001460466389569446, 0.003351505073396699, 0.0, -0.07621263663374804, 0.0010626955127519544, 1.456902265548706, 0.02969602681696415, -0.019849041072798567, 1.5347381830215454, -0.03672067075967789]
[0.35, 0.6773260027399133, 3.3865139484405518, 2.629326343536377, 0.025677459722024884, 0.01605910811014358, 0.004138689035288117, 0.0018919222436703197, 0.0, -0.05541690591581375, 0.002803257706304096, 1.4590282440185547, 0.02022082544863224, -0.017395983517346433, 1.5297484397888184, -0.06093009188771248]
[0.39999999999999997, 0.6586783246110111, 3.4625985622406006, 2.7514591217041016, 0.02725001148997313, 0.017482797080943684, 0.0055759828729502825, 0.0017670919433081006, 0.0, -0.05211893084984515, 0.003672817121462057, 1.4596967697143555, 0.01630321890115738, -0.01795371509104176, 1.5273150205612183, -0.07199668884277344]
[0.44999999999999996, 0.6215775376576311, 3.635106086730957, 2.932176113128662, 0.024327485947989346, 0.02302132260274926, 0.00860855631441103, 0.002340244099626863, 0.0, -0.03776687028160011, 0.005351017420399029, 1.4607599973678589, 0.008155827410519123, -0.015124963036317149, 1.5212191343307495, -0.09724196791648865]
[0.49999999999999994, 0.5983434042294683, 3.7552261352539062, 3.009726047515869, 0.02401758023279281, 0.023714336406199747, 0.010887373380545521, 0.002690152307378185, 0.0, -0.03497702541884681, 0.006514645457947754, 1.461214303970337, 0.0031473832204937935, -0.014374376509592664, 1.5164225101470947, -0.11306321620941162]
[0.5499999999999999, 0.5651605199198297, 3.9401209354400635, 3.0811712741851807, 0.02003256158862405, 0.025432866067524422, 0.014338204211545422, 0.00436067546345103, 0.0, -0.0260645126632018, 0.008103942301753441, 1.4615541696548462, -0.0037942351773381233, -0.01132429166082946, 1.508119821548462, -0.1377439945936203]
[0.6, 0.544735756974103, 4.064739227294922, 3.0932865142822266, 0.017619184536014455, 0.025572003228196447, 0.0168406163049319, 0.004952464640988836, 0.0, -0.024117190013858293, 0.009174553207715519, 1.4616812467575073, -0.007873554714024067, -0.009600154415525981, 1.4984835386276245, -0.1547856628894806]
[0.65, 0.5309168440810966, 4.164270877838135, 3.05663800239563, 0.01279167137855855, 0.02542202089168643, 0.01923761815873434, 0.006330838817055186, 0.0, -0.020534499894730166, 0.010214835673960176, 1.4616553783416748, -0.011577311903238297, -0.006792941184137091, 1.4907689094543457, -0.17867401242256165]
[0.7000000000000001, 0.5004748854196736, 4.37309455871582, 3.006659746170044, 0.008945332894772184, 0.02420493227952475, 0.021979671969456344, 0.009202150387271105, 0.0, -0.016069911682063304, 0.011002045585544585, 1.4614269733428955, -0.013754664920270443, -0.004478115530732893, 1.4733167886734009, -0.19278660416603088]
[0.7500000000000001, 0.4737489693844993, 4.586071014404297, 2.875425100326538, 0.00028164810871130635, 0.020426409113763727, 0.025467409782315705, 0.013505529836841215, 0.0, -0.01128789070415653, 0.012067768257175215, 1.4608787298202515, -0.01697564125061035, -0.0001334737872322675, 1.454326868057251, -0.21588346362113953]
[0.8000000000000002, 0.4643274545268247, 4.666134357452393, 2.814474105834961, 0.001197563036347263, 0.019471250126576824, 0.02696272445214844, 0.014363318015347036, 0.0, -0.010487131909389536, 0.012522567946728968, 1.4606348276138306, -0.017261279746890068, -0.0005562638485929958, 1.4465817213058472, -0.2235645204782486]
[0.8500000000000002, 0.4468481733472789, 4.831338405609131, 2.652280569076538, -0.003906793503145177, 0.014343645677158285, 0.02921570438843532, 0.018200389976298886, 0.0, -0.007281501943912068, 0.013058699800342176, 1.4600458145141602, -0.01758585497736931, 0.0017464977373641555, 1.4299253225326538, -0.23817691206932068]
[0.9000000000000002, 0.43736151884484, 4.935620307922363, 2.521169900894165, -0.004428952541571394, 0.01271093430788252, 0.030770005104180508, 0.01907687392711932, 0.0, -0.006697308739470294, 0.013461864969551752, 1.459639310836792, -0.017273681238293648, 0.001937983438475864, 1.4186108112335205, -0.24622559547424316]
[0.9500000000000003, 0.4256986754291471, 5.0818328857421875, 2.306912660598755, -0.00804853859375684, 0.0057476169007614365, 0.03268272442767645, 0.023496139681297476, 0.0, -0.004561466904237099, 0.013917948385324785, 1.4590367078781128, -0.016970325261354446, 0.003428156951364371, 1.401415228843689, -0.25634241104125977]
[1.0000000000000002, 0.41949531057655787, 5.172623634338379, 2.1545779705047607, -0.00901269163477399, 0.004203493465363094, 0.03282633718714157, 0.024537450188223297, 0.0, -0.004112522694138246, 0.013775442862936015, 1.4603592157363892, -0.015009262599050999, 0.0037829222447495828, 1.387320876121521, -0.26309284567832947]
[1.0500000000000003, 0.41549411318144724, 5.2406392097473145, 1.8664870262145996, -0.00752913007316103, 0.0015943279776406143, 0.03330358144969597, 0.026264593134779628, 0.0, -0.0034337179504055084, 0.013842560144824234, 1.4612441062927246, -0.01186246145516634, 0.003130104019851504, 1.3763302564620972, -0.27146515250205994]
[1.1000000000000003, 0.40981580075694923, 5.37125301361084, 1.7490172386169434, -0.012464752024500557, -0.0020432638735777857, 0.03249182882621041, 0.02888682428155295, 0.0, -0.002499241344289397, 0.01332035269462879, 1.4631831645965576, -0.01004559826105833, 0.005111214670777402, 1.352858066558838, -0.2749331295490265]
[1.1500000000000004, 0.40787038726543223, 5.4878692626953125, 1.4414939880371094, -0.017204727717679686, -0.005590252646277238, 0.031149931901955124, 0.031217864891176898, 0.0, -0.0016887939934166901, 0.012709245725132833, 1.4649642705917358, -0.005760367959737778, 0.007021397638425068, 1.3286890983581543, -0.2818543612957001]
[1.2000000000000004, 0.4081610109855453, 5.527275562286377, 1.3199700117111206, -0.01394884652258915, -0.0060804261069651675, 0.031674725651734535, 0.031588991139357196, 0.0, -0.0015783734865825736, 0.012932713413798001, 1.46570885181427, -0.0047624907456338406, 0.005696602009435343, 1.3192421197891235, -0.28362390398979187]
[1.2500000000000004, 0.41073290981040417, 5.600559711456299, 1.0562411546707153, -0.015868924148180405, -0.008925997076987628, 0.03065899074507769, 0.03233098957090184, 0.0, -0.0011525167407123707, 0.012596603553332163, 1.467124104499817, -0.0013617330696433783, 0.006521501343515847, 1.2994073629379272, -0.2883320450782776]
[1.3000000000000005, 0.4137626757341878, 5.640716075897217, 0.8816323280334473, -0.014236880915023679, -0.010098741914621416, 0.03064278859619777, 0.03224618082255065, 0.0, -0.001098884910424012, 0.012682812087751617, 1.468055009841919, 0.0003985538787674159, 0.005893854856882812, 1.2862876653671265, -0.2907939553260803]
[1.3500000000000005, 0.42015801343621495, 5.687751770019531, 0.6242415904998779, -0.014481918293813057, -0.013296521159496475, 0.029454748099997857, 0.03167301889416348, 0.0, -0.0008858832470949006, 0.012379228654456752, 1.4694544076919556, 0.003864151192829013, 0.006087760054686982, 1.2668086290359497, -0.29257357120513916]
[1.4000000000000006, 0.4256382793217679, 5.710143566131592, 0.4564695656299591, -0.011900160562556628, -0.013746199198571505, 0.02814338186180036, 0.03147370915236387, 0.0, -0.0008536132271244971, 0.011982064261443126, 1.4728296995162964, 0.006423306651413441, 0.005067409666427131, 1.2538444995880127, -0.2931467890739441]
[1.4500000000000006, 0.43550893194082746, 5.7310285568237305, 0.21159464120864868, -0.011615431056571512, -0.014418535601391766, 0.025375742832548124, 0.030899475051597916, 0.0, -0.0006999558429774948, 0.011053735364497053, 1.477478265762329, 0.010790751315653324, 0.005060480691969085, 1.2346543073654175, -0.294095516204834]
[1.5000000000000007, 0.44293276893916345, 5.736884593963623, 0.056453511118888855, -0.009019196248422463, -0.014475395285683567, 0.02452162595082325, 0.030661578566209487, 0.0, -0.0007991823718397533, 0.010863609234709725, 1.4803435802459717, 0.012911886908113956, 0.003996207314075878, 1.222003698348999, -0.2946394085884094]
[1.5500000000000007, 0.45542719836739515, 5.733894348144531, -0.16679541766643524, -0.008463036002730552, -0.013582841055120866, 0.022649920286149244, 0.029360004742710662, 0.0, -0.0006841657026224356, 0.010317154097820812, 1.4843695163726807, 0.01605130545794964, 0.003855377696293648, 1.2032161951065063, -0.2951743006706238]
[1.6000000000000008, 0.4644748758915997, 5.724703311920166, -0.307754248380661, -0.005849902258057849, -0.013155226814865903, 0.022122048093819992, 0.0286991107831994, 0.0, -0.0006302040908228181, 0.010276812036802729, 1.4868969917297363, 0.017890941351652145, 0.002717828625544483, 1.1908059120178223, -0.2954842150211334]
[1.6500000000000008, 0.4789574746289128, 5.700334072113037, -0.5049281120300293, -0.005342890866011523, -0.011385406584937936, 0.020608481440520996, 0.026259218191662336, 0.0, -0.0005676356704441518, 0.009871983841392318, 1.4904770851135254, 0.020870309323072433, 0.0025595853878848454, 1.1723099946975708, -0.2961013913154602]
[1.7000000000000008, 0.48922820994938354, 5.67753267288208, -0.6284946799278259, -0.0031191242154271406, -0.01081443439993419, 0.020263801584632278, 0.025551373771668395, 0.0, -0.0005820197143068128, 0.009914980515072624, 1.4927645921707153, 0.022686580196022987, 0.001526281856677754, 1.1600459814071655, -0.29699140787124634]
[1.7500000000000009, 0.505289581155386, 5.634588241577148, -0.8002521991729736, -0.003229681389949836, -0.00836838745650914, 0.019823301113538, 0.02326985099662475, 0.0, -0.0005523383743802621, 0.010017819762882274, 1.4960224628448486, 0.023582270368933678, 0.001632250727718998, 1.1416722536087036, -0.29896897077560425]
[1.800000000000001, 0.5160525089687554, 5.601539611816406, -0.9027628302574158, -0.000813590192005779, -0.007895174910131659, 0.018390116204418196, 0.022898226296558893, 0.0, -0.0005768074719123432, 0.009491335610071226, 1.5012940168380737, 0.0262205321341753, 0.0004199263592799124, 1.1295336484909058, -0.29900413751602173]
[1.850000000000001, 0.5280559592747102, 5.57209587097168, -1.0389370918273926, 0.0016534329623621676, -0.006594435721341748, 0.017133694197250495, 0.0218918921391827, 0.0, -0.0005588447656863142, 0.009048434772568403, 1.5050536394119263, 0.029680849984288216, -0.0008732340963639798, 1.1198500394821167, -0.30044835805892944]
[1.900000000000001, 0.5435346612304668, 5.501556873321533, -1.1185543537139893, 0.0011231282878424564, -0.005262732212383473, 0.015199048822850265, 0.021011368360493353, 0.0, -0.0004695342607154184, 0.008261846055425414, 1.5129334926605225, 0.031875260174274445, -0.0006105299283652166, 1.0992584228515625, -0.3014621436595917]
[1.950000000000001, 0.560082021602331, 5.431763172149658, -1.2202162742614746, 0.0008929389653261595, -0.0030137909304992373, 0.013692911362256964, 0.01957645510155089, 0.0, -0.00032007525549311117, 0.0076696328247553664, 1.5191078186035156, 0.03448256105184555, -0.0005001660825817156, 1.0810610055923462, -0.3034803867340088]
[2.000000000000001, 0.5708046200242494, 5.382114887237549, -1.2730604410171509, 0.002501800582690348, -0.0022888342120541026, 0.01322926467109701, 0.01916609257359924, 0.0, -0.00031722923645227744, 0.007551765952447907, 1.5229467153549194, 0.03657511621713638, -0.001428167282769982, 1.0688945055007935, -0.30479976534843445]
[2.0500000000000007, 0.5859884550754603, 5.304610252380371, -1.3266741037368774, 0.0016092231687348446, -0.0004945112507378932, 0.012101726150288815, 0.01686989178009162, 0.0, -0.00026995877012676774, 0.007091818017048345, 1.5283726453781128, 0.03929300233721733, -0.0009430560677799807, 1.0505506992340088, -0.30852076411247253]
[2.1000000000000005, 0.5957684279450272, 5.2516560554504395, -1.3522685766220093, 0.002477879145828599, -0.00027693678328164775, 0.012390572126113431, 0.016294776077281917, 0.0, -0.0003240160782704766, 0.007382289472588521, 1.5317769050598145, 0.03988002613186836, -0.0014763585131381124, 1.038206696510315, -0.3116178512573242]
[2.1500000000000004, 0.6116472600871857, 5.15536642074585, -1.3634331226348877, 0.00021702512579541703, 0.0007375690977348717, 0.01161561776308438, 0.014470170600163389, 0.0, -0.00033336448765906705, 0.00710498032263409, 1.5383068323135376, 0.04106646031141281, -0.00013275178115235153, 1.0158531665802002, -0.31655991077423096]
[2.2, 0.617266714069727, 5.118343830108643, -1.3587024211883545, 0.002590726173794325, 0.0008852433099597589, 0.011578863666114516, 0.013962891484850854, 0.0, -0.00033614468093545914, 0.007147566555647942, 1.5429548025131226, 0.04216941446065903, -0.0015992798167544925, 1.0074161291122437, -0.31785550713539124]
[2.25, 0.6281237853036443, 5.039292335510254, -1.327396035194397, 0.0016088423874603998, 0.0012062605523165538, 0.009989429292595617, 0.013018492580965622, 0.0, -0.0002779097712173899, 0.0062748068599448575, 1.5516257286071777, 0.044936176389455795, -0.0010106034652475615, 0.9890422821044922, -0.3219406306743622]
[2.3, 0.6343190010668236, 4.987928867340088, -1.2910979986190796, 0.0027901767579855577, 0.0011199315710770023, 0.009976153666606938, 0.012787387879107482, 0.0, -0.00023333425882018536, 0.006328273767301761, 1.5569168329238892, 0.0457107275724411, -0.0017699548022263034, 0.9766193628311157, -0.3237141966819763]
[2.3499999999999996, 0.6422834360331979, 4.914228916168213, -1.2218366861343384, 0.001983633313752136, 0.0014632203869078579, 0.009234709977378842, 0.011917133505548108, 0.0, -0.000216180823437863, 0.0059314698676560685, 1.5642085075378418, 0.047340016812086105, -0.0012741108192554362, 0.9577803611755371, -0.32691633701324463]
[2.3999999999999995, 0.6465936733243998, 4.86766242980957, -1.1646648645401, 0.003030219516651977, 0.0014463205446711453, 0.009522776267072925, 0.011709201896840542, 0.0, -0.00020682211559119957, 0.006157553016908169, 1.5687031745910645, 0.048056188970804214, -0.001959415607685297, 0.9450767040252686, -0.3287781774997711]
[2.4499999999999993, 0.651411085689073, 4.802656173706055, -1.0625728368759155, 0.0019481145074447138, 0.0017941057243169413, 0.009466349160656907, 0.010661833810286387, 0.0, -0.0003375621871682032, 0.006166668987389467, 1.5749516487121582, 0.048645149916410446, -0.0012690818536304216, 0.9258124232292175, -0.3325609564781189]
[2.499999999999999, 0.6535397470110595, 4.762923240661621, -0.9850200414657593, 0.0028046668233089166, 0.0018540423371400416, 0.01039802776192174, 0.010477632765482742, 0.0, -0.0003535135921461729, 0.006795769351925584, 1.5787956714630127, 0.04804057627916336, -0.001833065145965762, 0.9128211736679077, -0.33473941683769226]
[2.549999999999999, 0.6547084005729464, 4.733351230621338, -0.8582772016525269, 0.004109739161187379, 0.0019887995919951914, 0.011624547021009327, 0.01020059288069659, 0.0, -0.00030672071128965556, 0.007611031417060673, 1.5816013813018799, 0.04742315784096718, -0.0026908777088192892, 0.9023223519325256, -0.3384895622730255]
[2.5999999999999988, 0.6550107555714567, 4.679379463195801, -0.7661466598510742, 0.0025124486563395075, 0.0021448966542095727, 0.011493707501871387, 0.009875905862908244, 0.0, -0.0002917738665764155, 0.0075288335710075975, 1.5893617868423462, 0.04760664328932762, -0.00164579306326966, 0.8800603747367859, -0.3404734134674072]
[2.6499999999999986, 0.6533810218485666, 4.640742778778076, -0.6220191717147827, 0.0013961664928687858, 0.0025107041707392043, 0.011324441491981111, 0.010416794497533398, 0.0, -0.00025118764909012696, 0.007399491467532623, 1.5965625047683716, 0.04858430102467537, -0.0009122877791361006, 0.8602562546730042, -0.34391283988952637]
[2.6999999999999984, 0.6514016308026114, 4.6196675300598145, -0.5231491327285767, 0.0018372349328658073, 0.002700332599949153, 0.011985411062895957, 0.010664412082087928, 0.0, -0.00021572639303748316, 0.007807690174225532, 1.600969910621643, 0.04907120019197464, -0.0011968651418422377, 0.8468791246414185, -0.3470417261123657]
[2.7499999999999982, 0.6471726032674802, 4.595337390899658, -0.3729044497013092, 0.0004933005005635602, 0.0023268991416914493, 0.012251443896699089, 0.011245912388870656, 0.0, -8.461380247006869e-05, 0.007929195562856959, 1.6070812940597534, 0.049815259873867035, -0.00031927455595581744, 0.8265559077262878, -0.3507308065891266]
[2.799999999999998, 0.6435843261878296, 4.584059238433838, -0.2730233371257782, 0.0009395370508242398, 0.0020961748011746307, 0.013215040683335682, 0.011239065072976208, 0.0, -3.8713098140381543e-05, 0.008505488184658594, 1.6108773946762085, 0.05012323334813118, -0.0006047243006449404, 0.81284499168396, -0.3535221219062805]
[2.849999999999998, 0.6372496646716644, 4.574397563934326, -0.12689681351184845, -0.00048315266938314395, 0.0016740517814756023, 0.013659793811371428, 0.011584779960040842, 0.0, 0.0001395113882684806, 0.00870524046935963, 1.6162139177322388, 0.051259685307741165, 0.0003079176272303974, 0.7920585870742798, -0.35695478320121765]
[2.8999999999999977, 0.6325454175140086, 4.572472095489502, -0.033849991858005524, 6.944081811709606e-06, 0.0014398803790374019, 0.014934578228698406, 0.011736434776399973, 0.0, 0.00022668981281594256, 0.009447501426874805, 1.619561791419983, 0.05127587541937828, -4.3929370237144605e-06, 0.7780364155769348, -0.3592926561832428]
[2.9499999999999975, 0.6250067145014033, 4.576382160186768, 0.09464489668607712, -0.0014326634398124575, 0.0007656495647153264, 0.015800062801459135, 0.012500574262285588, 0.0, 0.00024637605537369546, 0.009875967172814892, 1.624301552772522, 0.05191761627793312, 0.0008955366615800014, 0.7568061351776123, -0.3622417449951172]
[2.9999999999999973, 0.6195300003794899, 4.584051132202148, 0.17376506328582764, -0.0014764344712180164, 0.0005578834827478104, 0.01648920556730984, 0.01269899926542495, 0.0, 0.00021512377358223801, 0.010216483481337257, 1.6289887428283691, 0.05313871428370476, 0.0009148204773861413, 0.7408591508865356, -0.36470547318458557]
[3.049999999999997, 0.6112015514482854, 4.600951671600342, 0.27864646911621094, -0.003723771315329368, -0.00012311674900331997, 0.016551038009101897, 0.013895598050310506, 0.0, 0.00024157911601300106, 0.010116943927395261, 1.6355259418487549, 0.05527245253324509, 0.002276297098862151, 0.717090904712677, -0.36796891689300537]
[3.099999999999997, 0.6055430398887224, 4.615570068359375, 0.34066396951675415, -0.003419041641660196, -0.0002882043983087497, 0.017243182999775182, 0.014232809495552154, 0.0, 0.00028202593189735023, 0.010442524420962381, 1.6396245956420898, 0.05720904842019081, 0.0020706927658762503, 0.7013185024261475, -0.36934784054756165]
[3.149999999999997, 0.5971871401599167, 4.641590595245361, 0.4191795885562897, -0.005842547428605364, -0.001215262021488644, 0.017349374845770392, 0.01555803592805177, 0.0, 0.00021207682421327004, 0.01036186321163561, 1.6455047130584717, 0.05993998050689697, 0.003489659073101517, 0.6777203679084778, -0.37293362617492676]
[3.1999999999999966, 0.5917709227676118, 4.66115665435791, 0.46211668848991394, -0.005580770319802488, -0.001522218412878846, 0.018122024753259195, 0.01576009147595131, 0.0, 0.0001958793592049084, 0.010725261422795174, 1.6492670774459839, 0.06213782727718353, 0.0033031142575410677, 0.6620086431503296, -0.37435927987098694]
[3.2499999999999964, 0.5839236653396473, 4.69349479675293, 0.5125678777694702, -0.007439707487411216, -0.002935588019998128, 0.018206376005945307, 0.016342670784902768, 0.0, 7.632472561737457e-05, 0.010632308607221752, 1.6547648906707764, 0.06541440635919571, 0.004345021523543283, 0.6385199427604675, -0.37604638934135437]
[3.2999999999999963, 0.5790197645774112, 4.716548919677734, 0.5357106924057007, -0.00680844946883583, -0.0035040782408052016, 0.019296715033183625, 0.016540895285503582, 0.0, 3.72762289863445e-05, 0.01117456642920973, 1.658347487449646, 0.06704957038164139, 0.003943021819019107, 0.6229100823402405, -0.37637433409690857]
[3.349999999999996, 0.5721923925632746, 4.752471446990967, 0.5566565990447998, -0.00820467491559381, -0.0050763174942563705, 0.019665621442197516, 0.01730573202299933, 0.0, 2.8569640401765445e-05, 0.011253969795915884, 1.663604974746704, 0.06984072178602219, 0.004695665879641417, 0.5995972752571106, -0.37664884328842163]
[3.399999999999996, 0.5677893462482587, 4.77752685546875, 0.5645993947982788, -0.007432653327913109, -0.0055537047575781795, 0.02011117833313177, 0.017549353995025243, 0.0, 4.121041872528468e-06, 0.011420452543054547, 1.6683825254440308, 0.07265396416187286, 0.004221112695149243, 0.5835655927658081, -0.37619808316230774]
[3.4499999999999957, 0.5617203329918351, 4.815347194671631, 0.56586754322052, -0.008636441473373384, -0.006515339060734149, 0.019655342139060804, 0.018415160166200324, 0.0, 1.5791233591011986e-05, 0.011042227358387268, 1.6752948760986328, 0.07668682932853699, 0.004852322674199425, 0.5597807168960571, -0.37541043758392334]
[3.4999999999999956, 0.5579865020577847, 4.84058141708374, 0.5608539581298828, -0.007984410832998815, -0.0067332710330864675, 0.020218162206377722, 0.01869926717985914, 0.0, 4.7221612174414426e-05, 0.011282999048668384, 1.6797797679901123, 0.0795421302318573, 0.004456198906470851, 0.5440587401390076, -0.37548181414604187]
[3.5499999999999954, 0.5530221174565378, 4.877303600311279, 0.5448418259620667, -0.009053257008925257, -0.007296078955981522, 0.020237983427050733, 0.019423481356839467, 0.0, 4.100358009479259e-05, 0.01119358069684315, 1.6863396167755127, 0.08258862793445587, 0.005007813654667542, 0.5206718444824219, -0.37449103593826294]
[3.599999999999995, 0.5501147425064096, 4.901079177856445, 0.5287768244743347, -0.008072908622719569, -0.00746701729114682, 0.020837131399694172, 0.019531169047426012, 0.0, 8.033186919825417e-05, 0.011464472460529927, 1.690649151802063, 0.08561740815639496, 0.004442086838579731, 0.5052093267440796, -0.3738040030002594]
[3.649999999999995, 0.5465160437494864, 4.935022354125977, 0.4955890476703644, -0.009248890202297322, -0.007986557413742495, 0.020336190052727795, 0.01982583714925444, 0.0, 0.00024360589472231046, 0.011115586497772955, 1.6970975399017334, 0.09023666381835938, 0.005055856431631367, 0.4821699261665344, -0.37327829003334045]
[3.699999999999995, 0.5445155604314228, 4.9563703536987305, 0.46983402967453003, -0.008091756178614427, -0.008153175397147595, 0.021352579038551874, 0.01984839050110755, 0.0, 0.0002572046643573437, 0.01162857887840971, 1.7013919353485107, 0.09225737303495407, 0.004407187970305579, 0.4669148325920105, -0.37222445011138916]
[3.7499999999999947, 0.541833537163331, 4.991437911987305, 0.416307270526886, -0.010148084325421922, -0.00836724712287586, 0.02081966604955769, 0.02020335041861921, 0.0, 0.00019854857425109313, 0.01128242349940118, 1.7090363502502441, 0.0961562767624855, 0.005499953145188877, 0.43937167525291443, -0.3706068992614746]
[3.7999999999999945, 0.5409487558478778, 5.004492282867432, 0.3942705988883972, -0.008367603537906537, -0.008438681594906216, 0.022513097055762484, 0.02031042969375436, 0.0, 0.00012074765633633516, 0.012180489763406285, 1.7119598388671875, 0.09746935218572617, 0.0045276977282455305, 0.42799925804138184, -0.3707368075847626]
[3.8499999999999943, 0.5396903321665323, 5.029637813568115, 0.34354227781295776, -0.009844936186813497, -0.008638016896104432, 0.02293272564563326, 0.020759931380825495, 0.0, 0.00019855226533491686, 0.012378740431332712, 1.718185544013977, 0.0998990386724472, 0.0053147860327674434, 0.4040576219558716, -0.3701803684234619]
[3.899999999999994, 0.5392438163503163, 5.0444464683532715, 0.30819594860076904, -0.008976532606949264, -0.008732692651295254, 0.024494356411008975, 0.020753579084234232, 0.0, 0.00020670156446643589, 0.013211072433573844, 1.7223280668258667, 0.10081450641155243, 0.004842122218520206, 0.38829201459884644, -0.36940038204193115]
[3.949999999999994, 0.5391720285399443, 5.063846588134766, 0.25235918164253235, -0.01040395920267012, -0.008991069200937323, 0.025211455969872964, 0.021321809579868012, 0.0, 9.516956767769883e-06, 0.013596192639175664, 1.728515625, 0.10252565890550613, 0.005611509485346847, 0.36489540338516235, -0.36904993653297424]
[3.999999999999994, 0.5394209128791884, 5.074948787689209, 0.2150196135044098, -0.009582376423879317, -0.009037227179952506, 0.026764189018492583, 0.02160196790075148, 0.0, -2.1071488668306837e-05, 0.014440611479167281, 1.7326377630233765, 0.10358238220214844, 0.005170944370692113, 0.34943535923957825, -0.3685440421104431]
[4.049999999999994, 0.5402687700722411, 5.088834285736084, 0.15835314989089966, -0.010313296892399145, -0.00939753090235703, 0.02687681532464631, 0.02296892487552869, 0.0, -0.0001182157527089759, 0.014524201376873644, 1.7388826608657837, 0.1069437712430954, 0.0055741629516413566, 0.3264833390712738, -0.3665793240070343]
[4.099999999999993, 0.541102415023948, 5.096264362335205, 0.1209740936756134, -0.009278849898196878, -0.009445629566171298, 0.02812483469830307, 0.023317317635298398, 0.0, -0.00012682065293098509, 0.015222429868518579, 1.7431162595748901, 0.10883262008428574, 0.005022938642961702, 0.311328649520874, -0.36563098430633545]
[4.149999999999993, 0.5427778899126852, 5.1045002937316895, 0.06558483839035034, -0.010176772526037978, -0.009745242425566573, 0.02785480915342848, 0.02491162685014866, 0.0, -0.00033071212426658345, 0.015122885972526041, 1.7496148347854614, 0.11310335993766785, 0.0055260614874987485, 0.2887973189353943, -0.36436185240745544]
[4.199999999999993, 0.5439072257128734, 5.109114646911621, 0.031011510640382767, -0.00918393757099994, -0.009804656501611553, 0.028899195204888945, 0.02531968106770447, 0.0, -0.00036565670079798053, 0.015722858385342105, 1.7542833089828491, 0.11534043401479721, 0.0049974371432193465, 0.2736378014087677, -0.3634021580219269]
[4.249999999999993, 0.5460213728383968, 5.112944602966309, -0.01954132691025734, -0.009894384628967481, -0.009761774917420675, 0.028363020236601897, 0.0266832120203695, 0.0, -0.0005601034330464746, 0.015490969430053562, 1.7613964080810547, 0.11999426037073135, 0.0054048956543140125, 0.2511332035064697, -0.36155274510383606]
[4.299999999999993, 0.5475610684825973, 5.113795757293701, -0.0506465807557106, -0.008848233839618145, -0.009804995686348144, 0.029068956787843044, 0.0269423960518255, 0.0, -0.0005518355180789968, 0.015921513873368615, 1.7662416696548462, 0.123127281665802, 0.004847122593762243, 0.23627202212810516, -0.3605477809906006]
[4.3499999999999925, 0.5507125569589317, 5.1118693351745605, -0.10350267589092255, -0.010825263620561302, -0.009715436965665587, 0.027676178496718138, 0.027676595827700788, 0.0, -0.0006000588995473159, 0.01524551176479853, 1.7752118110656738, 0.12878942489624023, 0.00596412551953443, 0.2097800374031067, -0.35913100838661194]
[4.399999999999992, 0.5520179150228774, 5.110135555267334, -0.12263801693916321, -0.008610665908931614, -0.009728048354378138, 0.029042035737718318, 0.027787335341985173, 0.0, -0.0006312901989348839, 0.016036232802029055, 1.7787857055664062, 0.13125474750995636, 0.004755364610624896, 0.19952918589115143, -0.35820305347442627]
[4.449999999999992, 0.5549324615137635, 5.104386806488037, -0.15982936322689056, -0.00903870894417383, -0.009588577889186487, 0.028221621332384296, 0.02821008644739334, 0.0, -0.0006055840401169224, 0.015665252930049608, 1.786644458770752, 0.1364040970802307, 0.0050180077921825605, 0.17776928842067719, -0.3559364974498749]
[4.499999999999992, 0.556973004720954, 5.099173545837402, -0.18236574530601501, -0.007867022477130444, -0.009730160549412266, 0.028470592150792947, 0.028195176579588227, 0.0, -0.0005968865892881637, 0.015861637168180474, 1.7920515537261963, 0.14064408838748932, 0.004383586036244808, 0.16337785124778748, -0.3546465039253235]
[4.549999999999992, 0.5602882502823875, 5.089191913604736, -0.2145254760980606, -0.008362520868621727, -0.009432504089297203, 0.027443709505047154, 0.02835619157675271, 0.0, -0.000466404957268732, 0.015380249422215983, 1.800437331199646, 0.14612719416618347, 0.004687296433143653, 0.14194834232330322, -0.3527035415172577]
[4.599999999999992, 0.5621877784037904, 5.083035469055176, -0.2316633015871048, -0.007209106939667669, -0.009295203230514602, 0.027287769218440283, 0.02841466738812947, 0.0, -0.00043024999103056323, 0.015344659202317378, 1.8075140714645386, 0.1504509001970291, 0.004054451450963614, 0.12747271358966827, -0.3512275218963623]
[4.6499999999999915, 0.5650196135523868, 5.072368144989014, -0.25282391905784607, -0.007832010499852852, -0.008758303981391545, 0.02573769661348755, 0.02819048872113067, 0.0, -0.0003355654445027097, 0.01454551532665067, 1.8181121349334717, 0.15603873133659363, 0.00442679616835831, 0.10597442090511322, -0.3494441509246826]
[4.699999999999991, 0.5669278259541282, 5.064399719238281, -0.2647833228111267, -0.006758506481012353, -0.008594280184156972, 0.025634963752702286, 0.028148863414493835, 0.0, -0.00028105940847937354, 0.014536358604215094, 1.8252111673355103, 0.16038778424263, 0.003832903055782627, 0.09176664799451828, -0.3482305705547333]
[4.749999999999991, 0.5697390553033655, 5.051461696624756, -0.27886971831321716, -0.007654014516954618, -0.008015606784775281, 0.0240461163075956, 0.027400674070374633, 0.0, -0.0002206814800432191, 0.01370265272030377, 1.8359726667404175, 0.16619914770126343, 0.004362137226970347, 0.07059101015329361, -0.3473392128944397]
[4.799999999999991, 0.571490189320294, 5.042598724365234, -0.28527554869651794, -0.006575460399702592, -0.007923944315912493, 0.024280414602594075, 0.02712067202316612, 0.0, -0.00017523738867078787, 0.013878746197101915, 1.8432189226150513, 0.16968388855457306, 0.003758973243407418, 0.05656012147665024, -0.3460763096809387]
[4.849999999999991, 0.5740733993259236, 5.0287065505981445, -0.29231512546539307, -0.007422152662573705, -0.00748967656023387, 0.0230207495263182, 0.026050280100776924, 0.0, -4.773791215595537e-05, 0.01321793498794703, 1.8541847467422485, 0.1746489405632019, 0.0042620679543428075, 0.03563203290104866, -0.34510308504104614]
[4.899999999999991, 0.5756120146668878, 5.019298076629639, -0.29316627979278564, -0.0066998491681220995, -0.007442175322924651, 0.023320311625744463, 0.02576758417760854, 0.0, -2.5076117966056925e-05, 0.013425885476598842, 1.8615809679031372, 0.17803236842155457, 0.0038576202930239445, 0.021733000874519348, -0.3447946310043335]
[4.94999999999999, 0.57774816711838, 5.005172252655029, -0.2912140488624573, -0.007874223323184083, -0.007201835123342754, 0.022277955492138544, 0.024684087639693635, 0.0, 9.555958643837266e-05, 0.012873177707223737, 1.8728002309799194, 0.18243630230426788, 0.0045505413059016425, 0.0009318143129348755, -0.3447265028953552]
[4.99999999999999, 0.5786658781285836, 4.997653484344482, -0.2861018180847168, -0.007094713895582254, -0.0072743206164033545, 0.02238222216889995, 0.024445053846625986, 0.0, 9.983353650006214e-05, 0.012953991478647661, 1.8815009593963623, 0.18564553558826447, 0.0041065663084547815, -0.012868697755038738, -0.34415391087532043]
[5.04999999999999, 0.5800382900625197, 4.98579216003418, -0.2766377627849579, -0.007886835566960411, -0.007146321839962272, 0.02134275441178022, 0.02348028252982902, 0.0, -4.959292328905377e-05, 0.012381494809292397, 1.894434928894043, 0.18902990221977234, 0.0045758035998614555, -0.03348363935947418, -0.3429654836654663]
[5.09999999999999, 0.5809258769797929, 4.977602958679199, -0.26899033784866333, -0.007361279204098163, -0.007211639483411872, 0.021765777012607342, 0.023338425220747732, 0.0, -7.851024016557672e-05, 0.01264630021983934, 1.9029736518859863, 0.19160720705986023, 0.004277448000505529, -0.047189127653837204, -0.3430495262145996]
[5.14999999999999, 0.5820471669789476, 4.9654974937438965, -0.254142701625824, -0.00836564326199084, -0.007515129003825123, 0.021112234257829175, 0.022468549441831517, 0.0, -0.00017952093378434462, 0.012290142206386398, 1.9157137870788574, 0.19422078132629395, 0.004870397944671451, -0.0677080824971199, -0.342407763004303]
[5.1999999999999895, 0.5827172781049202, 4.957525253295898, -0.24309542775154114, -0.007619363164855432, -0.007527185076307182, 0.021660421162643523, 0.022302622655717513, 0.0, -0.00025034913656729824, 0.012623875988401333, 1.9241712093353271, 0.19667893648147583, 0.00444106226039119, -0.0813528299331665, -0.34173741936683655]
[5.249999999999989, 0.5836705456154456, 4.944350719451904, -0.2219766527414322, -0.009570271256985256, -0.007486507436434198, 0.020314154448559066, 0.021853847184848094, 0.0, -0.000363199258435617, 0.011858404837951524, 1.939348578453064, 0.19967465102672577, 0.005587208772504293, -0.1058201864361763, -0.3407541513442993]
[5.299999999999989, 0.583866347648496, 4.939743995666504, -0.21203778684139252, -0.007950567358798077, -0.0076268848006227075, 0.021828420073713384, 0.021755119476367032, 0.0, -0.00039183819446613177, 0.012746904515716515, 1.9452810287475586, 0.20141518115997314, 0.004643272707917673, -0.11531561613082886, -0.340475469827652]
[5.349999999999989, 0.5842094108765244, 4.930296421051025, -0.19056855142116547, -0.009003142020899314, -0.007964294286947981, 0.021122717625676826, 0.021447286374361597, 0.0, -0.0004392137523740677, 0.012341926003890696, 1.957979679107666, 0.20462891459465027, 0.005261036024777371, -0.1356269270181656, -0.3398188650608063]
[5.399999999999989, 0.5839856207776569, 4.92638635635376, -0.17488951981067657, -0.00748112779231531, -0.008131387340746603, 0.02137047038929444, 0.021208845093263665, 0.0, -0.0004281496319712362, 0.012481947630489924, 1.9678834676742554, 0.20729373395442963, 0.004369950397988848, -0.1479073166847229, -0.3375661373138428]
[5.449999999999989, 0.5834551931801262, 4.921408653259277, -0.1503690481185913, -0.007653748932363424, -0.008508153220508177, 0.020385672297405098, 0.021230731679587948, 0.0, -0.00039337675083068004, 0.011895774278695169, 1.9825143814086914, 0.21012359857559204, 0.004466634842566999, -0.16642309725284576, -0.3355000913143158]
[5.4999999999999885, 0.5830412778584387, 4.918531894683838, -0.13420383632183075, -0.006610766901489633, -0.008482862462047198, 0.02113836992255814, 0.02121215178905243, 0.0, -0.00038763425113027915, 0.012326378200848538, 1.992121934890747, 0.21171598136425018, 0.003855267424574829, -0.17884686589241028, -0.3343866169452667]
[5.549999999999988, 0.5822468236857928, 4.913815498352051, -0.10554960370063782, -0.007905572485444854, -0.008175040327430286, 0.01959918158064063, 0.02115314630736603, 0.0, -0.00038320049387763995, 0.011413022613134143, 2.00915789604187, 0.2145352065563202, 0.004603974593515629, -0.2013396918773651, -0.3324449956417084]
[5.599999999999988, 0.5818994755684095, 4.912384033203125, -0.0948798805475235, -0.0060320049696370405, -0.008094462004286103, 0.021454299665609092, 0.021055324403047977, 0.0, -0.00040058215556166963, 0.012486161522062542, 2.0157792568206787, 0.2153107225894928, 0.0035108710729936793, -0.2100628763437271, -0.33154428005218506]
[5.649999999999988, 0.5811503911467915, 4.909817218780518, -0.07340289652347565, -0.006485988561570404, -0.007483069356384861, 0.0209181639232072, 0.020777908616329176, 0.0, -0.0004277531888808469, 0.01215837257578007, 2.029792547225952, 0.21762420237064362, 0.0037702124816769572, -0.22888366878032684, -0.3297547698020935]
[5.699999999999988, 0.580558426553238, 4.9087748527526855, -0.05933650955557823, -0.0058121100151885515, -0.007522258268365006, 0.02187760605741784, 0.020670421214659233, 0.0, -0.000420506148715079, 0.012703255332323186, 2.039090633392334, 0.21918745338916779, 0.003375115123724015, -0.24146267771720886, -0.3292960524559021]
[5.749999999999988, 0.5795116799055765, 4.908563613891602, -0.03927263244986534, -0.006787466621160578, -0.00694034889870687, 0.021616106182920473, 0.02073432619813907, 0.0, -0.00035317517880646877, 0.01252873744397904, 2.0529720783233643, 0.22098636627197266, 0.003934395738125221, -0.26040977239608765, -0.3287542760372162]
[5.799999999999987, 0.5787791247855282, 4.908814430236816, -0.026405908167362213, -0.00593047871657184, -0.006854606943371858, 0.02244441042734008, 0.02082542981389859, 0.0, -0.00033135529475693314, 0.012992537967155222, 2.0630548000335693, 0.22251835465431213, 0.0034333422614273162, -0.2725370526313782, -0.327946275472641]
[5.849999999999987, 0.5776596060389131, 4.910189151763916, -0.009664081037044525, -0.006805058289339006, -0.0065802824493409505, 0.021644476139678407, 0.021180809195490945, 0.0, -0.00020709788234820725, 0.012505092429945457, 2.0779855251312256, 0.2252456396818161, 0.003931988971436887, -0.290881872177124, -0.32739368081092834]
[5.899999999999987, 0.5769002466724351, 4.911576271057129, 0.00035191833740100265, -0.006401188315676731, -0.006509331220835135, 0.022709646615539775, 0.021237269877162467, 0.0, -0.00023131412347262743, 0.013103453417958572, 2.087851047515869, 0.22641730308532715, 0.003693850027634074, -0.30320948362350464, -0.32758960127830505]
[5.949999999999987, 0.5756731203920258, 4.914333343505859, 0.015018714591860771, -0.007906325939062219, -0.0064466439053064905, 0.022264537135700105, 0.021640032040030337, 0.0, -0.00015759538547833622, 0.012819213839510964, 2.102518081665039, 0.22847478091716766, 0.004552682521407864, -0.3218635320663452, -0.32844457030296326]
[5.999999999999987, 0.5748952428911832, 4.916584014892578, 0.02283385768532753, -0.007371902682866837, -0.006472532403505881, 0.023114976377034455, 0.021660943288403938, 0.0, -0.00013973460249879838, 0.013291057189756622, 2.112262487411499, 0.2305171936750412, 0.004239281035728924, -0.33439376950263977, -0.32794973254203796]
[6.0499999999999865, 0.5737601258074339, 4.920355796813965, 0.032801512628793716, -0.008807549625654032, -0.006651117180131497, 0.022264986672374965, 0.02196172338349367, 0.0, -0.0002594238320204509, 0.012776872915522111, 2.1268796920776367, 0.23390795290470123, 0.005054804311259563, -0.3532971143722534, -0.3282376825809479]
[6.099999999999986, 0.5730797093813249, 4.922982692718506, 0.03769780322909355, -0.008440090454451167, -0.00684060057440648, 0.02320522336116061, 0.022078485330990133, 0.0, -0.00035530786235979866, 0.013300830166597194, 2.1366288661956787, 0.23583126068115234, 0.0048382620401433984, -0.36596134305000305, -0.32796213030815125]
[6.149999999999986, 0.5720313583498513, 4.927483081817627, 0.043906811624765396, -0.009965170344105665, -0.007382386422142432, 0.022563406468925847, 0.022417486575791474, 0.0, -0.0004572097920404864, 0.012909166842852031, 2.1512856483459473, 0.23872362077236176, 0.005702030038319934, -0.38503074645996094, -0.3282012343406677]
[6.199999999999986, 0.5714460307150842, 4.930163383483887, 0.04687962308526039, -0.0095677744720267, -0.007618630452126671, 0.023697369062935257, 0.02249227873784244, 0.0, -0.0004296267304122323, 0.013544302921173694, 2.1615231037139893, 0.23986755311489105, 0.005469169161717559, -0.3971332013607025, -0.3280988931655884]
[6.249999999999986, 0.5705754062089945, 4.934398651123047, 0.05056897550821304, -0.01043596386163015, -0.008204165073569913, 0.022920003377421, 0.022659567456277507, 0.0, -0.000288025689871675, 0.013079880720493611, 2.176819086074829, 0.24278587102890015, 0.005956284924829455, -0.4154663383960724, -0.326839417219162]
[6.299999999999986, 0.5700484444984799, 4.937344074249268, 0.05167646333575249, -0.009854335425840704, -0.00844981669027058, 0.024098822775052518, 0.022703391542623862, 0.0, -0.00029470355727548157, 0.01374015642035862, 2.1869826316833496, 0.2439999282360077, 0.005619262044464966, -0.4277569651603699, -0.3259066343307495]
[6.349999999999985, 0.5695538079534748, 4.940272331237793, 0.05223415791988373, -0.008971200139953736, -0.008937292990440961, 0.024743104867226976, 0.022828522878414553, 0.0, -0.0002835999720555752, 0.014095406217482252, 2.1971383094787598, 0.2468143254518509, 0.005111282821337042, -0.44008779525756836, -0.3240039348602295]
[6.399999999999985, 0.5688847686825131, 4.944727420806885, 0.05153164640069008, -0.01043571279699542, -0.009360773026870087, 0.02432340121258534, 0.02303442341361209, 0.0, -0.0002959736216419322, 0.013839941945067297, 2.212399959564209, 0.24892152845859528, 0.005938690241576013, -0.4586380124092102, -0.3240281641483307]
[6.449999999999985, 0.5681972442340969, 4.949456691741943, 0.050364479422569275, -0.011604773323888224, -0.009645763278319406, 0.02400325635996204, 0.02338101346154007, 0.0, -0.0002133402951567106, 0.013641204038963406, 2.2276906967163086, 0.25079140067100525, 0.006595996307146537, -0.4772995710372925, -0.3230324387550354]
[6.499999999999985, 0.5677703279000857, 4.952653408050537, 0.04887327551841736, -0.011139281310961351, -0.009480096169319406, 0.02531846457499673, 0.023634089232090424, 0.0, -0.00023511154294258177, 0.014378145313487994, 2.23787784576416, 0.2518780827522278, 0.006326842729319604, -0.48976245522499084, -0.3219670057296753]
[6.549999999999985, 0.5672648691359455, 4.957294940948486, 0.04458313062787056, -0.012375691764410151, -0.009760114324328932, 0.024573932803351507, 0.02407579263135172, 0.0, -0.00020466488424066134, 0.013942735460051064, 2.253237724304199, 0.2550138831138611, 0.007022773938603108, -0.5084944367408752, -0.3209382891654968]
[6.5999999999999845, 0.5670122788073299, 4.960254669189453, 0.040552522987127304, -0.011700528683668025, -0.010059693931632412, 0.0255220154836543, 0.02409187999510274, 0.0, -0.00019368410579341072, 0.014474439049877746, 2.2635068893432617, 0.2571984529495239, 0.006636807603429558, -0.5205965042114258, -0.3193851709365845]
[6.649999999999984, 0.5665443478889175, 4.96528434753418, 0.03442154452204704, -0.013355334540769292, -0.010896040813624185, 0.023583122592135315, 0.024413863567633674, 0.0, -0.0002546618204607837, 0.01336336230755359, 2.2821547985076904, 0.26137855648994446, 0.0075689438781715995, -0.5424556732177734, -0.31701692938804626]
[6.699999999999984, 0.5663759248134073, 4.96730899810791, 0.031583260744810104, -0.011889936995110612, -0.011109217434439291, 0.025782914190907967, 0.024479945272015503, 0.0, -0.00023368991968593654, 0.014606058514017674, 2.289457321166992, 0.26236391067504883, 0.006736730443531472, -0.5509232878684998, -0.3157823383808136]
[6.749999999999984, 0.5660947872461879, 4.972095012664795, 0.022700993344187737, -0.0133918197121974, -0.011710080728876027, 0.024120395983268948, 0.024549976113537514, 0.0, -0.00025831568852292494, 0.013657079068462648, 2.3083667755126953, 0.2656669020652771, 0.007583698526279305, -0.5727757215499878, -0.312816321849823]
[6.799999999999984, 0.5660145046639453, 4.973849296569824, 0.01902240514755249, -0.01203695319614586, -0.011950770080162987, 0.026202875146926326, 0.024461737586446475, 0.0, -0.00026074307390388406, 0.014834602652376606, 2.315761089324951, 0.267037570476532, 0.006815758849932511, -0.5812301635742188, -0.3117350935935974]
[6.849999999999984, 0.5659496756013922, 4.976838111877441, 0.011418763548135757, -0.01257020189512587, -0.012223987625933195, 0.025360121326213746, 0.02475162726255672, 0.0, -0.0001981631612224222, 0.014355630109405743, 2.331735610961914, 0.27031877636909485, 0.007116764808452074, -0.59934002161026, -0.3086674213409424]
[6.8999999999999835, 0.5659556466072093, 4.978490829467773, 0.006437479984015226, -0.012172537904313899, -0.012290098174813104, 0.026628640371637226, 0.02468837167304091, 0.0, -0.00023147028643058254, 0.01507419250693355, 2.342463970184326, 0.27160951495170593, 0.006891900161047043, -0.6113723516464233, -0.3074384927749634]
[6.949999999999983, 0.5660612819271615, 4.9806742668151855, -0.001958858221769333, -0.013190435272611462, -0.012572437096918495, 0.02578927867855107, 0.02495596828173587, 0.0, -0.00033392291152894397, 0.014601549392011304, 2.358671188354492, 0.2748090922832489, 0.007469511560776423, -0.6293966174125671, -0.30563750863075256]
[6.999999999999983, 0.566116232318622, 4.982236385345459, -0.007582857273519039, -0.012734774134841732, -0.01253820346259953, 0.027487198390973834, 0.02503300449842969, 0.0, -0.00029764466139815414, 0.015564869379546972, 2.3677735328674316, 0.27621883153915405, 0.007212476610424241, -0.6410503387451172, -0.3043502867221832]
[7.049999999999983, 0.5662734714348591, 4.984081268310547, -0.015939956530928612, -0.013675677790595614, -0.012361227351999288, 0.027685324157519228, 0.02556328906472253, 0.0, -0.0003862134679856524, 0.015681471319824197, 2.3818888664245605, 0.2781631052494049, 0.0077476253546953575, -0.6585561037063599, -0.30254361033439636]
[7.099999999999983, 0.5664137327432452, 4.98490571975708, -0.020974621176719666, -0.01305996765053808, -0.01238647093853216, 0.029061347735536213, 0.025639550817355777, 0.0, -0.00039080226868590836, 0.016465382055405653, 2.3915820121765137, 0.280147522687912, 0.007400890660967191, -0.6702114939689636, -0.3006235361099243]
[7.149999999999983, 0.5666817790086883, 4.9857282638549805, -0.02837703377008438, -0.01368466200277683, -0.012753135637203174, 0.02876721513440381, 0.02632633613976373, 0.0, -0.0001520347298513008, 0.01630635502019783, 2.406513214111328, 0.28297749161720276, 0.0077585428085734515, -0.6876512169837952, -0.29779496788978577]
[7.199999999999982, 0.5669929466524873, 4.985625267028809, -0.03385287523269653, -0.013350487639902852, -0.012889514806854466, 0.029924949556492938, 0.02656721397637517, 0.0, -0.00012688837604218914, 0.016972301876797852, 2.4167208671569824, 0.28528401255607605, 0.00757347286334014, -0.6992390155792236, -0.29654914140701294]
[7.249999999999982, 0.567523672213753, 4.984980583190918, -0.041810303926467896, -0.014158055693745373, -0.013068967506739268, 0.02921747305492732, 0.02758585962709259, 0.0, -5.735882830972741e-05, 0.01658632756840485, 2.432394027709961, 0.2888091206550598, 0.008038999722362397, -0.7165852785110474, -0.2941444516181946]
[7.299999999999982, 0.5678672292155853, 4.984217166900635, -0.04594153165817261, -0.013566805364138294, -0.013173066107609429, 0.029851456455234977, 0.02777333719106715, 0.0, -5.252666047734493e-05, 0.01695670092335494, 2.443110466003418, 0.29232749342918396, 0.007708050980084875, -0.728093683719635, -0.2920423746109009]
[7.349999999999982, 0.5684336809278094, 4.9828290939331055, -0.05237181857228279, -0.014362608873346857, -0.013363636711808173, 0.028748103075120244, 0.028556409141399102, 0.0, -7.313593002240316e-05, 0.016345893338680056, 2.4595723152160645, 0.2964995205402374, 0.008168127113897368, -0.7452653050422668, -0.2895542085170746]
[7.399999999999982, 0.5686297440153607, 4.982716083526611, -0.0556802973151207, -0.013402011040094348, -0.01341835021820852, 0.03007153206455367, 0.02866954602146975, 0.0, -7.948166916788875e-05, 0.017104723807916222, 2.469649076461792, 0.2986683249473572, 0.007624685636474782, -0.7555025219917297, -0.28715506196022034]
[7.4499999999999815, 0.569042111765119, 4.981808662414551, -0.06066519021987915, -0.01351206675690064, -0.013702677832596773, 0.029489417704120915, 0.029108543261951884, 0.0, -2.7215394468827584e-05, 0.016785586533320004, 2.4852828979492188, 0.30211466550827026, 0.007692747637381002, -0.7709581851959229, -0.2838050127029419]
[7.499999999999981, 0.5693705560198801, 4.980546951293945, -0.06304730474948883, -0.012732521586809304, -0.013776085827777397, 0.030423564048352603, 0.029092831396844817, 0.0, -3.558711096666345e-06, 0.017327628020075564, 2.4960389137268066, 0.30496829748153687, 0.007253271208569313, -0.7813087701797485, -0.281651109457016]
[7.549999999999981, 0.5698398410515715, 4.978612422943115, -0.0660625547170639, -0.013315247938627931, -0.013614650780144533, 0.029393798443395198, 0.029234954597928492, 0.0, -5.5205354251442766e-05, 0.016754583004986667, 2.512633800506592, 0.3090723752975464, 0.007591286396987591, -0.7968976497650146, -0.2793605923652649]
[7.599999999999981, 0.5701264091709731, 4.977245807647705, -0.06735775619745255, -0.012644312464849887, -0.01352782918801569, 0.03002066465224845, 0.029280545576253966, 0.0, -0.0001146066707830186, 0.017120717341674703, 2.5239968299865723, 0.31245794892311096, 0.007212490516803179, -0.8073182106018066, -0.2772665321826935]
[7.649999999999981, 0.5705991280890831, 4.975093841552734, -0.06979601830244064, -0.013090139644997743, -0.013364500723213003, 0.028956917716854772, 0.029546621533591746, 0.0, -0.0001672741153940855, 0.016527411688187443, 2.541450023651123, 0.31612592935562134, 0.007472781675021037, -0.8229495882987976, -0.2743636965751648]
[7.699999999999981, 0.5708586619070213, 4.973622798919678, -0.07028137147426605, -0.012665167390882389, -0.013367311316777509, 0.029572472111807694, 0.029516107302356084, 0.0, -0.00012816285832445193, 0.01688662477226989, 2.5533416271209717, 0.31925466656684875, 0.007233569875500792, -0.8333688378334045, -0.2727759778499603]
[7.7499999999999805, 0.5720839500267109, 4.966654300689697, -0.07250340282917023, -0.015644344941434112, -0.01306796229501815, 0.020707936833155298, 0.029278804071666845, 0.0, -0.0002992333400305276, 0.011848371949779973, 2.5924313068389893, 0.32902365922927856, 0.00895252830570633, -0.8640967607498169, -0.26565077900886536]
[7.79999999999998, 0.5720839500267109, 4.966654300689697, -0.07250340282917023, -0.01311676085114295, -0.01306796229501815, 0.02558075233969721, 0.029278804071666845, 0.0, -0.0002992333400305276, 0.014637530793312911, 2.5924313068389893, 0.32902365922927856, 0.007506774723941331, -0.8640967607498169, -0.26565077900886536]
[7.84999999999998, 0.5724425247139878, 4.964395999908447, -0.07250829041004181, -0.012198365216018945, -0.013085890779120965, 0.026119011385953482, 0.02908846344203835, 0.0, -0.0003076078004851015, 0.014955033763902642, 2.604351043701172, 0.33249226212501526, 0.006985592012127652, -0.8726626038551331, -0.26375171542167664]
[7.89999999999998, 0.5726416354809064, 4.9630560874938965, -0.07225782424211502, -0.01080786410451683, -0.013039102440481535, 0.028044038483134994, 0.02896076879702158, 0.0, -0.00030204779783991144, 0.016063395399272318, 2.6127965450286865, 0.33466169238090515, 0.006191708599350525, -0.8786612749099731, -0.26231664419174194]
[7.94999999999998, 0.5729772035727727, 4.960118770599365, -0.06983441859483719, -0.010963510301089918, -0.013304021234866042, 0.02679131999861956, 0.027485755704465632, 0.0, -0.00029977873272249466, 0.015354489477313896, 2.631412982940674, 0.3383380174636841, 0.006284348413838271, -0.8919363617897034, -0.2597586512565613]
[7.99999999999998, 0.5731437262751236, 4.958227634429932, -0.06735429167747498, -0.010246491386205528, -0.01327135841924148, 0.027813781082170492, 0.02715212023544251, 0.0, -0.0002677776199850791, 0.015945406166163245, 2.6440603733062744, 0.34004008769989014, 0.0058751901853840716, -0.9009132385253906, -0.25781676173210144]
[8.04999999999998, 0.573434148315866, 4.955262660980225, -0.06401088088750839, -0.010931258881317846, -0.012070132814164188, 0.026458244046046776, 0.027031203689590944, 0.0, -0.0003240813225019005, 0.015175601975201083, 2.6633694171905518, 0.3435969054698944, 0.006270801586071455, -0.9145638942718506, -0.25629448890686035]
[8.09999999999998, 0.5736130258176809, 4.953408718109131, -0.061869826167821884, -0.01072044719605614, -0.011824112674064718, 0.02718318438580181, 0.027055326229160185, 0.0, -0.00030934893646766094, 0.015596470379447863, 2.6764705181121826, 0.3459030091762543, 0.006151896500699895, -0.923786997795105, -0.25542107224464417]
[8.14999999999998, 0.5737551536301555, 4.950839996337891, -0.05693983659148216, -0.011644896864882502, -0.01117056706830144, 0.02621256169517269, 0.027141951087681738, 0.0, -0.00026499360076504604, 0.015043037869320347, 2.6964080333709717, 0.34799930453300476, 0.006683917732896519, -0.937772274017334, -0.25413110852241516]
[8.199999999999982, 0.5737205875341137, 4.94974422454834, -0.05306871235370636, -0.010919248292726698, -0.011122678491817656, 0.027561463205254915, 0.027055016118367213, 0.0, -0.00029184850139159864, 0.015816584005916803, 2.7084529399871826, 0.34942546486854553, 0.006267226783151086, -0.9456982016563416, -0.2525422275066376]
[8.249999999999982, 0.573590331296125, 4.948465824127197, -0.046882133930921555, -0.011570248781018158, -0.01113293359550624, 0.027035199892209552, 0.02667900878536154, 0.0, -0.0001509629320260447, 0.015510908431816697, 2.727008581161499, 0.35140928626060486, 0.006639305188292262, -0.9579715728759766, -0.25153642892837524]
[8.299999999999983, 0.5735594903782371, 4.947531223297119, -0.04355515167117119, -0.011199467194975297, -0.011209828979107, 0.028575277610929553, 0.026548947039956906, 0.0, -0.00011627413278886702, 0.016394084084140156, 2.7396602630615234, 0.3519207239151001, 0.0064264528454925016, -0.9663941264152527, -0.2503935992717743]
[8.349999999999984, 0.5734475291458135, 4.945887088775635, -0.03663058951497078, -0.01270039632674241, -0.011119720660895227, 0.026667109396312325, 0.026807654686704378, 0.0, -0.00011887695663029731, 0.015295813959493837, 2.7629549503326416, 0.3544003367424011, 0.007285993009181001, -0.9819587469100952, -0.24915538728237152]
[8.399999999999984, 0.5733923436113805, 4.945375919342041, -0.03409925848245621, -0.01195031777746173, -0.011163850345055135, 0.02889899548629239, 0.026850544543140342, 0.0, -0.00015612668472397777, 0.01657507724279851, 2.7721011638641357, 0.35564613342285156, 0.006855409379715807, -0.9880436062812805, -0.24847528338432312]
[8.449999999999985, 0.5732553223663934, 4.944500923156738, -0.028975822031497955, -0.012942496361017321, -0.011641301269873172, 0.028030623395753955, 0.02711096198841731, 0.0, -0.0002031698278812878, 0.01607291385242826, 2.792111873626709, 0.3576924800872803, 0.007422685088772377, -1.0013811588287354, -0.24724356830120087]
[8.499999999999986, 0.5731433656892908, 4.944103717803955, -0.025725912302732468, -0.013056476606222228, -0.011730795413140137, 0.028932940865191735, 0.027118570812865592, 0.0, -0.00020645100200707072, 0.016587351872483988, 2.80566668510437, 0.35953882336616516, 0.007486791635761034, -1.0103968381881714, -0.24663573503494263]
[8.549999999999986, 0.5729251949741864, 4.943780422210693, -0.020721077919006348, -0.014708211796411534, -0.012246753703387328, 0.026398351161908126, 0.02750111804047771, 0.0, -9.388836247232152e-05, 0.015127794699977132, 2.8300740718841553, 0.3631560802459717, 0.008430250053677708, -1.0262235403060913, -0.24521443247795105]
[8.599999999999987, 0.5727949038505905, 4.943935394287109, -0.01875784806907177, -0.013488857281532943, -0.01231144741309705, 0.029074690626947793, 0.027590881335986948, 0.0, -6.45599289541562e-05, 0.016658528913850543, 2.8386082649230957, 0.3637664318084717, 0.007730084380377325, -1.0308047533035278, -0.2439068853855133]
[8.649999999999988, 0.5725582007739016, 4.944272041320801, -0.015353590250015259, -0.013800813529617347, -0.012834512319126171, 0.02839015022773832, 0.027944104385673803, 0.0, 3.091472352716938e-05, 0.016259381926197622, 2.8576440811157227, 0.3661889135837555, 0.007905456352811549, -1.0414674282073975, -0.242313414812088]
[8.699999999999989, 0.5723659985577411, 4.944531440734863, -0.012548212893307209, -0.013243672334367207, -0.013087939803139942, 0.02973239292254844, 0.027860502000176646, 0.0, 6.282240487799951e-05, 0.01702282720620983, 2.8706774711608887, 0.36733847856521606, 0.007584022897754755, -1.0488777160644531, -0.24057242274284363]
[8.74999999999999, 0.5720361635273657, 4.945104598999023, -0.008111175149679184, -0.013975255428856321, -0.01351918744144563, 0.02750758429946052, 0.027864967069667068, 0.0, -1.132174018660103e-06, 0.015739302995582516, 2.8947701454162598, 0.3704659342765808, 0.00799789767607615, -1.0627727508544922, -0.23754136264324188]
[8.79999999999999, 0.5719190250753124, 4.945352554321289, -0.00666624354198575, -0.013152627253771462, -0.013627031606716944, 0.029885670279470002, 0.027948171012017353, 0.0, 1.6019549646792707e-05, 0.017097273875194968, 2.904245138168335, 0.37138596177101135, 0.007526032247574872, -1.0681840181350708, -0.23634111881256104]
[8.84999999999999, 0.571600356506691, 4.946440696716309, -0.0039542056620121, -0.014848255142325843, -0.013482634858510815, 0.027518621789432696, 0.028516753469665708, 0.0, 0.00013678277113307445, 0.01573362578403424, 2.9292540550231934, 0.37429970502853394, 0.008491106565659663, -1.0827285051345825, -0.23537209630012512]
[8.899999999999991, 0.5714552677328836, 4.947001934051514, -0.0029133574571460485, -0.014447968219255885, -0.013504720200283702, 0.0298341217236488, 0.028476749365706676, 0.0, 0.00011785382800348458, 0.017053926074147435, 2.9390814304351807, 0.37521520256996155, 0.008260618094781298, -1.0884249210357666, -0.2349575012922287]
[8.949999999999992, 0.5710631719484855, 4.948698997497559, -0.0006319708190858364, -0.015763393026919016, -0.013619951335806782, 0.02706984650702051, 0.02847574351353988, 0.0, 5.3328989146668383e-05, 0.01546236941575252, 2.9644148349761963, 0.37909507751464844, 0.009005938376148513, -1.1029257774353027, -0.23271456360816956]
[8.999999999999993, 0.5707387795607046, 4.950207233428955, 0.0009484053589403629, -0.014599200461325536, -0.013800140559741462, 0.029812143238254277, 0.02841038670855209, 0.0, -1.2351100003602393e-05, 0.017019988797125712, 2.9731922149658203, 0.37967997789382935, 0.008336626251094242, -1.1070674657821655, -0.23106354475021362]
[9.049999999999994, 0.5701411279329974, 4.953573226928711, 0.0021294511388987303, -0.014723101602318274, -0.014432100497386604, 0.028426974547589353, 0.028339865222350945, 0.0, -1.576167991446091e-05, 0.01621175443534656, 2.9968650341033936, 0.3809557259082794, 0.008398245398913103, -1.1188889741897583, -0.22720278799533844]
[9.099999999999994, 0.5699237771609249, 4.954728126525879, 0.002762972377240658, -0.013714020233136988, -0.014577511346646036, 0.031038966013411468, 0.028280020464999483, 0.0, 3.0161576078793624e-05, 0.01769552784109643, 3.006178855895996, 0.3815731108188629, 0.007820202998635284, -1.1235170364379883, -0.2254340499639511]
[9.149999999999995, 0.5695263531779817, 4.957169055938721, 0.002951226430013776, -0.01430503684811982, -0.014647694322544065, 0.030197517802979867, 0.028542273983870516, 0.0, 4.1411602712146244e-05, 0.017203511744527264, 3.02675724029541, 0.3836527168750763, 0.008151367531321958, -1.134024739265442, -0.22369663417339325]
