time, uz, alt, vel_alt, uthe, roll, uphi, pitch, upsi, yaw, ux, pos_x, vel_x, uy, pos_y, vel_y, Fz, Fx, Fy
[0.0, 0.5089545616923997, 2.9438421726226807, 0.030898040160536766, 0.5268965295881205, -0.05710320552039357, -1.427429682549348, 0.01073216596155651, 0.0, -0.08423387957272833, 0.06711915282082577, 2.373812198638916, 0.19991284608840942, 0.03945169929418547, 2.8990530967712402, 0.10447660833597183, 1.7521863875153912e-09, -5.729200514161128e-07, -3.559759148648969e-11]
[0.05, 0.5098022502681895, 2.9457478523254395, 0.02947983704507351, 0.5264371204014722, -0.05623607809551364, -1.5432844380370712, 0.013414661297839836, 0.0, -0.0825085000981339, 0.06659964727667543, 2.3800368309020996, 0.2006589025259018, 0.038718434497792484, 2.893838405609131, 0.12201359122991562, 8.734306627371984e-10, -1.06600495970999e-06, -7.843729136126747e-11]
[0.1, 0.5257919295765775, 2.9488983154296875, 0.08293011784553528, -0.23430815805039626, -0.053349265205128865, 0.42570044180603156, -0.0009271960138330082, 0.0, -0.0808857703196218, 0.06636344481525094, 2.38848876953125, 0.19789449870586395, 0.03835841365170653, 2.8934059143066406, 0.1446007937192917, -2.534353529664832e-07, -1.5300241237071833e-06, -1.209505595524472e-10]
[0.15000000000000002, 0.5961957834148707, 2.9516212940216064, 0.1548178642988205, -0.04755648294696909, -0.048265124080317086, 0.08365376516115106, -0.05911075573441848, 0.0, -0.07701065651638175, 0.06698418135083585, 2.3903443813323975, 0.18683695793151855, 0.03815317746269035, 2.89194655418396, 0.15450048446655273, -1.956642593022656e-05, -1.8838730326907015e-06, -1.7213118008982043e-10]
[0.2, 0.6206813040415478, 2.9554827213287354, 0.14868323504924774, -0.036293210497292616, -0.03218172685265562, 0.07084652081659748, -0.12575358320287439, 0.0, -0.07140493067743632, 0.07279579276410834, 2.3899049758911133, 0.147862046957016, 0.03733939245365755, 2.887857437133789, 0.159040629863739, -3.728577365560097e-05, -2.330224680757464e-06, -2.2546489920175598e-10]
[0.25, 0.650230000706435, 2.9687163829803467, 0.3077569901943207, -0.033483670311817114, 0.10608549584834437, 0.073947117617258, -0.2367533153601854, 0.0, -0.051944735953515196, 0.09628105109496594, 2.3809924125671387, -0.07592903077602386, 0.04365267358750101, 2.8796613216400146, 0.1121305301785469, -0.0005357212649998083, -1.7689037359419606e-06, -2.979868577900999e-10]
[0.3, 0.6557882070779111, 2.981801748275757, 0.40567538142204285, -0.03654150753083083, 0.11687038849792428, 0.08137224830569559, -0.20185831089568618, 0.0, -0.04411919793162438, 0.11019065674931827, 2.3697285652160645, -0.19161398708820343, 0.04955958489363866, 2.874396562576294, 0.04636897146701813, -0.0019738842109729717, -1.4209848968444947e-06, -3.524309532035015e-10]
[0.35, 0.661562831442144, 3.008878707885742, 0.5641278624534607, -0.0410080566529087, 0.03350502842925954, 0.08532367141311857, -0.0582713205206011, 0.0, -0.01841594776874665, 0.12014452098198145, 2.3479719161987305, -0.27138808369636536, 0.05784612165805253, 2.864231824874878, -0.02117256447672844, -0.004473160058215674, -1.2878319547830183e-06, -4.1278833780499107e-10]
[0.39999999999999997, 0.6907958075780416, 3.0539238452911377, 0.7563173770904541, -0.038095646061009604, 0.013048408195521596, 0.07234646553505328, -0.004903423734247529, 0.0, -0.010254496255089823, 0.1214368034056936, 2.3205032348632812, -0.28677764534950256, 0.06403205395495395, 2.851635217666626, -0.05439822003245354, -0.005641622112414246, -1.480392058218238e-06, -5.203124494027889e-10]
[0.44999999999999996, 0.7228477230422508, 3.0750019550323486, 0.8292466998100281, -0.030809324561240484, 0.000819971033491228, 0.06316885319597675, 0.021370350847080815, 0.0, -0.006778883494038609, 0.12477748287455027, 2.3100225925445557, -0.2798263728618622, 0.060917449892210845, 2.8465726375579834, -0.0627121850848198, -0.002571814506158222, -2.1195489691440416e-06, -6.436271928444296e-10]
[0.49999999999999994, 0.7695584681638503, 3.1393165588378906, 1.0604703426361084, -0.02526514847172183, -0.012008291307303753, 0.051606542892370086, 0.04112801649965384, 0.0, -0.004268879579175455, 0.1242544000857316, 2.286128044128418, -0.2430313676595688, 0.06087150991040552, 2.8353116512298584, -0.0697430819272995, -0.0012085359758217161, -2.8387449928688578e-06, -7.756976683402777e-10]
[0.5499999999999999, 0.8869311108390363, 3.1689493656158447, 1.1770135164260864, -0.017004731451058398, -0.015990176134637876, 0.03511909125877392, 0.04686677756311083, 0.0, -0.003323098539836374, 0.12273540958902761, 2.2768988609313965, -0.22460617125034332, 0.059446668923897994, 2.8287417888641357, -0.07069205492734909, -4.511611823410098e-05, -4.8629097728468e-06, -9.968434770683568e-10]
[0.6, 0.8660522728487954, 3.2636208534240723, 1.5963006019592285, -0.018026630642683058, -0.017382865318081423, 0.03634186529354212, 0.047525625624672246, 0.0, -0.0016117725040123243, 0.11997707124150209, 2.2534196376800537, -0.17007865011692047, 0.05953169532245989, 2.8044321537017822, -0.07145694643259048, -2.697592683092575e-06, -6.9039206880176324e-06, -1.2576149813019221e-09]
[0.65, 0.8185675440734053, 3.3105416297912598, 1.8681979179382324, -0.020253667496316446, -0.015593016105071767, 0.04035020171673276, 0.0421005447082086, 0.0, -0.0005663134454227513, 0.11545633465620055, 2.2456536293029785, -0.14557071030139923, 0.05797663120265134, 2.795562982559204, -0.07025745511054993, -2.0130038751326363e-12, -1.2299142023818397e-05, -1.778977653396428e-09]
[0.7000000000000001, 0.7615938977100338, 3.4666714668273926, 2.5398201942443848, -0.024507610316857418, -0.012771620465998109, 0.04855860080617736, 0.03438234311751593, 0.0, 0.00030919525285574883, 0.11331667612459387, 2.230473041534424, -0.09486144036054611, 0.05722506266306519, 2.7771151065826416, -0.06778578460216522, -1.6631154844571562e-17, -1.7072668935478084e-05, -2.1922615331365895e-09]
[0.7500000000000001, 0.6406923018687236, 3.5394461154937744, 2.749807834625244, -0.04617537199433031, -0.012574917019740851, 0.0901353712803442, 0.03190325945659094, 0.0, 0.0009198178634937992, 0.10947366157440391, 2.225590467453003, -0.08042366057634354, 0.056198125931529994, 2.770352840423584, -0.06837170571088791, -1.514932140541897e-29, -2.5722067035791515e-05, -2.889631265625229e-09]
[0.8000000000000002, 0.6009760304962606, 3.6294825077056885, 2.958451271057129, -0.06523703502581182, -0.01275979519404327, 0.12667329860631188, 0.031483686064425115, 0.0, 0.001171280258936796, 0.1073815675924875, 2.2210803031921387, -0.06454120576381683, 0.0555287204717137, 2.7638206481933594, -0.06837804615497589, -5.600765709587014e-35, -3.2680795365087125e-05, -3.431008186450717e-09]
[0.8500000000000002, 0.5344939756846191, 3.838087797164917, 3.2367777824401855, -0.2165194308916907, -0.01622369706210861, 0.42795980143679097, 0.036196581786981694, 0.0, 0.0016701799105456453, 0.10355159742879079, 2.2133686542510986, -0.036433424800634384, 0.05488470081671286, 2.750779390335083, -0.06809408962726593, -2.462014758527731e-43, -4.356848405629969e-05, -4.313476270388592e-09]
[0.9000000000000002, 0.546998019169053, 4.068925857543945, 3.2612016201019287, -0.151240416873877, -0.028025189640059758, 0.288081019919928, 0.056930719497091026, 0.0, 0.0015926620826943105, 0.10160884001387063, 2.208545207977295, -0.0032060309313237667, 0.05450515434645332, 2.7396130561828613, -0.06603169441223145, -1.587502498333232e-44, -5.227608386154166e-05, -4.994046459502004e-09]
[0.9500000000000003, 0.5677619415858618, 4.259451866149902, 3.2136292457580566, -0.09795705712445876, -0.07154716019507158, 0.17900061274729903, 0.1302120589605773, 0.0, 0.001658233848089441, 0.09686251946903492, 2.2050435543060303, 0.04943666607141495, 0.05346270118538219, 2.722776412963867, -0.053442228585481644, -4.436115292318499e-45, -6.7662370454364e-05, -6.295024568075103e-09]
[1.0000000000000002, 0.591918164476733, 4.384729862213135, 3.173619270324707, -0.06770867788036455, -0.11201681446947873, 0.122233890477794, 0.20272443094436737, 0.0, 0.0004650320938712227, 0.09326708301438856, 2.204956293106079, 0.12003644555807114, 0.05187134233157811, 2.7109622955322266, -0.026065584272146225, -1.5335775169125081e-44, -8.286445307537307e-05, -7.857657078601074e-09]
[1.0500000000000003, 0.6777338681861045, 4.47169828414917, 3.151522636413574, -0.029890427522805636, -0.12846708094462916, 0.054773373544823444, 0.24249085303093024, 0.0, 0.0016345556822607882, 0.08523361225996272, 2.2069523334503174, 0.1840020716190338, 0.046550041672741564, 2.7038254737854004, -0.00035983254201710224, -7.423708574384782e-44, -0.00011532951251966764, -1.2075108273309476e-08]
[1.1000000000000003, 0.6335175413153117, 4.693526744842529, 3.1326565742492676, -0.034648967657907336, -0.11073939904428942, 0.06355931742299992, 0.22163007047034372, 0.0, 0.009411013262877077, 0.07285833777803898, 2.222069501876831, 0.35688069462776184, 0.03976093871125229, 2.693183422088623, 0.0722379982471466, -8.167171429712618e-44, -0.0001259887587937733, -1.4689047607618641e-08]
[1.1500000000000004, 0.6471276046780096, 4.780057430267334, 3.174879789352417, -0.025823227582298096, -0.0853405521141292, 0.05172678723733722, 0.1770116914577374, 0.0, 0.015509752922552468, 0.06579819857758411, 2.231415033340454, 0.42040473222732544, 0.03286996632817656, 2.69084095954895, 0.09847580641508102, -3.517468733084959e-46, -0.0001107869756949027, -1.8658943651834364e-08]
[1.2000000000000004, 0.5295552144371645, 5.008249282836914, 3.2623369693756104, -0.14420998249682637, -0.057476000735624914, 0.3022910913187165, 0.12107165341737373, 0.0, 0.018779815571513283, 0.056518687651754974, 2.2630105018615723, 0.527309000492096, 0.027569056731322886, 2.6904618740081787, 0.13960392773151398, -3.0309627061519304e-48, -9.521775102792437e-05, -1.9231920475135774e-08]
[1.2500000000000004, 0.41155165713565023, 5.098049640655518, 3.2866744995117188, 0.023353922785939264, -0.04595087206842913, -0.05747422254948472, 0.09443686676713624, 0.0, 0.018293748319784423, 0.05249840504123295, 2.2770822048187256, 0.5522825717926025, 0.021347692366600748, 2.6912479400634766, 0.14776156842708588, -2.839631884905507e-51, -6.662780816763391e-05, -1.8537755996925785e-08]
[1.3000000000000005, 0.33494371921068444, 5.330878257751465, 3.2799723148345947, 0.010792232107632586, -0.047151119831660225, -0.03186327954942755, 0.09021750827671872, 0.0, 0.015672808600671113, 0.051713175423231936, 2.3165366649627686, 0.5958640575408936, 0.017519122974642674, 2.6962296962738037, 0.15958794951438904, -1.0855125697246478e-52, -5.389042015730445e-05, -1.6459386409455954e-08]
[1.3500000000000005, 0.29724372479542094, 5.419497966766357, 3.2144224643707275, 0.004583351561165811, -0.06360577186901813, -0.026518404132494375, 0.11967826582813514, 0.0, 0.01445913415151943, 0.05230191702748965, 2.331540822982788, 0.6130144596099854, 0.009040809882834277, 2.6980602741241455, 0.16450126469135284, -2.7136802464478067e-51, -3.9020360820666886e-05, -1.3068041194957194e-08]
[1.4000000000000006, 0.2267188310846976, 5.63460111618042, 2.8978116512298584, 0.0017890113223672636, -0.046929785419437285, -0.018250076016518787, 0.10232507222334597, 0.0, 0.019057661193232128, 0.047919980047635195, 2.3681840896606445, 0.6459903120994568, 0.004697746867449101, 2.702681064605713, 0.16942840814590454, -3.2300327683864044e-48, -3.1629941828835975e-05, -9.448351769908312e-09]
[1.4500000000000006, 0.22806518588798752, 5.710516452789307, 2.72184419631958, 0.0001189740100737301, -0.025524440383719416, -0.01754791715844336, 0.06450604293342321, 0.0, 0.022665793289562194, 0.04585692068191714, 2.3830931186676025, 0.6482313871383667, 0.00031092361155815465, 2.704793691635132, 0.16521504521369934, -1.105299548104499e-40, -2.4024420456050106e-05, -5.400852083459201e-09]
[1.5000000000000007, 0.23603964431626973, 5.8824357986450195, 2.2071337699890137, -0.00036379011221178203, 0.0011673118596481858, -0.017933795431690353, 0.007389542599922061, 0.0, 0.025078894169715496, 0.04553994700845217, 2.4232780933380127, 0.6401944160461426, -0.0009238351863624877, 2.711341619491577, 0.147490993142128, -1.5969565727354154e-36, -2.0997336846414073e-05, -1.7879151323490482e-09]
[1.5500000000000007, 0.2784903660717585, 5.938919544219971, 1.9959825277328491, -0.0013624132725090748, 0.010779950255338396, -0.021284512534627733, -0.016137453179444646, 0.0, 0.025090105308769036, 0.045675613718065756, 2.4388434886932373, 0.633583664894104, -0.0029239006353736084, 2.71379017829895, 0.1396816074848175, -1.5467024245642585e-28, -1.6266438503460176e-05, 1.3232338097210346e-09]
[1.6000000000000008, 0.29206325330428645, 6.058386325836182, 1.4594992399215698, -0.0022659967633659544, 0.018608863705607704, -0.022950152324745572, -0.03953472251390208, 0.0, 0.023919873846149926, 0.04636372481265524, 2.4793593883514404, 0.6137248277664185, -0.004578159306552509, 2.720388174057007, 0.11871755868196487, -1.1740686965743617e-25, -1.4424114031229486e-05, 4.079436659046605e-09]
[1.6500000000000008, 0.29278259560626596, 6.094283103942871, 1.2648348808288574, -0.0033258619412564502, 0.01815792987423804, -0.02354187052673846, -0.04411606769407201, 0.0, 0.022764256706068114, 0.047402566236723155, 2.4948675632476807, 0.6047202944755554, -0.006697409010101866, 2.722785234451294, 0.11005182564258575, -1.4129073631397002e-21, -1.1262763238946877e-05, 6.128854916812967e-09]
[1.7000000000000008, 0.33649032500832565, 6.162618160247803, 0.7845055460929871, -0.0048631304126883585, 0.012685588396716465, -0.029824954042887687, -0.041513418469500095, 0.0, 0.02037612826488572, 0.047975366775557984, 2.5346672534942627, 0.5813986659049988, -0.007823881216997756, 2.728771686553955, 0.08858516067266464, -1.5092767074119455e-20, -1.0010466575158047e-05, 8.101115282050543e-09]
[1.7500000000000009, 0.35746233021127394, 6.179502487182617, 0.6004878282546997, -0.006940927302360903, 0.008355429287447778, -0.03439425776986247, -0.0375508749505267, 0.0, 0.018652025000905886, 0.04864300245348742, 2.5485076904296875, 0.5716747641563416, -0.009818486133558351, 2.731379747390747, 0.08149277418851852, -7.297209454199987e-20, -7.878284958431932e-06, 9.28123306533282e-09]
[1.800000000000001, 0.3564965561777032, 6.200403690338135, 0.1729075312614441, -0.007758777949062341, 0.0016654302978869268, -0.03463672188162472, -0.0309950651471019, 0.0, 0.01538854028166008, 0.049296337479798225, 2.57871675491333, 0.5452368259429932, -0.011045026193718607, 2.7395570278167725, 0.06600376963615417, -3.4901389588259974e-20, -7.228998574324021e-06, 1.059024778355e-08]
[1.850000000000001, 0.3086740352289271, 6.200679779052734, 0.022409027442336082, -0.007185937096451043, -0.001965851521912559, -0.026835606294336983, -0.029196184923386038, 0.0, 0.012964789230969515, 0.05008428701299419, 2.5902390480041504, 0.5348220467567444, -0.013413221549100478, 2.742603063583374, 0.06015806272625923, -7.577696929037645e-22, -6.008028889395541e-06, 1.1033606931035694e-08]
[1.900000000000001, 0.3447660214115653, 6.196532249450684, -0.1488189548254013, -0.00923807287639612, -0.003758586942530937, -0.03301522938758352, -0.0289387045809582, 0.0, 0.011483278400570927, 0.05057752098197533, 2.603919267654419, 0.523462176322937, -0.014155195069285725, 2.7456958293914795, 0.05338508263230324, -4.791773192540529e-23, -5.469270488465476e-06, 1.1893599914132613e-08]
[1.950000000000001, 0.28586711075576565, 6.169635772705078, -0.5302938222885132, -0.007801831632918132, -0.007749015002201779, -0.02451397989817453, -0.030222001152268526, 0.0, 0.00709596872948531, 0.05093220128943818, 2.632326126098633, 0.5006160736083984, -0.016211660665382703, 2.7519288063049316, 0.040554068982601166, -1.0180699189661531e-26, -4.463695471015637e-06, 1.2029963648853786e-08]
[2.000000000000001, 0.34459556532358887, 6.111836910247803, -0.9468953609466553, -0.01101769942231615, -0.009519001927475805, -0.0333842410778498, -0.030796151485843404, 0.0, 0.0039836309006231595, 0.05119600416903348, 2.6625590324401855, 0.47753819823265076, -0.01689988405778002, 2.757542133331299, 0.02786073088645935, -5.601711554988632e-29, -4.040049034225541e-06, 1.2655967397133606e-08]
[2.0500000000000007, 0.2963534617691551, 6.080822467803955, -1.1276620626449585, -0.00944959525891952, -0.010209779476562014, -0.02591823035588583, -0.030629288858838474, 0.0, 0.002085264130876321, 0.0513315634922477, 2.6740739345550537, 0.47000983357429504, -0.018717761350364074, 2.7595889568328857, 0.022898763418197632, -2.839548335990996e-35, -3.2530518768181705e-06, 1.2606961437218546e-08]
[2.1000000000000005, 0.3832465959644853, 5.979099750518799, -1.570078730583191, -0.016143043757172692, -0.010648920575334047, -0.04311040941173172, -0.02939958471296514, 0.0, -0.00043163930798672585, 0.0506753745167196, 2.7038466930389404, 0.44968557357788086, -0.01898333461385274, 2.763890027999878, 0.010827865451574326, -5.696722954421197e-40, -2.854937350114801e-06, 1.292729239305839e-08]
[2.1500000000000004, 0.4343013268150952, 5.931509494781494, -1.746803879737854, -0.02980112862105577, -0.011100003522339745, -0.07271894480607094, -0.029216932510036018, 0.0, -0.001766371025837089, 0.051107934534855695, 2.7145073413848877, 0.4422188103199005, -0.020969346476528962, 2.766507625579834, 0.007072161883115768, -8.465037566469159e-48, -2.3546894594977467e-06, 1.2848694276744025e-08]
[2.2, 0.45642993770491525, 5.871997356414795, -1.9451576471328735, -0.044236995747457236, -0.01130823402460036, -0.10304459906026583, -0.02898752215969782, 0.0, -0.002277192185940938, 0.05134218773991795, 2.725607395172119, 0.4330226182937622, -0.022094644879795726, 2.7710013389587402, 0.00412273732945323, -1.3079030911193053e-52, -2.153227050029415e-06, 1.2911964948038445e-08]
[2.25, 0.50315425155489, 5.727347373962402, -2.2642822265625, -0.2857801057137796, -0.014426903421658482, -0.6840973963631397, -0.03396733039036725, 0.0, -0.003934272064340987, 0.05173804692685924, 2.7486510276794434, 0.4097609221935272, -0.024054513027080705, 2.7801811695098877, -0.0020027789287269115, -7.171570833560619e-61, -1.7857583611015687e-06, 1.2227702125930257e-08]
[2.3, 0.5089452582523131, 5.652355194091797, -2.386408567428589, -0.44077626145013243, -0.01670946092840783, -1.3855628884445133, -0.03855103713872316, 0.0, -0.004185545528671252, 0.052168161415474146, 2.7595763206481934, 0.39662882685661316, -0.025037554440277048, 2.783625841140747, -0.004290164448320866, -3.9503787203845125e-64, -1.6325876509051326e-06, 1.2295670968328592e-08]
[2.3499999999999996, 0.5004722496256213, 5.48332405090332, -2.483708143234253, -0.2619490034239236, -0.04368947710173957, -0.5572095867399229, -0.1183362687938864, 0.0, -0.004850849106084357, 0.05501898805083311, 2.781426191329956, 0.3483753800392151, -0.027894402866242025, 2.7908835411071777, -0.0013634697534143925, -7.279926279828661e-66, -1.363768938462131e-06, 1.2097448646968842e-08]
[2.3999999999999995, 0.48337291183582815, 5.403050899505615, -2.50148606300354, -0.11930887798203789, -0.0686522119182893, -0.23764218186363623, -0.18312890940354826, 0.0, -0.0048544130907185595, 0.0597747988845222, 2.790492534637451, 0.29569506645202637, -0.030438996417051046, 2.793937921524048, 0.008876143023371696, -9.438735500874028e-66, -1.2512319133214763e-06, 1.2641641264954619e-08]
[2.4499999999999993, 0.44745847140914363, 5.227850437164307, -2.5874745845794678, -0.06601787485371904, -0.26369790778308816, -0.12427332080036144, -0.485587980302151, 0.0, 0.0089294680786358, 0.07240628070811035, 2.8016467094421387, 0.07120537012815475, -0.03861978889852676, 2.803046941757202, 0.09459281712770462, -5.008033354563632e-66, -1.0398984176927248e-06, 1.3410179227329768e-08]
[2.499999999999999, 0.5132037181436475, 5.143840789794922, -2.608217716217041, 0.5042664410409712, -0.30174435537703365, 1.2738236655878703, -0.5241495380721913, 0.0, 0.008799588871637976, 0.09702579742705196, 2.800442934036255, -0.09828125685453415, -0.0559952876149741, 2.8098511695861816, 0.18039058148860931, -1.1609949414527024e-66, -5.069908500538814e-07, 1.7794674626896843e-08]
[2.549999999999999, 0.5056539782615483, 4.960772514343262, -2.7518367767333984, -0.5601861147646848, -0.3210546367801339, -1.2235493813613758, -0.4700609786569049, 0.0, -0.06280459718649917, 0.11129489860496691, 2.781337261199951, -0.38567206263542175, -0.0742360589076111, 2.8349626064300537, 0.3667982518672943, -2.687191782289464e-69, -1.3969114279318838e-07, 1.67915596250763e-08]
[2.5999999999999988, 0.6047104750082932, 4.871396064758301, -2.824239730834961, 0.10336775408143128, -0.28326829295018685, 0.14379504917102293, -0.4305472417808164, 0.0, -0.08719012355395513, 0.1270971477120903, 2.766470432281494, -0.4815836548805237, -0.09200793863800302, 2.8526535034179688, 0.4396045506000519, -9.83565907591502e-71, -8.342532689764424e-08, 1.4574693992786336e-08]
[2.6499999999999986, 0.6468674298890665, 4.6778788566589355, -2.8262956142425537, 0.08906123661115588, -0.011850386357403622, 0.11090735681228181, -0.23634821227546685, 0.0, -0.1625345489807613, 0.1412642578347928, 2.7260665893554688, -0.650975227355957, -0.11397293955974884, 2.8962526321411133, 0.5325977802276611, -3.4043926221812624e-69, -3.123348299317816e-08, 8.872224207218476e-09]
[2.6999999999999984, 0.6652398413432586, 4.473952770233154, -2.926868438720703, 0.08415374435059322, 0.16296171238240534, 0.10123790598521204, -0.20349855967150857, 0.0, -0.17280382103684053, 0.14615700619712887, 2.6734721660614014, -0.7779618501663208, -0.12198851347739398, 2.9414310455322266, 0.4804410934448242, -4.426634624991837e-69, -2.2802963902777735e-08, 7.69792156701881e-09]
[2.7499999999999982, 0.7771351073487442, 4.39324426651001, -2.9117937088012695, 0.052359479658140626, 0.17769075645592328, 0.06228584430948745, -0.1292544783202943, 0.0, -0.15421426722077491, 0.1544075302148148, 2.650686740875244, -0.8283411264419556, -0.13000271350750145, 2.957188129425049, 0.42873892188072205, -1.2845111884360374e-69, -1.1353152983847616e-08, 6.04804998504782e-09]
[2.799999999999998, 0.8068890054644209, 4.1909098625183105, -2.7651615142822266, 0.04780231582355049, 0.11544543208576695, 0.056342679937815145, -0.015501635616229, 0.0, -0.11625862539074089, 0.15519493260503267, 2.588406562805176, -0.8712001442909241, -0.13184077531633653, 2.989258050918579, 0.29809239506721497, -1.7702333361881667e-66, -1.0137317334460816e-08, 5.3433340066039735e-09]
[2.849999999999998, 0.8163815904328624, 4.116278171539307, -2.6344313621520996, 0.04923260923881098, 0.09081112796123289, 0.05323664722434483, 0.026335411665675892, 0.0, -0.09465352190009423, 0.15131080547210887, 2.5640881061553955, -0.8596016764640808, -0.14010974675839138, 2.9992892742156982, 0.2514963448047638, -3.227029202009075e-59, -1.725865634393685e-08, 4.221919922484196e-09]
[2.8999999999999977, 0.8112707112473586, 3.944304943084717, -2.1879491806030273, 0.04995499326014972, 0.0689332910652788, 0.05278543762627698, 0.038732471746312794, 0.0, -0.07509913491602317, 0.14752332265455642, 2.504143476486206, -0.8033309578895569, -0.13979403257742498, 3.0183067321777344, 0.14328381419181824, -1.2461552761998623e-53, -2.7608056620988172e-08, 3.7250539678197527e-09]
[2.9499999999999975, 0.7581902551579615, 3.886594295501709, -1.9900492429733276, 0.06158479388474894, 0.057967609037583266, 0.06142333628535887, 0.041796486124879136, 0.0, -0.06411282836279111, 0.14146558717097837, 2.4815821647644043, -0.7798479199409485, -0.14210637182278887, 3.022707223892212, 0.10690473020076752, -2.9804389321881653e-41, -7.655220113268743e-08, 2.8158916385854874e-09]
[2.9999999999999973, 0.7411715855390593, 3.763908624649048, -1.4744411706924438, 0.06779612274172389, 0.050284467107469005, 0.0648386261425177, 0.04342832714371266, 0.0, -0.05073551590565599, 0.13911164199201823, 2.4250621795654297, -0.7177488803863525, -0.14578235812741955, 3.025102138519287, 0.022523025050759315, -1.4565620335852424e-35, -1.2306930482699225e-07, 2.5673534144368234e-09]
[3.049999999999997, 0.7287176522737338, 3.7257957458496094, -1.3027294874191284, 0.0719787657437806, 0.0477521263869296, 0.06637778655907026, 0.043994718465176504, 0.0, -0.04338539282973476, 0.1347507275806481, 2.4043867588043213, -0.6947513222694397, -0.14648145280989988, 3.024616241455078, -0.006296348758041859, -8.620891500465403e-25, -3.145748609262211e-07, 2.1157952595566834e-09]
[3.099999999999997, 0.7077691329600845, 3.647780179977417, -0.9145125150680542, 0.07832247343354036, 0.04993981298339168, 0.07182118048287507, 0.04828652418487484, 0.0, -0.034039756044396526, 0.13186960692120472, 2.3547616004943848, -0.6363344788551331, -0.14422525644498144, 3.020423173904419, -0.07563023269176483, -4.4215459851015336e-21, -4.7100463820943314e-07, 1.9577614858397727e-09]
[3.149999999999997, 0.7328569541645816, 3.624446153640747, -0.7787277102470398, 0.06788524748968232, 0.05359935994760748, 0.0616743732179199, 0.051578466817514684, 0.0, -0.02883159519647453, 0.12754636782979942, 2.3367249965667725, -0.6124383807182312, -0.14069607049391414, 3.017550230026245, -0.10306679457426071, -4.40568009685615e-15, -1.0786054203585547e-06, 1.6465310346178044e-09]
[3.1999999999999966, 0.7669139813285555, 3.602302074432373, -0.6293407082557678, 0.058166450128463915, 0.05565372509410043, 0.05253513176328825, 0.0531741739102523, 0.0, -0.026123911023929323, 0.12520549514482543, 2.3171286582946777, -0.5842735171318054, -0.13884686827811618, 3.0134549140930176, -0.13435080647468567, -6.922957482902688e-13, -1.5754513633521707e-06, 1.5201206041881682e-09]
[3.2499999999999964, 0.8053933137402891, 3.570594549179077, -0.31038564443588257, 0.048121317922536766, 0.05990828785249921, 0.04391337004496899, 0.056236233911462194, 0.0, -0.018864408844702227, 0.12029920054592748, 2.278761148452759, -0.5218336582183838, -0.13197099298364345, 3.0015816688537598, -0.20420528948307037, -4.571134752520497e-09, -3.4085716731849034e-06, 1.2559054272021734e-09]
[3.2999999999999963, 0.8060364533035822, 3.5643951892852783, 0.15836167335510254, 0.04693918600609961, 0.056087014090834705, 0.04284497464599081, 0.052230013423970496, 0.0, -0.015245861029799409, 0.11762427653183374, 2.2434229850769043, -0.45107394456863403, -0.12899849146718043, 2.983992576599121, -0.28393682837486267, -2.282535798665011e-07, -4.870790576671207e-06, 1.1350574196387503e-09]
[3.349999999999996, 0.8273451570185273, 3.5723884105682373, 0.37698042392730713, 0.04266882974816768, 0.05203464257536118, 0.038754504573944006, 0.04814394080337493, 0.0, -0.013585635355388722, 0.11404010005032941, 2.231602668762207, -0.42338505387306213, -0.12566621214243334, 2.9749908447265625, -0.3141399621963501, -7.664390340604026e-05, -9.757637245705106e-06, 9.19521899129739e-10]
[3.399999999999996, 0.7154138836131466, 3.6227896213531494, 0.626708447933197, 0.06290255499700069, 0.04687151286903057, 0.057682591258313584, 0.04243378568587314, 0.0, -0.010892151592422107, 0.10993668269425433, 2.206430673599243, -0.39332157373428345, -0.12011032462205669, 2.9457428455352783, -0.34725841879844666, -0.00012250869808968183, -1.3076363018376777e-05, 8.561357142340743e-10]
[3.4499999999999957, 0.5986722539908689, 3.653301477432251, 1.170951008796692, 0.13907248951573944, 0.04433526962421728, 0.12795040758565024, 0.039741876363859535, 0.0, -0.009653608529555524, 0.10572909904700215, 2.1979143619537354, -0.3341277241706848, -0.11598246991709792, 2.9331812858581543, -0.41256460547447205, -1.2272214505613706e-06, -2.2333678540514027e-05, 7.542343248221411e-10]
[3.4999999999999956, 0.5476558369756701, 3.75643253326416, 1.5919705629348755, 0.30626196630498137, 0.04282353065607092, 0.28965759875439834, 0.03790570253619474, 0.0, -0.008016916088937183, 0.10401423675121338, 2.178276300430298, -0.2855416536331177, -0.11515284210516144, 2.898808002471924, -0.46842604875564575, -1.5202502175892477e-08, -2.7931496219669136e-05, 7.26474026388366e-10]
[3.5499999999999954, 0.5486104212809692, 3.801980495452881, 1.6475861072540283, 0.30320577823662614, 0.051246364110182095, 0.2789885439591251, 0.04498865930408959, 0.0, -0.0068644387842025124, 0.1025070830219013, 2.171538829803467, -0.27057182788848877, -0.11645426034999515, 2.884589195251465, -0.48645395040512085, -2.1164315359602552e-11, -4.036059206717346e-05, 7.214595816458121e-10]
[3.599999999999995, 0.5246394033582722, 3.9217545986175537, 1.6540871858596802, 0.5891127565626061, 0.10000010567762749, 0.6367628476697147, 0.08726524852387692, 0.0, -0.0046481923601288545, 0.10033716399579186, 2.1560347080230713, -0.21979784965515137, -0.11276981234621676, 2.8460445404052734, -0.5477967262268066, -7.122034763569117e-12, -4.846959251772208e-05, 7.119970965547533e-10]
[3.649999999999995, 0.5669922832661437, 3.9673168659210205, 1.6298624277114868, 0.19207163661731186, 0.16012321708606483, 0.17990463786993416, 0.14019715969723895, 0.0, -0.0012157927559170122, 0.09606508297884278, 2.1512579917907715, -0.1877252459526062, -0.10440438181217894, 2.82971453666687, -0.5861186981201172, -6.9274996554878004e-12, -7.523262314230512e-05, 5.601454384433194e-10]
[3.699999999999995, 0.6319201037153281, 4.081172943115234, 1.5614508390426636, 0.08787042725610306, 0.27293698057111293, 0.08276317072638144, 0.24157045174283368, 0.0, 0.008520747771931793, 0.0937328147234732, 2.1442503929138184, -0.05190664157271385, -0.09988791972440039, 2.7817130088806152, -0.7408663630485535, -7.731278552871215e-12, -0.00010111353934160881, 4.1282812370644444e-10]
[3.7499999999999947, 0.6289228126377089, 4.12416410446167, 1.5524951219558716, 0.0749994545784074, 0.3739407157441944, 0.08135473325880313, 0.3198819699692083, 0.0, 0.01606287341499686, 0.08986563441408753, 2.1457457542419434, 0.037391893565654755, -0.08309281274686187, 2.759291172027588, -0.8413068652153015, -9.539653133462729e-12, -0.0001971895802034389, 9.863724374865403e-11]
[3.7999999999999945, 0.6337364542945552, 4.23331880569458, 1.5560452938079834, 0.050172563166163885, 0.3584380080531933, 0.062378885295116114, 0.2998170516909695, 0.0, -0.021494881748402476, 0.07162837719019638, 2.1651201248168945, 0.29212701320648193, -0.05769791305067248, 2.6865506172180176, -1.1556315422058105, -7.886671195778286e-12, -0.0002547114728568135, 2.093048979672787e-11]
[3.8499999999999943, 0.6506268176073357, 4.276576042175293, 1.5833572149276733, 0.03015683427963481, 0.2719028623817676, 0.04783377112927679, 0.25725336704782925, 0.0, -0.04743069195712896, 0.06239074967665233, 2.1773245334625244, 0.37594205141067505, -0.03936122834682608, 2.652339220046997, -1.260859489440918, -8.714310149079089e-13, -0.00024072689571086726, 1.4457023416052507e-12]
[3.899999999999994, 0.5854171145543908, 4.391882419586182, 1.6655311584472656, 0.025083000485069434, 0.16303929441144818, 0.06694404005149081, 0.18280076987996477, 0.0, -0.06889340218524508, 0.04686162013822294, 2.2163877487182617, 0.5338654518127441, -0.017575204670429785, 2.5542333126068115, -1.4327186346054077, -1.9862974736002214e-13, -0.0001984488318027517, 5.54096461706377e-13]
[3.949999999999994, 0.5593995287408596, 4.438410758972168, 1.7056479454040527, -0.0014324436164752617, 0.12842382057888754, 0.08229124011128545, 0.1487249599674723, 0.0, -0.07004795093048839, 0.0377610720436218, 2.234199047088623, 0.5771112442016602, 0.0006580498814581085, 2.51340651512146, -1.4765981435775757, -5.624026060004105e-15, -0.00011888548162824655, 1.8063334104721574e-13]
[3.999999999999994, 0.47738965555954777, 4.4931535720825195, 1.741434097290039, 0.023280570117500104, 0.1095831253632251, -0.09258614392662612, 0.1297243464583972, 0.0, -0.0681439222227183, 0.0280627901177256, 2.255399465560913, 0.6146095991134644, 0.007067691534757476, 2.46549654006958, -1.5142635107040405, -1.0752978265023554e-15, -9.090410160989457e-05, 1.4511835432499032e-13]
[4.049999999999994, 0.44249399970974146, 4.609548091888428, 1.7131062746047974, 0.02425393831571801, 0.06668287842077691, -0.03578195380660345, 0.09694711357709093, 0.0, -0.05466060885116532, 0.02239638154605755, 2.303462505340576, 0.6645765900611877, 0.015187067538499683, 2.361006021499634, -1.5591241121292114, -5.770263709859162e-16, -5.485002303545922e-05, 1.5746422056383783e-13]
[4.099999999999993, 0.40578570956730065, 4.663208484649658, 1.6681939363479614, 0.025159788023922738, 0.0557456390699644, -0.01655331096650499, 0.09360415257346989, 0.0, -0.04953390935297019, 0.01598960902284979, 2.3267152309417725, 0.6819494366645813, 0.024309242963790705, 2.3110575675964355, -1.5706299543380737, -1.0016789508970914e-15, -4.296865463206911e-05, 1.8973205065918556e-13]
[4.149999999999993, 0.40555107817909425, 4.770316123962402, 1.478859305381775, 0.03741017337995282, 0.04119929394439533, -0.008711739671363286, 0.03671617609005651, 0.0, -0.0341688520117062, 0.008433461421308549, 2.379978895187378, 0.7026541233062744, 0.03623254626989331, 2.2058322429656982, -1.5820221900939941, -2.5315703446170508e-14, -2.660709383526608e-05, 3.37652873776239e-13]
[4.199999999999993, 0.41956945978685617, 4.817933082580566, 1.3577839136123657, 0.050025444256365834, 0.04109789715497077, -0.005800956999715403, 0.020542760682799047, 0.0, -0.03053630113546614, 0.004861896038276678, 2.410816192626953, 0.7056589722633362, 0.041962553113698495, 2.159984827041626, -1.5820719003677368, -1.6095362224355986e-13, -2.0563823713000914e-05, 4.653361040118323e-13]
[4.249999999999993, 0.47313148782745834, 4.904223918914795, 1.0611509084701538, 0.16190252510170444, 0.04311327155833738, -0.0005421448170417444, -0.009993007846542598, 0.0, -0.018068910821863727, 0.0001852494767337774, 2.4756476879119873, 0.6997877955436707, 0.05581016957759767, 2.0622899532318115, -1.5815765857696533, -4.631092415978294e-12, -1.2545886622733967e-05, 9.069372201797731e-13]
[4.299999999999993, 0.5124887783822121, 4.944658279418945, 0.8861312866210938, -1.2173059381891105, 0.04402359970302233, -0.01262778999670524, -0.011220613047908962, 0.0, -0.01523896082381466, -0.00029128806259458816, 2.51194167137146, 0.6934801340103149, 0.06251632340252271, 2.003917694091797, -1.58284592628479, -1.3652825581447449e-11, -9.522177527391121e-06, 1.2939581073811917e-12]
[4.3499999999999925, 0.5409638687889937, 4.992462158203125, 0.6813716292381287, -0.23988102460187488, 0.06524082581172425, 0.0014727292070112377, -0.004182079985543944, 0.0, -0.005598253899673078, 0.0004226340244759006, 2.5644497871398926, 0.6824858784675598, 0.07019100934266842, 1.915385127067566, -1.588768720626831, -1.8014468917796567e-11, -6.396626327823838e-06, 2.024947843234877e-12]
[4.399999999999992, 0.549269362751029, 5.014011383056641, 0.664675235748291, -0.21177063676576519, 0.07497958295004287, -0.0024109836239955104, -0.0014511380896280826, 0.0, -0.0037216766383637123, -0.0008774754627253234, 2.591233968734741, 0.6767511963844299, 0.07824704192578577, 1.8673274517059326, -1.6017085313796997, -1.373350969894902e-11, -5.193183267889153e-06, 2.1653539944041467e-12]
[4.449999999999992, 0.5068507034927227, 5.061553478240967, 0.7078835368156433, 1.227641113678231, -0.1353681877799815, 0.06904814284356921, 0.0019039172646527997, 0.0, -0.0019820352217306556, -0.002018564052992648, 2.647245407104492, 0.6642913222312927, 0.08188677169381901, 1.7647526264190674, -1.5684363842010498, -6.383483038635031e-12, -3.3451978451738936e-06, 6.712027786711057e-12]
[4.499999999999992, 0.4762732981217843, 5.0844244956970215, 0.71044921875, 0.2467494351358973, -0.17202964341500124, 0.010085139970773031, 0.002880631350009243, 0.0, -0.00213503227503682, -0.0031525105846057313, 2.6723265647888184, 0.6586546897888184, 0.07873713389036704, 1.7178574800491333, -1.5066416263580322, -4.5721844262764214e-12, -2.7331580798502182e-06, 2.333939699324021e-11]
[4.549999999999992, 0.41104533391107256, 5.132605075836182, 0.703578770160675, 0.07748197715721518, -0.14897581007206295, 0.008095362720691527, 0.009622514467737694, 0.0, -0.0029363070426005984, -0.007424515232235213, 2.7267496585845947, 0.6496832370758057, 0.0712045156952562, 1.6268317699432373, -1.3627315759658813, -2.3228144661300244e-12, -1.734331237521885e-06, 3.157015043876658e-10]
[4.599999999999992, 0.3885694753998207, 5.18539571762085, 0.6111738681793213, 0.06108867160144487, 0.05494643212438443, 0.009582317413323545, 0.02448960505305446, 0.0, -0.004796842517718085, -0.010784443556801807, 2.792522668838501, 0.6555826663970947, 0.06883910648464174, 1.5463229417800903, -1.3168052434921265, -1.7208628704670709e-12, -1.3266639561741818e-06, 6.058741885321917e-10]
[4.6499999999999915, 0.3617978767916421, 5.203101634979248, 0.5353066325187683, 0.05171334051826123, 0.1367807106746757, 0.010746352966065253, 0.028755023610178853, 0.0, -0.005655600805992694, -0.014761084628218178, 2.8179409503936768, 0.6597169637680054, 0.0710976920272362, 1.5147796869277954, -1.334459900856018, -8.960911951577089e-13, -7.330241160512969e-07, 4.5183858167256907e-10]
[4.699999999999991, 0.3856529333252935, 5.234780311584473, 0.24200387299060822, 0.06786716393281612, 0.13270827236419983, 0.015478602415523094, 0.026471934002904964, 0.0, -0.00742616439480887, -0.017839718644619355, 2.8798677921295166, 0.6643601059913635, 0.07834310788651729, 1.4281296730041504, -1.3833880424499512, -4.895519200003268e-13, -5.61475387245642e-07, 9.513022062497963e-11]
[4.749999999999991, 0.4363931969184749, 5.240664005279541, 0.10083990544080734, 0.12660490706864666, 0.11140592131197158, 0.029811408214130444, 0.02457997234428792, 0.0, -0.008013875850281772, -0.020343007273639063, 2.9037704467773438, 0.6644477248191833, 0.08687136706009492, 1.3934528827667236, -1.3956012725830078, -2.3966009624019275e-14, -3.207079366319757e-07, -4.4688201644709586e-10]
[4.799999999999991, 0.47477315780362256, 5.242143154144287, -0.059035856276750565, 0.270569212184308, 0.09755566517144658, 0.0668669336014746, 0.023468451519312733, 0.0, -0.008138739884459368, -0.02186347012612904, 2.929882764816284, 0.6639227867126465, 0.09075958255782082, 1.352489948272705, -1.4071154594421387, -2.316501116927386e-15, -2.4940883497009414e-07, -1.0366704681420462e-09]
[4.849999999999991, 0.5507788102636834, 5.227850437164307, -0.364516019821167, -0.25088295604429395, 0.07884208518176448, -0.06795416567743622, 0.022716468462090113, 0.0, -0.007308646603328678, -0.02572206743292537, 2.984732151031494, 0.6607939004898071, 0.09708302585671202, 1.2641651630401611, -1.4254698753356934, -5.82208974841221e-18, -1.46701663415593e-07, -2.6311033015003604e-09]
[4.899999999999991, 0.5713465555491353, 5.192986488342285, -0.5438604950904846, -0.1727546429755597, 0.11997256197924619, -0.04770810428570476, 0.03257999801745922, 0.0, -0.005478716486717284, -0.027145511989243972, 3.0401527881622314, 0.660950243473053, 0.09932328872820764, 1.1671295166015625, -1.4620027542114258, -5.111683235833382e-19, -1.1479045288901454e-07, -4.3812332372214024e-09]
[4.94999999999999, 0.570323546698858, 5.178010940551758, -0.5186692476272583, -0.18940169084487504, 0.10705887396712827, -0.05227973387256397, 0.03053246562284857, 0.0, -0.007077818167789853, -0.02925513998599923, 3.063187837600708, 0.66646409034729, 0.10732170813341846, 1.1299989223480225, -1.491212010383606, -2.1997243378902305e-19, -6.524645889558077e-08, -5.562198944119558e-09]
[4.99999999999999, 0.5524877164043714, 5.143284797668457, -0.4853678345680237, -0.2707974386849864, -0.03765446603671767, -0.07485293326702594, -0.003537002053825908, 0.0, -0.013633006716307428, -0.029530473615594004, 3.126842975616455, 0.664126455783844, 0.10962586500722686, 1.0378838777542114, -1.4854087829589844, -4.1363667877788093e-19, -3.39077966556746e-08, -1.4377327769784858e-08]
[5.04999999999999, 0.5338246146354778, 5.130152702331543, -0.485790491104126, -0.457024641170073, -0.09402659620331379, -0.12794405167683814, -0.02124655262832193, 0.0, -0.01519217386769414, -0.028406050625289257, 3.1510283946990967, 0.6550142765045166, 0.1094761006149003, 1.0025629997253418, -1.4553730487823486, -1.0955507973187415e-18, -2.6976295231332865e-08, -3.599615595423119e-08]
[5.09999999999999, 0.5177961684382703, 5.11484956741333, -0.49359220266342163, -0.9306458673200827, -0.1116713941122646, -0.36098676995594886, -0.028434581113568343, 0.0, -0.015344900786002709, -0.02727837709450408, 3.1769838333129883, 0.6420519948005676, 0.10369889790108797, 0.9620228409767151, -1.4136637449264526, -1.1058500787598685e-18, -2.1222392658806506e-08, -1.1092419884563633e-07]
[5.14999999999999, 0.514037364796415, 5.079624652862549, -0.5502547025680542, -1.1142815157932908, -0.18975737540076598, -0.6471141414029419, -0.051626952301811475, 0.0, -0.012902512380998162, -0.028275537477797996, 3.2300209999084473, 0.6089368462562561, 0.09549741879959797, 0.8802205324172974, -1.3095709085464478, -3.74575721611444e-19, -1.304673520985504e-08, -1.1633822750814421e-06]
[5.1999999999999895, 0.5174044360353559, 5.061614990234375, -0.5746095776557922, -0.8813562309761988, -0.24388109131385255, -0.4003044327576246, -0.0672440964328396, 0.0, -0.010702505455888607, -0.029038523350382307, 3.252997636795044, 0.5862445831298828, 0.09038785224898463, 0.843440592288971, -1.2394789457321167, -2.387449140335519e-19, -1.0704539307066507e-08, -6.017524062346635e-06]
[5.249999999999989, 0.5578250878538662, 5.018895626068115, -0.6939567923545837, -0.1617343302271016, -0.5656947741930884, -0.06454382097196396, -0.1813025786171235, 0.0, 0.014239656105737346, -0.02864838450384102, 3.2979772090911865, 0.5020433068275452, 0.0724701734739276, 0.7744661569595337, -1.0092936754226685, -1.0995553117114756e-20, -7.629779225833524e-09, -0.0002572419973602618]
[5.299999999999989, 0.6009757836173977, 4.960807800292969, -0.8957027792930603, -0.06679813714322326, -0.7544286252519435, -0.02936745607796611, -0.2639761942743149, 0.0, 0.03956982228819492, -0.024768689864330663, 3.335204839706421, 0.3528124690055847, 0.056430006334543883, 0.7219504714012146, -0.6053491830825806, -4.802081735938225e-22, -6.503691800679278e-09, -0.004138955832180756]
[5.349999999999989, 0.6531604591670559, 4.934153079986572, -0.9756087064743042, -0.01795927063142579, -0.79153759629597, -0.011705663601210343, -0.28637866504356535, 0.0, 0.025384771289663096, -0.015531914229240452, 3.3475277423858643, 0.2832548916339874, 0.023832755236219406, 0.7120422720909119, -0.40047016739845276, -1.4637407327176768e-24, -4.920926918274055e-09, -0.0791016950120927]
[5.399999999999989, 0.6755474635557362, 4.860288619995117, -1.0432592630386353, -0.0017044250014454758, -0.5956619070330893, -0.006404337166417857, -0.2565632577980036, 0.0, -0.060705201727594575, -0.009826269741848413, 3.3734776973724365, 0.10891010612249374, 0.002615145032429041, 0.7196668982505798, 0.15732887387275696, -2.0084834870833163e-25, -3.978309063391504e-09, 0.08542966363495422]
[5.449999999999989, 0.6668194975562789, 4.831461429595947, -0.9983922839164734, 0.016696590173492627, -0.43300153105002886, -0.0007676468960727837, -0.21682834278644925, 0.0, -0.09781987448912256, -0.0011157006001844135, 3.379878282546997, 0.039794377982616425, -0.024269138384246342, 0.7323923110961914, 0.3312682807445526, -2.3788815783885443e-24, -2.3470215735316553e-09, 2.2166933450932382]
[5.4999999999999885, 0.6587122035079287, 4.766036510467529, -0.8019713163375854, 0.03950633558282106, -0.2555351429831777, 0.008731044319304765, -0.13401945169175009, 0.0, -0.12392139536743478, 0.01203399598781332, 3.386112928390503, -0.09184687584638596, -0.05448060980615043, 0.7793031334877014, 0.6184701919555664, -7.069814829474435e-23, -1.8285187645707429e-09, 4.25081616815948]
[5.549999999999988, 0.6065642703019395, 4.744899749755859, -0.7201429009437561, 0.07149692685810433, -0.17966241842922964, 0.022886821694579305, -0.09017652047621807, 0.0, -0.12043114617880846, 0.020486313403937178, 3.3863048553466797, -0.11946424096822739, -0.06411276549804137, 0.8017984628677368, 0.6837871670722961, -1.902500582917075e-19, -1.2844367751637178e-09, 3.241698301910616]
[5.599999999999988, 0.575059888903751, 4.723422050476074, -0.631136417388916, 0.12477859972092609, -0.14205558617739672, 0.04381226811499059, -0.07045340688184419, 0.0, -0.11363688333094803, 0.026434620620013193, 3.3849828243255615, -0.1410641223192215, -0.07570395519960474, 0.8283736109733582, 0.7354633808135986, -4.293420213755544e-18, -1.1930038782569196e-09, 3.239290397649523]
[5.649999999999988, 0.5464440872326307, 4.68600606918335, -0.49755966663360596, 0.23622088132734284, -0.05315127653608914, 0.09076929631992588, -0.02598111702961331, 0.0, -0.08470768389275019, 0.030743060262155435, 3.3801045417785645, -0.16374151408672333, -0.08164088730141364, 0.8879696726799011, 0.7818554639816284, -3.3859491877611484e-16, -1.144309084007082e-09, 2.8392213247700706]
[5.699999999999988, 0.5411749936055343, 4.651483058929443, -0.47123080492019653, 0.2800903306542498, 0.007591267058485226, 0.11005231419709577, 0.0024000224440790755, 0.0, -0.06116846552784791, 0.03192639410612636, 3.3724100589752197, -0.16730310022830963, -0.08361713768759309, 0.9502260684967041, 0.7674696445465088, -7.814062329579561e-16, -1.1687803391625386e-09, 3.067631589561079]
[5.749999999999988, 0.5826941024163481, 4.638504505157471, -0.4852142333984375, 0.12561992750304676, 0.04978099196909574, 0.04752343579631027, 0.02067240079162865, 0.0, -0.049592705887010924, 0.03204203978313284, 3.367168664932251, -0.16447800397872925, -0.08517796102715262, 0.9735782742500305, 0.7483819127082825, -8.647963238046565e-16, -1.3239864013516832e-09, 3.524941539294813]
[5.799999999999987, 0.6093423569460316, 4.623575210571289, -0.5098860263824463, 0.09271704182239703, 0.07746529282010767, 0.03624835504716702, 0.03213936872687956, 0.0, -0.043527034114244335, 0.033388665320003987, 3.345531940460205, -0.15951135754585266, -0.08566677129707986, 1.0281614065170288, 0.7160904407501221, -5.298846642548158e-16, -1.5149166267393302e-09, 4.205290143114851]
[5.849999999999987, 0.6622086825612474, 4.588989734649658, -0.5295627117156982, 0.05799484675422184, 0.163510064509434, 0.022873082375679962, 0.0678017662259634, 0.0, -0.023585871104920962, 0.03227200091100437, 3.337756872177124, -0.12948928773403168, -0.0819248695694426, 1.0471303462982178, 0.6011629700660706, -4.693866770283556e-16, -2.1527513232418057e-09, 6.031333955428929]
[5.899999999999987, 0.6790378574669459, 4.572493553161621, -0.5119829177856445, 0.050649521499521837, 0.16004733833235482, 0.01964643523735359, 0.06715514687387686, 0.0, -0.021113054790203003, 0.03078290820375661, 3.3302602767944336, -0.10968752205371857, -0.07943296433935308, 1.0665550231933594, 0.5352362394332886, -9.414613123589665e-16, -2.538956908180437e-09, 7.434947207070827]
[5.949999999999987, 0.6852941660284808, 4.541376113891602, -0.39006736874580383, 0.04680309523461778, 0.11111145117241954, 0.016853382014594933, 0.04570221990135258, 0.0, -0.016130370297058765, 0.027383040826451183, 3.3163607120513916, -0.07337221503257751, -0.07610391829008134, 1.1010081768035889, 0.4057075083255768, -3.3900445956652536e-14, -3.408791746135945e-09, 9.0504554271129]
[5.999999999999987, 0.6437417884318983, 4.530296802520752, -0.16460421681404114, 0.05572299459210823, 0.09799026984757736, 0.020092671630471695, 0.03953483070271295, 0.0, -0.014695151574806517, 0.024908598226315325, 3.305375099182129, -0.047628067433834076, -0.06915524098962991, 1.1281566619873047, 0.2956298291683197, -3.4997780043742454e-13, -3.778358623119074e-09, 9.75194800585955]
[6.0499999999999865, 0.5830834728333538, 4.517294883728027, -0.06473055481910706, 0.09223852482480135, 0.06599591800606146, 0.030105981605773977, 0.02417413881586344, 0.0, -0.00953353265722912, 0.020398077224234964, 3.3015635013580322, -0.040712807327508926, -0.06268281585706384, 1.1367332935333252, 0.26108384132385254, -3.797982841865545e-11, -4.510308797157602e-09, 9.739775724541257]
[6.099999999999986, 0.5497836416478641, 4.51655387878418, 0.038839951157569885, 0.15971925774135765, 0.06186134020120904, 0.05584839709767447, 0.02211187778931771, 0.0, -0.008560100392538073, 0.020613566045786874, 3.2979400157928467, -0.03453952819108963, -0.059489540363449694, 1.1452224254608154, 0.2256414294242859, -1.8739611728638044e-10, -4.794142084938144e-09, 9.79412441958868]
[6.149999999999986, 0.5222244730528338, 4.523423671722412, 0.1597224622964859, 0.41914426033561475, 0.05648655556974154, 0.2109583156627103, 0.017735395678438827, 0.0, -0.003831775241820177, 0.024261804526508265, 3.28930401802063, -0.026253975927829742, -0.0516232785433987, 1.1597323417663574, 0.16376414895057678, -7.831235441450269e-10, -5.4244364148281294e-09, 9.177063092635002]
[6.199999999999986, 0.5277403063655961, 4.529376983642578, 0.16478830575942993, 0.2746032235365139, 0.060165592113075, 0.1641872523775109, 0.01855522517256534, 0.0, -0.0029225709617343343, 0.027240420138775347, 3.282137393951416, -0.02501186542212963, -0.04695107183551607, 1.1647385358810425, 0.1357685625553131, -7.703243360165953e-10, -5.899905310088206e-09, 8.953599102256865]
[6.249999999999986, 0.5547657137317881, 4.5412397384643555, 0.14245621860027313, 0.08895262523296636, 0.13638119321726994, 0.07000814419792423, 0.048962877755690457, 0.0, 0.0015989946764484557, 0.02909312874787946, 3.267698287963867, -0.0175994411110878, -0.037093945450595446, 1.1720367670059204, 0.06283042579889297, -5.19786704773102e-10, -7.091955458534576e-09, 7.840441174319814]
[6.299999999999986, 0.5732756747222988, 4.550382614135742, 0.098170705139637, 0.053438235817734187, 0.23402144331579694, 0.04819805286993212, 0.10650098930259469, 0.0, 0.006837711746156536, 0.028287123226018757, 3.257120370864868, 0.029280198737978935, -0.031404597712969655, 1.1720229387283325, -0.08247071504592896, -3.810927011242487e-10, -7.840009597265075e-09, 6.984482212281103]
[6.349999999999985, 0.596261641667052, 4.553333759307861, 0.09837498515844345, 0.026897585500391247, 0.23324771574197903, 0.03253453685733313, 0.12075512775871183, 0.0, 0.005855463095187509, 0.02601966158575756, 3.2543718814849854, 0.06051013246178627, -0.021520466588130664, 1.1686830520629883, -0.15593649446964264, -2.6440604412921263e-10, -1.0201758917906594e-08, 4.195107303252887]
[6.399999999999985, 0.5992220090797631, 4.560579776763916, 0.1113775297999382, 0.01011128556225135, 0.15927896046200418, 0.025383616621751783, 0.10127944801744206, 0.0, -0.0040523883213232385, 0.02099446506429266, 3.2533864974975586, 0.13572077453136444, -0.008364098319008003, 1.1514259576797485, -0.3099769353866577, -2.5580749297877024e-10, -1.1211145015073193e-08, 3.094860562278878]
[6.449999999999985, 0.5992800627824363, 4.563968181610107, 0.13060371577739716, -0.003203959860193809, 0.1146373978145357, 0.01942129788807614, 0.07997286236908153, 0.0, -0.009205050598741741, 0.01607212753339956, 3.2544479370117188, 0.15785706043243408, 0.0026516181004123214, 1.1420468091964722, -0.35265615582466125, -3.432856213774319e-10, -1.2361508092929446e-08, 1.7997931170387762]
[6.499999999999985, 0.5976574400898009, 4.5684814453125, 0.1544184684753418, -0.007094406482504176, 0.09722501367131865, 0.018288016010386276, 0.07030373263803603, 0.0, -0.010615908062193397, 0.014859008205371503, 3.2569990158081055, 0.17680810391902924, 0.005764621436725452, 1.1300572156906128, -0.3906267583370209, -4.265517436079993e-10, -1.2355452147900104e-08, 1.5006421356097943]
[6.549999999999985, 0.5932334420106469, 4.580685138702393, 0.20827749371528625, -0.013454406641873588, 0.04723529690145535, 0.021235450884915155, 0.04240098335143865, 0.0, -0.010846791508637486, 0.016383649718631658, 3.2642269134521484, 0.20321139693260193, 0.010381797763572502, 1.1015288829803467, -0.4450953006744385, -6.449690733119355e-10, -1.1791143975484837e-08, 1.172784280909731]
[6.5999999999999845, 0.5885398102296125, 4.5963521003723145, 0.26121729612350464, -0.016209615577321073, 0.021142536447001634, 0.024527579811544672, 0.029276167645768812, 0.0, -0.008172508277699926, 0.017857377242348833, 3.274462938308716, 0.21784183382987976, 0.011803675916642921, 1.069606900215149, -0.47410231828689575, -7.728375351043257e-10, -1.1227773738043676e-08, 1.088495819232389]
[6.649999999999984, 0.581207943009202, 4.60325813293457, 0.2787151336669922, -0.016563561748237903, 0.009602888274979977, 0.03327986892109508, 0.023933556056971634, 0.0, -0.005994865216278092, 0.02197133512327263, 3.2787580490112305, 0.22091323137283325, 0.010938265519820849, 1.0567041635513306, -0.47983258962631226, -9.139757987558615e-10, -1.0224075257434312e-08, 1.0597646416642292]
[6.699999999999984, 0.5619002516871952, 4.611732482910156, 0.2969650328159332, -0.02580620219691621, 0.004982565910784786, 0.048719883384497065, 0.0222037962747873, 0.0, -0.00496478560350695, 0.023453385243526227, 3.284177780151367, 0.2233029007911682, 0.012430587014056306, 1.0416616201400757, -0.4845735430717468, -9.486512288158638e-10, -9.647137923178861e-09, 1.0658050944436996]
[6.749999999999984, 0.5345205952159002, 4.631274223327637, 0.3205946683883667, -0.0559399849967344, -0.008790238092346499, 0.11717707220025694, 0.0212219588238131, 0.0, -0.0012321601444359378, 0.026751846083541135, 3.296107292175293, 0.22841185331344604, 0.012813893222230758, 1.009249210357666, -0.4883733093738556, -8.826488683904934e-10, -8.483152069911862e-09, 1.1274798950373288]
[6.799999999999984, 0.5273813724928726, 4.65253210067749, 0.30939018726348877, -0.07885661119063771, -0.015780100873669916, 0.17729073716632246, 0.02690902185529319, 0.0, 0.0010315740639842944, 0.028862906106188035, 3.3100433349609375, 0.23631571233272552, 0.012932162177644367, 0.9745677709579468, -0.486680805683136, -7.515671943959551e-10, -7.82225381256008e-09, 1.1814237340468225]
[6.849999999999984, 0.5394100107251629, 4.660228252410889, 0.2918636202812195, -0.047896615235062064, -0.02163420726535721, 0.1099754875709321, 0.03529980441704691, 0.0, 0.002078152889814035, 0.030097674138273155, 3.315713882446289, 0.2411327064037323, 0.013144677473232877, 0.961104154586792, -0.48410168290138245, -4.965033104072913e-10, -6.879723024710783e-09, 1.291470261289942]
[6.8999999999999835, 0.5543667298595236, 4.6769490242004395, 0.2198016345500946, -0.03335290417386355, -0.04090552618535405, 0.06880918729800746, 0.0718110971179282, 0.0, 0.0032386286627160282, 0.028338447219573685, 3.331843376159668, 0.2659059166908264, 0.013752039813596701, 0.926830530166626, -0.4709864854812622, -3.5072562721964207e-10, -6.400771409422865e-09, 1.3672538165264347]
[6.949999999999983, 0.5723919039200422, 4.682123184204102, 0.20153941214084625, -0.02211626185153939, -0.05088263183996832, 0.04181001590818351, 0.09550191727612688, 0.0, 0.0035733780621096706, 0.024190662359658693, 3.3389954566955566, 0.28524672985076904, 0.01280196113804826, 0.9144214391708374, -0.4608103334903717, -1.6936807580736784e-10, -5.427809934089179e-09, 1.6427581914280962]
[6.999999999999983, 0.5715342935484583, 4.693472385406494, 0.16661815345287323, -0.02037397128781283, -0.05002251836190279, 0.037811696059302645, 0.10129856701343962, 0.0, 0.005635365174675359, 0.02157428667441166, 3.3612358570098877, 0.34625479578971863, 0.011629192676547667, 0.8861338496208191, -0.4308322072029114, -1.3080869551888873e-10, -4.918941447752198e-09, 1.8194514176214742]
[7.049999999999983, 0.5639157899353308, 4.697409152984619, 0.16318106651306152, -0.018943279906378858, -0.04384657151609057, 0.03759118299642794, 0.08917382075598147, 0.0, 0.007499962308007088, 0.01879284903784195, 3.3710885047912598, 0.36867454648017883, 0.009473621938495267, 0.875587522983551, -0.4199455678462982, -9.336722685938897e-11, -3.770980774190895e-09, 2.248526606591116]
[7.099999999999983, 0.5551853414501906, 4.70176887512207, 0.16320852935314178, -0.01962966498828653, -0.04004828504380522, 0.03432005266869576, 0.08007146041747834, 0.0, 0.008411636182804678, 0.014378119859370634, 3.3990259170532227, 0.4113156497478485, 0.008226367143681771, 0.8488645553588867, -0.3979897201061249, -8.834008576166954e-11, -3.251479391418017e-09, 2.436331117758029]
[7.149999999999983, 0.5476504226988996, 4.710855960845947, 0.15526708960533142, -0.019791695383727492, -0.03062950940164544, 0.02967145671301436, 0.05508847520684736, 0.0, 0.009997443701671117, 0.010356719794203106, 3.41059947013855, 0.42214033007621765, 0.006910139171028364, 0.8387559652328491, -0.3917522728443146, -7.20234465688267e-11, -2.3139172066899354e-09, 2.7936337165591834]
[7.199999999999982, 0.5490001929667784, 4.719123363494873, 0.12522737681865692, -0.01798795523689066, -0.026604604338965727, 0.023634279511502855, 0.04462505800278568, 0.0, 0.010111756302589618, 0.008544290812781232, 3.441547393798828, 0.44130730628967285, 0.006504332421278902, 0.8128427267074585, -0.3797207772731781, -6.110927476790547e-11, -1.9577950300547238e-09, 2.921397278153947]
[7.249999999999982, 0.5455969120279991, 4.721302509307861, 0.1068466529250145, -0.017285742735237936, -0.02509615393669959, 0.022946985392223816, 0.03985562899606388, 0.0, 0.009834163570304056, 0.007571819053459618, 3.453913688659668, 0.44717878103256226, 0.00570484705701145, 0.8029259443283081, -0.37618470191955566, -3.569259460780773e-11, -1.3594361338936098e-09, 3.1841167764398213]
[7.299999999999982, 0.5533171962657005, 4.724481582641602, 0.05628553405404091, -0.01325915680819958, -0.023862376112636988, 0.01656874072594284, 0.03399539335944002, 0.0, 0.009373540691788527, 0.006652357951946566, 3.486396074295044, 0.45840248465538025, 0.0053241138882051025, 0.7774202227592468, -0.36882323026657104, -2.629872666642622e-11, -1.139947374121378e-09, 3.278660366772602]
[7.349999999999982, 0.5481397108437328, 4.725367546081543, 0.035062503069639206, -0.012352623206576319, -0.022784851986304085, 0.022207911151528394, 0.029724344139953635, 0.0, 0.008995995922250475, 0.007851317451186886, 3.4989261627197266, 0.46131500601768494, 0.004367690031208125, 0.768833577632904, -0.36543750762939453, -1.3106449721516051e-11, -7.827186678531568e-10, 3.493821042798433]
[7.399999999999982, 0.5541398759401537, 4.727678298950195, -0.011484235525131226, -0.009152339125102651, -0.020879882616139767, 0.018703078570318412, 0.023984878603971225, 0.0, 0.008563205298943683, 0.0076521041995926235, 3.530402183532715, 0.46459314227104187, 0.0037448750113504036, 0.7515503764152527, -0.35421982407569885, -9.372509858368451e-12, -6.599771115301896e-10, 3.5995653967006103]
[7.4499999999999815, 0.5642356980745449, 4.7276716232299805, -0.029967965558171272, -0.0039928326018886726, -0.01942064484406058, 0.019284339197114128, 0.021668311777017765, 0.0, 0.008366890526798702, 0.009694599267554494, 3.5427098274230957, 0.4645555913448334, 0.002007406977441377, 0.7448444962501526, -0.35067713260650635, -4.816522068839225e-12, -4.591666541885393e-10, 3.847115831944876]
[7.499999999999981, 0.5688711628104945, 4.726847171783447, -0.04947831854224205, -0.0029248425654460797, -0.018359153019435373, 0.019257868053122795, 0.020819112110387755, 0.0, 0.008227364953166677, 0.0105087373782083, 3.556938409805298, 0.46464183926582336, 0.0015961470858594073, 0.7365440130233765, -0.34750837087631226, -3.563757073450221e-12, -3.8590104394265026e-10, 3.9219169660071245]
[7.549999999999981, 0.5695548559974792, 4.722588539123535, -0.07758110016584396, -0.0013602243535274173, -0.014178993383187809, 0.02009496792928989, 0.018875599827204066, 0.0, 0.007692904456636268, 0.011092999261138362, 3.5872275829315186, 0.4650365710258484, 0.000750933898632877, 0.7188829183578491, -0.3423213064670563, -2.361790924862896e-12, -2.65759413667305e-10, 4.091625200564511]
[7.599999999999981, 0.5698465254268202, 4.719960689544678, -0.08368881791830063, -0.0016170094770280629, -0.012908657537254828, 0.018053213314840135, 0.018591008301723683, 0.0, 0.007566749313803932, 0.010014439914598086, 3.601611375808716, 0.46443960070610046, 0.0008970335495673545, 0.7100737690925598, -0.3408302962779999, -2.2023018542807153e-12, -2.2254364264864268e-10, 4.130113609413015]
[7.649999999999981, 0.5683121485135775, 4.713846206665039, -0.09131430834531784, -0.0006742949063572695, -0.008595367205948182, 0.01753884586940856, 0.018176987469854897, 0.0, 0.007109474958556241, 0.009479613143636894, 3.6322174072265625, 0.4647058844566345, 0.000364470022506164, 0.6911721229553223, -0.3403085768222809, -2.0895893161018107e-12, -1.5185359021100058e-10, 4.19588082771833]
