time, uz, alt, vel_alt, uthe, roll, uphi, pitch, upsi, yaw, ux, pos_x, vel_x, uy, pos_y, vel_y, Fz, Fx, Fy
[0.0, 0.5106812422194218, 2.954716920852661, 0.017919985577464104, -0.7315592349691988, -0.015694340367462985, -1.4226914619706486, 0.007914711296554914, 0.0, -0.07197413456947553, -0.042318131037112086, 0.009932299144566059, -0.01993248239159584, 0.03841073355410966, 2.8706717491149902, 0.034328266978263855, 7.94514452410534e-09, 2.3804747132209583, -6.305724639798022e-11]
[0.05, 0.5112263606384599, 2.9566338062286377, 0.015203447081148624, -0.6947626547356635, -0.01574800932069823, -1.3213406850718237, 0.0075682085049423465, 0.0, -0.07173126940919716, -0.04461381067169977, 0.009944548830389977, -0.020117638632655144, 0.03836761297670535, 2.8721554279327393, 0.03298817574977875, 1.3598370725924866e-08, 4.756488273825107, -1.2450047574511008e-10]
[0.1, 0.5182852751496254, 2.9614768028259277, 0.116151824593544, -0.4034603185938523, -0.018040393654056304, -0.5481103997724852, -0.054767135028596446, 0.0, -0.07080875706384052, -0.046879670314802314, 0.009723389521241188, -0.026479626074433327, 0.038405007724829854, 2.874284505844116, 0.03294972702860832, -7.665949674421698e-08, 7.124042317582757, -1.7965694245312526e-10]
[0.15000000000000002, 0.5314097019167836, 2.9665651321411133, 0.09735658019781113, -0.1860761026408026, -0.09197496789924067, -0.2377736926141193, -0.22369312026619112, 0.0, -0.07294474751198096, -0.04808998425410055, 0.008422776125371456, -0.07780087739229202, 0.0384356903659684, 2.8757588863372803, 0.03964713588356972, -1.7991723879070388e-06, 9.331057666921248, -2.366877597458902e-10]
[0.2, 0.6115659826397126, 2.969956159591675, 0.09018631279468536, -0.0361836468182881, -0.16345998561133357, -0.036765033816050244, -0.3103245278622349, 0.0, -0.07166085603506273, -0.034623024669569055, 0.004968015011399984, -0.16846157610416412, 0.03409807052494046, 2.8775908946990967, 0.07838033884763718, -5.0123310106979135e-06, 8.781648544687842, -3.075328502851078e-10]
[0.25, 0.6549448221655911, 2.9785420894622803, 0.08915763348340988, -0.02157301958930988, -0.3604914141164686, -0.012506353489697815, -0.46570271040083927, 0.0, -0.07926490573265565, -0.01680126856443639, -0.014166959561407566, -0.483318567276001, 0.028986849356821453, 2.8903491497039795, 0.3006558120250702, -9.709536063433251e-06, 6.117600082784698, -3.7876150858012783e-10]
[0.3, 0.7368338128920549, 2.985823631286621, 0.10438217222690582, 0.001588884104709771, -0.30065762300607973, 0.013197505295835589, -0.37866379892778873, 0.0, -0.14578095066426902, 0.02774667059828904, -0.04944422096014023, -0.7492427229881287, -0.0033405980744911335, 2.916693687438965, 0.5607872009277344, -1.4524098669702527e-05, 0.9620066749546307, -2.2817362532987261e-10]
[0.35, 0.7963235173121236, 2.9926016330718994, 0.1835928112268448, 0.005162408090355973, -0.21827448093034788, 0.0144208611294907, -0.2961914009387904, 0.0, -0.17592811561047017, 0.0382705185868617, -0.081216961145401, -0.8913767337799072, -0.013700751715733296, 2.942561149597168, 0.7087455987930298, -2.9930818575526284e-05, 0.10884684242049124, -7.208845819611113e-11]
[0.39999999999999997, 0.7755879254701683, 3.011042833328247, 0.41460832953453064, 0.018582345442038496, -0.13361130009435537, 0.02666213816662046, -0.17474487242130227, 0.0, -0.18531029478623207, 0.06564357913727877, -0.13808465003967285, -1.0430690050125122, -0.04576139493842794, 2.9902918338775635, 0.8589596152305603, -0.0007427528180092707, -0.01994415814993574, -2.6089490407559652e-11]
[0.44999999999999996, 0.8378033922705063, 3.0330307483673096, 0.6589832305908203, 0.016070257473123704, -0.10286739635122247, 0.023760270080773374, -0.1187124051108052, 0.0, -0.1725712895290341, 0.07219923224953816, -0.1802196502685547, -1.1050198078155518, -0.04884074658154086, 3.0262913703918457, 0.9291597604751587, -0.002986453355948545, -0.056476692686528086, -1.3559021993744681e-11]
[0.49999999999999994, 0.7717673120999451, 3.058199167251587, 0.8738917708396912, 0.027568100171249544, -0.09047837469184411, 0.03536978901979642, -0.09758993205773547, 0.0, -0.1633714006218265, 0.085845011829142, -0.21548429131507874, -1.1359626054763794, -0.06694066621362824, 3.056814193725586, 0.9704676270484924, -0.0016058502814120725, -0.05355420776132173, -3.4040453068685874e-12]
[0.5499999999999999, 0.7878417038605481, 3.134390354156494, 1.362223505973816, 0.027929506227678882, -0.05013778891109168, 0.0351413549052632, -0.03672808546891226, 0.0, -0.120420618262429, 0.0905275536712308, -0.29254597425460815, -1.1620360612869263, -0.07198265738785095, 3.124821186065674, 1.0203983783721924, -8.089364693905717e-05, -0.06028833445650351, -1.7140270141572196e-12]
[0.6, 0.780252881172745, 3.228431463241577, 1.733005404472351, 0.03196039636924329, -0.031690427797275086, 0.03811898171153107, -0.013162393292594866, 0.0, -0.0955802067293711, 0.09552302591193378, -0.3614978790283203, -1.1556944847106934, -0.08013680547475742, 3.1843855381011963, 1.030168056488037, -1.4087480465741382e-08, -0.07380340695757888, -7.40660237660294e-13]
[0.65, 0.8137127136157825, 3.3032984733581543, 1.9675159454345703, 0.029422126902345386, -0.018568966167137057, 0.03442688086861961, 1.5904834680417935e-05, 0.0, -0.07934828319923748, 0.09694341137143121, -0.4074403643608093, -1.1428970098495483, -0.08289070248603785, 3.221559762954712, 1.022065281867981, -1.4553375168587773e-10, -0.10366363520071707, -3.8144373074685853e-13]
[0.7000000000000001, 0.7668420828237685, 3.369920253753662, 2.152949571609497, 0.03661174429305058, -0.014822136849033139, 0.04207157457549418, 0.003508414328026749, 0.0, -0.07417377144684827, 0.10020682838760539, -0.44379711151123047, -1.1287596225738525, -0.08726723238825769, 3.2514567375183105, 1.010390281677246, -3.9596064630358656e-17, -0.13481196962517764, -2.9022932854408833e-13]
[0.7500000000000001, 0.7990278475522274, 3.531221628189087, 2.5701382160186768, 0.03313583374079699, -0.0004382045631891015, 0.037575254091215766, 0.014827940732434486, 0.0, -0.05191848090709679, 0.10070060982613632, -0.5194940567016602, -1.0911716222763062, -0.08885651350021345, 3.3137130737304688, 0.9750021696090698, -3.5092930183503457e-20, -0.2078782884664059, -1.771566056694836e-13]
[0.8000000000000002, 0.7279375047770151, 3.696225166320801, 2.892394542694092, 0.04509132375607058, 0.006319051434383722, 0.05025513680126145, 0.01918820403118191, 0.0, -0.04089091275431086, 0.1015931179981889, -0.5841726660728455, -1.0558854341506958, -0.0912544637918471, 3.367352247238159, 0.937741756439209, -5.0250310522280695e-30, -0.27451335007565053, -1.4112150437981236e-13]
[0.8500000000000002, 0.7157248835014175, 3.8167877197265625, 3.113837957382202, 0.04858800011835813, 0.010858021157283739, 0.05324191635708806, 0.022174561690523193, 0.0, -0.033986644778396614, 0.101610167138524, -0.6261502504348755, -1.0299904346466064, -0.09284524381160725, 3.4021265506744385, 0.9087954759597778, -1.0230260887603359e-33, -0.3493303808044737, -1.167758083940664e-13]
[0.9000000000000002, 0.5913924010889665, 4.012904644012451, 3.373875379562378, 0.12291784737486934, 0.01550244104357487, 0.1341141155446081, 0.025135032772642372, 0.0, -0.026619758294294325, 0.10177923572536189, -0.6872209310531616, -0.9914015531539917, -0.09403668314218515, 3.4525179862976074, 0.8642089366912842, -8.062906812919682e-45, -0.5284472676702018, -7.454959043723867e-14]
[0.9500000000000003, 0.56906302454557, 4.150765895843506, 3.493218183517456, 0.1699819159106617, 0.02089283718974635, 0.18280876480543076, 0.029466932079637274, 0.0, -0.022229262513050654, 0.10119864731883725, -0.7267094850540161, -0.966534435749054, -0.09554617583751673, 3.4848859310150146, 0.8335078954696655, -2.968202622162249e-48, -0.7549027339192121, -4.916560559541493e-14]
[1.0000000000000002, 0.47864187033154815, 4.363892555236816, 3.5480315685272217, -0.30178347902206537, 0.03663230199097917, -0.33537126675238704, 0.04448096871610655, 0.0, -0.016660709353312382, 0.10129443807522691, -0.7846793532371521, -0.9305697679519653, -0.09580735266208644, 3.5284383296966553, 0.785646378993988, -7.378369681339319e-55, -0.9461217931929828, -4.035344310422038e-14]
[1.0500000000000003, 0.4960367315259019, 4.505873203277588, 3.511443853378296, -0.5331005948409714, 0.06118938690682076, -0.6616774074641213, 0.06915882574396202, 0.0, -0.013000483321642142, 0.10078523991839017, -0.822773277759552, -0.9026457071304321, -0.09679092496633526, 3.552412271499634, 0.7469794750213623, -2.6524991627130396e-55, -1.3471425531896477, -4.138191354402244e-14]
[1.1000000000000003, 0.4606434870270444, 4.758979797363281, 3.485729455947876, -0.19626461172523657, 0.09720735304791102, -0.21438483870534536, 0.06173856300387859, 0.0, -0.013247053947301031, 0.0995979427716479, -0.8873803615570068, -0.8323894739151001, -0.09308016598224636, 3.592852830886841, 0.6488175988197327, -6.83850495265997e-55, -1.65188660684677, -2.8205715561576884e-14]
[1.1500000000000004, 0.41210951686574304, 4.8566789627075195, 3.4498398303985596, -0.09816900926591442, 0.06569099076028397, -0.10830077058024884, -0.05399157096637167, 0.0, -0.029723137077253638, 0.09864172559314222, -0.9114083647727966, -0.8269030451774597, -0.08987752377986906, 3.606771945953369, 0.6116005778312683, -1.9750759510562494e-55, -2.138459087245167, -2.5893276862770606e-14]
[1.2000000000000004, 0.3843493500638739, 4.966825485229492, 3.403923749923706, -0.0711604878255005, 0.029852083926344093, -0.08794101194409276, -0.11231354594425147, 0.0, -0.0375181172685033, 0.102674785513569, -0.9389963150024414, -0.8526017665863037, -0.0833307161927223, 3.6224353313446045, 0.5848102569580078, -4.055041943904001e-54, -1.972464766491525, -2.1097128234540097e-14]
[1.2500000000000004, 0.3684751243934994, 5.196371555328369, 3.2808773517608643, -0.06439044341857982, -0.20447491586323097, -0.07973639359779064, -0.28097200159876434, 0.0, -0.055989434900572364, 0.10480865869290033, -1.0031311511993408, -0.9923322796821594, -0.08484438031911849, 3.655885696411133, 0.6221791505813599, -1.011765069195811e-53, -1.449732497249044, -1.3817092807329609e-14]
[1.3000000000000005, 0.3463225722832571, 5.300242900848389, 3.1689164638519287, -0.060937511851068424, -0.24041321424598341, -0.0768943662232331, -0.2796281395004103, 0.0, -0.06273770753005924, 0.1168763064001972, -1.0365930795669556, -1.0561726093292236, -0.0928288072347641, 3.673947334289551, 0.6688854694366455, -2.280238656530362e-49, -0.5668376912648025, -8.807199315587505e-15]
[1.3500000000000005, 0.33555407160924433, 5.506837844848633, 2.8525168895721436, -0.0600739412304524, -0.2387084989979149, -0.07450956976374515, -0.23488730043873238, 0.0, -0.09535224380955083, 0.12068787715099252, -1.1131606101989746, -1.1457829475402832, -0.09751299940049649, 3.7176363468170166, 0.7610153555870056, -1.7321528166824012e-42, -0.2580011978695419, -3.665895795798896e-15]
[1.4000000000000006, 0.36172905326918586, 5.66905403137207, 2.5150043964385986, -0.07318746583881577, -0.17910806848329192, -0.09286731935844005, -0.19083087889770903, 0.0, -0.1088892671516864, 0.12798409885200615, -1.1852779388427734, -1.1938916444778442, -0.10118837803602218, 3.759223461151123, 0.8056547045707703, -6.04178336877597e-39, -0.19286163090672404, -2.4379977059560866e-15]
[1.4500000000000006, 0.3627848472465819, 5.765691757202148, 2.281135082244873, -0.07274182897659673, -0.1444704255931351, -0.09481681646875782, -0.16279730661608655, 0.0, -0.11061177907775842, 0.1297561988294773, -1.2356929779052734, -1.2176713943481445, -0.0998722520470619, 3.786130905151367, 0.8214833736419678, -5.2786959502002173e-36, -0.12505008510281473, -1.665407512261968e-15]
[1.5000000000000007, 0.3938627339936841, 5.8933186531066895, 1.9461174011230469, -0.08496242765350022, -0.11149374406666324, -0.12422621357945272, -0.1324916479979727, 0.0, -0.10449418111368787, 0.13440424437363724, -1.3124531507492065, -1.2479466199874878, -0.09238277539610863, 3.8285152912139893, 0.8362358212471008, -1.6023096180232798e-29, -0.08386750434619018, -8.356915658585592e-16]
[1.5500000000000007, 0.3799589304860728, 5.9674577713012695, 1.7292834520339966, -0.07442805746757244, -0.10162348410926629, -0.1131349497597278, -0.12270370299236256, 0.0, -0.09639496856002762, 0.13693731866352027, -1.3642827272415161, -1.2646164894104004, -0.090446452870965, 3.857825517654419, 0.8426738977432251, -2.9458377278318684e-25, -0.04907935432858298, -4.1034392700944705e-16]
[1.6000000000000008, 0.38262679239028374, 6.062987327575684, 1.4231489896774292, -0.07323662287259718, -0.09810791930583924, -0.12143332364741839, -0.12090458774947059, 0.0, -0.08085844535435806, 0.14406022142128264, -1.4429020881652832, -1.288386344909668, -0.0872528898715973, 3.9030725955963135, 0.8518747091293335, -9.38003091025042e-24, -0.038254759024724035, -2.895606346769414e-16]
[1.6500000000000008, 0.3578210996233496, 6.11652135848999, 1.226601481437683, -0.061391817894127364, -0.10038668356480367, -0.10394414927626079, -0.12745707435403325, 0.0, -0.06933910230737521, 0.14713248366301496, -1.4959486722946167, -1.3049863576889038, -0.08716606333851815, 3.934039831161499, 0.8581436276435852, -9.218287270729983e-23, -0.021301189415064543, -1.3553202728071287e-16]
[1.7000000000000008, 0.342985423791496, 6.181461334228516, 0.9252678155899048, -0.0565585027066515, -0.10240115658686647, -0.09968904085403046, -0.13754798360078638, 0.0, -0.05232901752550902, 0.15482098384995643, -1.5765745639801025, -1.3318778276443481, -0.08807716071605683, 3.9816396236419678, 0.8676735758781433, -5.489745147741574e-21, -0.015847340716766755, -9.310471504741521e-17]
[1.7500000000000009, 0.3159804419865112, 6.214656352996826, 0.7142927050590515, -0.049358446199037766, -0.10162386185129602, -0.08766902739281277, -0.14174023255905127, 0.0, -0.041860454953760874, 0.1580492233845415, -1.6311180591583252, -1.3505659103393555, -0.0891696384549141, 4.014066696166992, 0.8729166388511658, -1.3101615632496216e-20, -0.012018753868563159, -6.702877717607838e-17]
[1.800000000000001, 0.31570832826116757, 6.234911918640137, 0.5395596027374268, -0.05089209707802532, -0.10039086369249764, -0.09200396881998527, -0.14238221567550588, 0.0, -0.03700171460836482, 0.16614014822596063, -1.6751683950424194, -1.3647115230560303, -0.09210992261767387, 4.0404486656188965, 0.8758962750434875, -1.7161717098518558e-20, -0.005706693766009834, -2.819181935743214e-17]
[1.850000000000001, 0.30200973651779073, 6.26050329208374, 0.14444436132907867, -0.04857942636983938, -0.09107866505963985, -0.0883658757260259, -0.13587093822193386, 0.0, -0.019547204818438982, 0.17078356710314987, -1.770339846611023, -1.3910408020019531, -0.09408514350652694, 4.095512866973877, 0.8770310878753662, -8.256789147514006e-22, -0.0027949833893777367, -1.2773554641709721e-17]
[1.900000000000001, 0.32083054126456967, 6.26013708114624, -0.22429399192333221, -0.05482559280146214, -0.08376920229243366, -0.10094582759365825, -0.12672792208526945, 0.0, -0.010500067613373866, 0.17758410836777502, -1.8554725646972656, -1.409883975982666, -0.09671021312475205, 4.144471645355225, 0.8746204972267151, -2.2766196462002542e-23, -0.0018375667076696819, -8.029122320655866e-18]
[1.950000000000001, 0.28682769977048295, 6.247134685516357, -0.47725704312324524, -0.04692060284189238, -0.0795965353053251, -0.08651484940346635, -0.12066683403129864, 0.0, -0.0049796153125489144, 0.17939172495037659, -1.9127148389816284, -1.4205522537231445, -0.09748462095856666, 4.177377700805664, 0.8715792298316956, -2.279706790032519e-24, -0.0009782227908067414, -3.986235347153441e-18]
[2.000000000000001, 0.2944179887220064, 6.229525566101074, -0.6810676455497742, -0.04993462737192058, -0.07779929207790644, -0.09296890528777212, -0.11793962535203086, 0.0, -0.0025100189977049344, 0.18629020691688083, -1.9587113857269287, -1.4277187585830688, -0.10028618142008781, 4.203863143920898, 0.868134617805481, -2.4516998319466157e-29, -0.000699915242438706, -2.7412396297568792e-18]
[2.0500000000000007, 0.27761067478266777, 6.1708478927612305, -1.109541416168213, -0.04697851360431099, -0.07424237063820698, -0.08764028443846245, -0.11238983818438325, 0.0, 0.006145418634946653, 0.18924302782388752, -2.057145595550537, -1.4413796663284302, -0.10164619773626328, 4.260046482086182, 0.8618656396865845, -9.793936325857997e-32, -0.0003373947960337035, -1.2208474436027504e-18]
[2.1000000000000005, 0.3474641475412009, 6.132750511169434, -1.3211437463760376, -0.06861166080284202, -0.07383088743548513, -0.12976145492738958, -0.11182733248159027, 0.0, 0.007774794493285636, 0.19657490864494323, -2.1036767959594727, -1.447226881980896, -0.10439555540680885, 4.286628723144531, 0.8582205176353455, -1.1207493558423202e-39, -0.00023707845689437086, -8.315498878992511e-19]
[2.1500000000000004, 0.3379099017831854, 6.028836250305176, -1.7800426483154297, -0.0655244890967556, -0.07161265824844666, -0.12443132366326176, -0.1098092447687395, 0.0, 0.01227384320458361, 0.19949002182297912, -2.203113079071045, -1.4579681158065796, -0.10547233298420906, 4.342886447906494, 0.8493512272834778, -1.9543037675439843e-43, -0.0001729857226931098, -5.944846642655146e-19]
[2.2, 0.4029672004284404, 5.911831855773926, -2.146496295928955, -0.1064245696080873, -0.0721045222657312, -0.20552784169740243, -0.11192901222603727, 0.0, 0.014572910983515841, 0.20679959389461214, -2.290959119796753, -1.4685072898864746, -0.10824971854686738, 4.392518043518066, 0.8421306014060974, -1.5104813739064255e-54, -7.550312217204806e-05, -2.493617409240167e-19]
[2.25, 0.40567414138355185, 5.823133945465088, -2.3830068111419678, -0.11036898418517122, -0.07547674046332636, -0.2137539422791371, -0.11851602239940759, 0.0, 0.015617789770823134, 0.2098833442284725, -2.348695993423462, -1.4757716655731201, -0.10964569911360741, 4.42585563659668, 0.8386908173561096, -7.725021895744834e-59, -5.355020977706112e-05, -1.7619412737569468e-19]
[2.3, 0.5120936652407031, 5.745089530944824, -2.569568157196045, 0.4759663334291169, -0.07734398174218095, 1.4816345778366202, -0.12214570808492232, 0.0, 0.015940167596117973, 0.21705095232001378, -2.395245313644409, -1.4826164245605469, -0.11233482450246811, 4.4524760246276855, 0.8353662490844727, -1.4796795341468563e-70, -2.1462355384642974e-05, -7.091348803992598e-20]
[2.3499999999999996, 0.5081029336185974, 5.561224937438965, -2.899815797805786, -0.4735556630905534, -0.09362401513650274, -1.4913442687947998, -0.15223464089907418, 0.0, 0.017199472344078655, 0.22082498357507543, -2.495195150375366, -1.5046489238739014, -0.11351924493908883, 4.508983135223389, 0.8344746828079224, -6.516691505721773e-79, -7.831185615868728e-06, -2.894984699318689e-20]
[2.3999999999999995, 0.5512083605933817, 5.4687652587890625, -2.910313606262207, 0.25673181163252634, -0.1008870517316856, 0.5464689109717131, -0.15194394899036334, 0.0, 0.016545375024649013, 0.23230506069467996, -2.543229103088379, -1.5379507541656494, -0.11735424859449267, 4.535815715789795, 0.8477103114128113, -2.308634640166244e-78, -3.720388161086873e-06, -1.769396959567808e-20]
[2.4499999999999993, 0.5476455900635141, 5.272794723510742, -2.907644271850586, 0.27578902916135667, -0.07387867842747192, 0.5985877523179668, 0.01632530676130729, 0.0, -0.0073579968278084966, 0.23797221866016302, -2.648043155670166, -1.557090401649475, -0.1195192913338542, 4.594653129577637, 0.8793655037879944, -1.3678016722851827e-77, -1.9795170879673846e-06, -1.1173489994515131e-20]
[2.499999999999999, 0.5571547754046523, 5.101797580718994, -2.8453023433685303, 0.24553840913830177, 0.00926019831375206, 0.5060414831124811, 0.09472375938383824, 0.0, -0.021903853705772042, 0.24219052589749548, -2.738971710205078, -1.497262954711914, -0.12521013736724854, 4.647731304168701, 0.8763479590415955, -1.2692359111166933e-74, -1.110784732290049e-06, -3.584341821051035e-21]
[2.549999999999999, 0.5617699010525482, 4.988588333129883, -2.8640296459198, 0.22703151765880736, 0.08437598417009642, 0.4749512648596652, 0.2123541853915041, 0.0, -0.025122768880840644, 0.24671996365530113, -2.797194242477417, -1.4332951307296753, -0.12463689178228378, 4.682345867156982, 0.8426977396011353, -5.735157413507447e-73, -1.0733089946162702e-06, -2.4715182213792677e-21]
[2.5999999999999988, 0.6427794921465048, 4.815638065338135, -2.9204494953155518, 0.09577347768005913, 0.17158148811129617, 0.1937036825381591, 0.38552300712080345, 0.0, -0.014863102279913292, 0.24139857695564818, -2.8776493072509766, -1.2620320320129395, -0.12047365128993988, 4.730822563171387, 0.7483810782432556, -1.0253380647053246e-72, -1.9477326992857908e-06, -1.209112645394932e-21]
[2.6499999999999986, 0.6435011791143636, 4.697670936584473, -2.9767251014709473, 0.09205684504567034, 0.19137582469067438, 0.19129516758223564, 0.4290818606340592, 0.0, -0.01178150578788801, 0.23961738852433864, -2.9240782260894775, -1.1181648969650269, -0.1163460499048233, 4.760481834411621, 0.6720318794250488, -7.353522898881857e-73, -2.734586627153827e-06, -1.0665566888991294e-21]
[2.6999999999999984, 0.7283300976383824, 4.517445087432861, -2.986577033996582, 0.05305129005315298, 0.17702889728674315, 0.10889820740095961, 0.4147859434804273, 0.0, -0.020870880036555402, 0.22122890568031875, -2.9822397232055664, -0.8569671511650085, -0.10808949768543244, 4.798532485961914, 0.5343607068061829, -6.484591202685427e-74, -8.853813109727523e-06, -7.004989994819655e-22]
[2.7499999999999982, 0.747506784636963, 4.3984174728393555, -2.9509472846984863, 0.047214668657514454, 0.14077259175121107, 0.09546144027133668, 0.3507512262442193, 0.0, -0.033132731844395344, 0.2107715870293667, -3.0122382640838623, -0.6911440491676331, -0.1044825404882431, 4.8191142082214355, 0.4473937153816223, -1.4526218852111916e-72, -1.3992457582837822e-05, -6.086476926915493e-22]
[2.799999999999998, 0.8102180920871208, 4.1900634765625, -2.780165910720825, 0.035031505887465335, 0.08991030006658755, 0.06716714185512664, 0.25040619194118185, 0.0, -0.04222598575358995, 0.1871688353856567, -3.052074670791626, -0.4548078775405884, -0.0977326738089323, 4.84842586517334, 0.3261636793613434, -2.494257719567339e-68, -2.2186851854451057e-05, -3.9552369326370496e-22]
[2.849999999999998, 0.8370123103680953, 4.113608360290527, -2.6683032512664795, 0.031257533310019105, 0.06730699065540945, 0.058154623522567936, 0.1939452206306784, 0.0, -0.04156730315637257, 0.17645109234223766, -3.0633583068847656, -0.37992191314697266, -0.09492510795593262, 4.857645034790039, 0.28800949454307556, -1.2599823386119078e-63, -2.2331575584218563e-05, -3.0828454859573973e-22]
[2.8999999999999977, 0.830577110368059, 4.030323505401611, -2.510855197906494, 0.030414484581671973, 0.05912096511650946, 0.05494957316256505, 0.17043289285069627, 0.0, -0.03988710253826329, 0.1634256712645671, -3.074014902114868, -0.30687618255615234, -0.09052925264462829, 4.866829872131348, 0.24887163937091827, -9.522940702640273e-55, -1.902882074836356e-05, -2.167643072600824e-22]
[2.9499999999999975, 0.820163777104523, 3.874551296234131, -2.0315377712249756, 0.03127798646870419, 0.03513909290362143, 0.05432483567731333, 0.09958705673535508, 0.0, -0.02916191185182188, 0.15631586055440772, -3.089719295501709, -0.1792798638343811, -0.09007384555414319, 4.882538795471191, 0.17904236912727356, -1.4443596414659436e-49, -1.712871658609312e-05, -1.8623082045561802e-22]
[2.9999999999999973, 0.7523639976398205, 3.8133511543273926, -1.7800910472869873, 0.038009168259401205, 0.03209225176936039, 0.06478689985378522, 0.09002505546275742, 0.0, -0.026979798552175707, 0.1457301978728022, -3.0945115089416504, -0.13461311161518097, -0.08559803401585668, 4.888335704803467, 0.152210533618927, -7.878321470536911e-36, -1.2960120643006349e-05, -1.3260158654784093e-22]
[3.049999999999997, 0.714899509179731, 3.7108094692230225, -1.2398778200149536, 0.0445194737874786, 0.023026123116465194, 0.07316626035176092, 0.060431842820500625, 0.0, -0.017467572258999937, 0.13919182867881894, -3.097949743270874, -0.06073489785194397, -0.0848257119115442, 4.903641700744629, 0.10659650713205338, -2.269464189442678e-28, -1.1484595540274134e-05, -1.0765900885554604e-22]
[3.099999999999997, 0.7064239936593694, 3.6744062900543213, -1.0306447744369507, 0.04550422783143989, 0.02201739083080789, 0.07214184669071605, 0.05678610900541249, 0.0, -0.015438380207691251, 0.13155948179059856, -3.0981392860412598, -0.0349867083132267, -0.08311192164197564, 4.909597396850586, 0.08907408267259598, -1.5456979720567198e-19, -1.0004576383830337e-05, -8.086577864642703e-23]
[3.149999999999997, 0.7166497150350347, 3.616058349609375, -0.6727647185325623, 0.04292649746972242, 0.02378168691307072, 0.06696838413143465, 0.05330450786469907, 0.0, -0.008707714277655473, 0.12845191176389983, -3.0960309505462646, 0.013524268753826618, -0.08244944635778666, 4.920217037200928, 0.05440262705087662, -1.0782637394676482e-16, -9.493582739537493e-06, -7.174133200667497e-23]
[3.1999999999999966, 0.762915474914303, 3.5921640396118164, -0.49348554015159607, 0.034208258878270684, 0.025134651073733784, 0.05174837052072029, 0.054251411337485664, 0.0, -0.007329840894615065, 0.12140763923900119, -3.0935137271881104, 0.04115113615989685, -0.08032368160784245, 4.924811840057373, 0.03347241133451462, -2.7202406087307078e-11, -8.34839337435303e-06, -5.395991914545282e-23]
[3.2499999999999964, 0.8076231156726137, 3.5688352584838867, -0.21801374852657318, 0.02907816989124769, 0.028294988077866824, 0.04325057914061938, 0.05574882660595593, 0.0, -0.0028130662828377813, 0.11937558923860855, -3.0876901149749756, 0.0841122418642044, -0.08030609481036663, 4.930878162384033, 0.0013408772647380829, -2.9910280180082084e-10, -8.093321981898753e-06, -5.0495888211152606e-23]
[3.2999999999999963, 0.8244109824307773, 3.5633745193481445, 0.015462903305888176, 0.026698083782685785, 0.028194911711535525, 0.03854462638253097, 0.054919802689542954, 0.0, -0.0020236387148883585, 0.11237319348937161, -3.082444667816162, 0.11482097208499908, -0.07787350479513407, 4.933549404144287, -0.02211826480925083, -1.4954056610297332e-06, -7.139502843346888e-06, -3.9251773787521883e-23]
[3.349999999999996, 0.8144757210075741, 3.575911045074463, 0.46356335282325745, 0.02740390370999144, 0.02415842005169009, 0.03875019717577867, 0.04582060608487903, 0.0, 0.00027694011122291514, 0.10940320909574863, -3.0724411010742188, 0.1601150929927826, -0.07740802809596062, 4.935210227966309, -0.05633838102221489, -2.074785882447455e-05, -6.785544130687091e-06, -3.62243498090179e-23]
[3.399999999999996, 0.7492635564075069, 3.5944013595581055, 0.729053795337677, 0.033914195850918996, 0.022954614922021742, 0.047037238399123334, 0.04323244024988973, 0.0, 0.000730782062818512, 0.10438181707715972, -3.066185712814331, 0.18085993826389313, -0.07531669735908508, 4.934907913208008, -0.0736817866563797, -6.754799417021098e-05, -6.352424461378786e-06, -3.212120636008862e-23]
[3.4499999999999957, 0.7164429603737392, 3.661715269088745, 1.2856814861297607, 0.03930174011665394, 0.01923877045301788, 0.053244483103003, 0.03458241121382509, 0.0, 0.0022706594312430356, 0.10196975948311661, -3.0509259700775146, 0.21729157865047455, -0.07534205630421638, 4.932346820831299, -0.1070958748459816, -1.301537609383293e-05, -5.681293955957772e-06, -2.8607083986920803e-23]
[3.4999999999999956, 0.5697965560551006, 3.7058207988739014, 1.4979921579360962, 0.1287831778664442, 0.018877825128764725, 0.17375407119950811, 0.0332524701567338, 0.0, 0.0025479284782793385, 0.09727444398412548, -3.043147563934326, 0.22942055761814117, -0.07286528088152408, 4.930054187774658, -0.12093250453472137, -1.3379314071629475e-09, -6.362889612291429e-06, -2.91663355027214e-23]
[3.5499999999999954, 0.5546019457080883, 3.818403482437134, 1.8251087665557861, 0.17061628383907249, 0.02166893352978597, 0.22594149848268533, 0.03485747634118272, 0.0, 0.0034861951309849903, 0.09502006600453466, -3.025503158569336, 0.2517417371273041, -0.07307757914066315, 4.923683166503906, -0.14764779806137085, -2.1697509827635775e-11, -6.526996807170537e-06, -2.904159073273213e-23]
[3.599999999999995, 0.5008018112825751, 3.9302279949188232, 1.876613736152649, -0.5180711022379881, 0.04303805012496514, -0.8176216294985353, 0.060119435614504495, 0.0, 0.004145122974547678, 0.09092779987847657, -3.009742498397827, 0.2697949707508087, -0.07104544296860694, 4.91640567779541, -0.17230628430843353, -9.436048607178504e-15, -7.079865231953093e-06, -2.9629973983721593e-23]
[3.649999999999995, 0.5144525952677719, 4.004951477050781, 1.849680781364441, 0.6210258576171824, 0.07830103647079825, 1.1378228736267482, 0.1034071034346287, 0.0, 0.005534812182678683, 0.08927831512899981, -2.9994120597839355, 0.29215604066848755, -0.07036840245127678, 4.910754203796387, -0.1982167363166809, -5.664721504686069e-15, -7.227304431908893e-06, -2.976498471699553e-23]
[3.699999999999995, 0.5010096197767304, 4.079732418060303, 1.895975947380066, -0.49035061630302745, 0.09132556436568702, -0.7731365485421029, 0.11634766545853567, 0.0, 0.005945137384434171, 0.08130414994646891, -2.9876482486724854, 0.339462012052536, -0.06214821651577949, 4.903562545776367, -0.2429724782705307, -6.793342138405292e-16, -6.055730424982256e-06, -2.6493959464876354e-23]
[3.7499999999999947, 0.5192146806434974, 4.197310924530029, 2.0096805095672607, 0.47887511536582145, 0.14943052377382113, 0.7430841155614938, 0.05286251647195713, 0.0, -0.0038079890904623367, 0.07846371177165552, -2.9667246341705322, 0.3796391189098358, -0.060211667865514754, 4.888225555419922, -0.3407426178455353, -1.597178252574575e-16, -5.621004550683088e-06, -2.4636594646698058e-23]
[3.7999999999999945, 0.44172379039359805, 4.279135704040527, 2.0789172649383545, -0.07459607861797438, 0.16553175059814854, -0.11605514246599084, 0.06172574628129218, 0.0, -0.003293117519502441, 0.07376931930667036, -2.951852798461914, 0.397646963596344, -0.04761122211813926, 4.874213695526123, -0.4218268096446991, -1.4063760269415272e-19, -5.986152829307057e-06, -1.523949730860725e-23]
[3.8499999999999943, 0.4212962742316399, 4.40745735168457, 2.18357253074646, -0.054773444503583325, 0.2113859319617879, -0.08524281537972238, 0.02964572053431059, 0.0, -0.010966286746750674, 0.07024887425810995, -2.9286956787109375, 0.39616790413856506, -0.045238931328058236, 4.846288681030273, -0.5645707249641418, -9.718684345359725e-21, -7.580825698702182e-06, -8.607687651767387e-24]
[3.899999999999994, 0.38020674123427556, 4.477351665496826, 2.1641547679901123, -0.032214876460095965, 0.21457518947597265, -0.054873528615030025, 0.057294207052684835, 0.0, -0.005968508143346285, 0.06607501316756972, -2.9163758754730225, 0.40183475613594055, -0.03882389344274998, 4.827809810638428, -0.6317893862724304, -5.609253989583612e-22, -8.232305139103692e-06, -6.76520751988686e-24]
[3.949999999999994, 0.38514610878599065, 4.620798587799072, 2.0013701915740967, -0.031647048297078845, 0.13767243277101462, -0.054824303466991464, 0.04083620262050348, 0.0, -0.015777759022766905, 0.06350335284283483, -2.888892650604248, 0.4264569580554962, -0.03668760366737842, 4.782296180725098, -0.7333755493164062, -1.1301342663377224e-21, -8.336809517639323e-06, -5.797041473485843e-24]
[3.999999999999994, 0.42171308260541257, 4.753607273101807, 1.6765940189361572, -0.041086937572880636, 0.042203589950690484, -0.07083730989441608, -0.019933493192148433, 0.0, -0.026914198198327972, 0.05805928849203346, -2.8595776557922363, 0.4135303497314453, -0.03372260928153992, 4.729050159454346, -0.7681793570518494, -1.8073164845249877e-18, -1.0510513777777158e-05, -7.070412491964718e-24]
[4.049999999999994, 0.45152048293197267, 4.798214912414551, 1.5427491664886475, -0.06358449519230891, 0.0026307693189318074, -0.10264237648839113, -0.042764974614306075, 0.0, -0.029199841331187693, 0.05582714588083747, -2.848904609680176, 0.40244972705841064, -0.03469114542007446, 4.707919597625732, -0.7708393335342407, -1.7516218921784184e-16, -1.311935904287615e-05, -1.0382475917873128e-23]
[4.099999999999993, 0.504400647269099, 4.8966803550720215, 1.2370529174804688, -0.4746593729048206, -0.026676108303842396, -0.8060291327449208, -0.059164074415923966, 0.0, -0.029051356034385696, 0.05408150529512496, -2.8227381706237793, 0.3656081557273865, -0.038513711094856254, 4.653520107269287, -0.7614396214485168, -3.788123155452179e-14, -1.9278613044841874e-05, -2.2093640687328818e-23]
[4.149999999999993, 0.5263298408128587, 4.929625034332275, 1.1385775804519653, 0.24644853284908833, -0.037809291795800004, 0.3433604493207853, -0.06866890584314586, 0.0, -0.02736150732904476, 0.05410920495926323, -2.8133273124694824, 0.3483958840370178, -0.040432805493474, 4.632634162902832, -0.7546244859695435, -3.206118562251233e-13, -2.5283684166926747e-05, -3.943679445987164e-23]
[4.199999999999993, 0.5292379413345024, 4.964476108551025, 1.0822776556015015, 0.2355985720795842, -0.04248282645887147, 0.2968048776214075, -0.07458643197681804, 0.0, -0.026048132006793283, 0.05453022012245901, -2.8030765056610107, 0.3232120871543884, -0.04475847013294697, 4.608982563018799, -0.7414218187332153, -1.102387255105859e-12, -3.9243521773224375e-05, -1.0013358787674196e-22]
[4.249999999999993, 0.4885111649312096, 5.042060375213623, 1.2129902839660645, -0.22174954098624444, -0.06354971796688691, -0.2761926267396751, -0.16693785415233145, 0.0, -0.017130436783632488, 0.056448818446999616, -2.7859764099121094, 0.19348593056201935, -0.04667049825191498, 4.5607805252075195, -0.6902698874473572, -4.598947906270643e-13, -5.245388132592435e-05, -1.653049822188313e-22]
[4.299999999999993, 0.37444910143911836, 5.081822872161865, 1.2580575942993164, -0.039902869073828805, -0.06515359466652282, -0.05244686293565238, -0.13969502410869464, 0.0, -0.018584024163389376, 0.06594872426982823, -2.7813243865966797, 0.12845557928085327, -0.05022508844733238, 4.539350509643555, -0.6633813977241516, -1.7217244216106696e-14, -0.0001270025581338107, -6.438586368857295e-22]
[4.3499999999999925, 0.335522189346506, 5.169844627380371, 1.3495049476623535, -0.031222547474980544, 0.05248771294810359, -0.04140733702519536, 0.021534481085735753, 0.0, -0.02706004043915116, 0.06699645722826642, -2.7751100063323975, 0.10151781141757965, -0.05054848439991473, 4.495691776275635, -0.6475028991699219, -8.2605820780363e-15, -0.00014974346082648448, -1.4965245659901884e-21]
[4.399999999999992, 0.23016575734581646, 5.24787712097168, 1.1936334371566772, -0.017505554688614148, 0.08464533423482007, -0.02474799644251349, -0.013949076261186131, 0.0, -0.028829468098431565, 0.06419712851302485, -2.7694108486175537, 0.10452551394701004, -0.045419268198311324, 4.455393314361572, -0.6822312474250793, -1.785955647122692e-15, -0.00015162410000759747, -1.852629537210667e-21]
[4.449999999999992, 0.22356618141351148, 5.292056083679199, 0.9931312799453735, -0.016954323416675278, 0.05217171405925878, -0.023680243230560893, -0.03549604459688791, 0.0, -0.027948975435120305, 0.06287495176847804, -2.765855550765991, 0.09455936402082443, -0.04502504693344235, 4.426609039306641, -0.6983450651168823, -4.136649215187209e-15, -0.00015588085880927657, -2.084528798666909e-21]
[4.499999999999992, 0.27277099114376796, 5.320985794067383, 0.7957658767700195, -0.018338054520085065, 0.03408376430437372, -0.028475064627657826, -0.04037977810275448, 0.0, -0.026788317577355628, 0.06262329858966027, -2.7632622718811035, 0.0859360471367836, -0.04033962513931328, 4.403357982635498, -0.7050334215164185, -6.933151556526162e-14, -0.00017700023804950992, -3.835345104761865e-21]
[4.549999999999992, 0.3175324801642201, 5.358852863311768, 0.30208146572113037, -0.02229551868013723, -0.017721269799238035, -0.03513895715550359, -0.04149841757800453, 0.0, -0.02138344390912889, 0.062706295239777, -2.758646011352539, 0.06874094903469086, -0.039801661488600065, 4.353553295135498, -0.7100239992141724, -8.278293625142248e-14, -0.00018524661722549665, -5.1234172532949026e-21]
[4.599999999999992, 0.44433712772224365, 5.3649516105651855, 0.07877489924430847, -0.06336193211169411, -0.025583967994926054, -0.10437312010733756, -0.03908969568862476, 0.0, -0.01992392503492644, 0.06374932931448267, -2.7568070888519287, 0.061975665390491486, -0.03882271513342857, 4.330219745635986, -0.7096320390701294, -1.9082197282868183e-15, -0.00020475770281178126, -1.1416398881521035e-20]
[4.6499999999999915, 0.4919375751447616, 5.355339527130127, -0.3517332673072815, -0.21699239240520324, -0.035487153885091285, -0.3677017700355134, -0.029145242579061047, 0.0, -0.01422671978470428, 0.06448706965645999, -2.7536494731903076, 0.04668232053518295, -0.0395498281903565, 4.280888557434082, -0.7037939429283142, -1.1114465641120872e-16, -0.0002119292899866235, -1.5860467405095514e-20]
[4.699999999999991, 0.5956251391933095, 5.3415913581848145, -0.4937215745449066, 0.05320462119484857, -0.035299585981227455, 0.08295221652512019, -0.028392849900706552, 0.0, -0.012471631731813466, 0.06598011225901265, -2.752498149871826, 0.03826821967959404, -0.042407498415559526, 4.258000373840332, -0.6976317167282104, -2.617604546108902e-20, -0.00023089788575852985, -3.8281807536986136e-20]
[4.749999999999991, 0.6028616990790697, 5.301037788391113, -0.6531441807746887, 0.05229804413634189, -0.0650395797128594, 0.07692586265450571, -0.07988578069066116, 0.0, -0.0061119474711472215, 0.06633654819920216, -2.7511258125305176, 0.010651425458490849, -0.04518461148254573, 4.210264205932617, -0.6761515140533447, -2.114533161913754e-21, -0.0002387736693551905, -5.473440990912853e-20]
[4.799999999999991, 0.6105166013679681, 5.279882431030273, -0.6449125409126282, 0.05370568292034538, -0.08023040703676589, 0.07715986412276414, -0.10380532862188399, 0.0, -0.004867288261364319, 0.07202418504227379, -2.751434326171875, -0.0230219978839159, -0.05022916902205907, 4.188641548156738, -0.6514078378677368, -8.071212152556464e-22, -0.00028094221332068377, -1.635695376743287e-19]
[4.849999999999991, 0.5574189392447368, 5.238436698913574, -0.5354984998703003, 0.12139622101068277, -0.04765697759171115, 0.17197899915102152, -0.057163105302436165, 0.0, -0.017724651405945778, 0.07633518294468111, -2.7537648677825928, -0.1119038462638855, -0.054417454926297064, 4.145075798034668, -0.5848389267921448, -8.015717694367376e-21, -0.00032321586793684963, -3.473548253853184e-19]
[4.899999999999991, 0.49236480886482403, 5.217573642730713, -0.4730031192302704, -0.3111619114140798, -0.02576616678332169, -0.4591937352864526, -0.02926697754285356, 0.0, -0.02096715566599548, 0.08081354878132581, -2.7572078704833984, -0.12912553548812866, -0.05863916601985693, 4.121164321899414, -0.5693828463554382, -2.9914412870410566e-19, -0.0003401119017586568, -8.787246948768367e-19]
[4.94999999999999, 0.45248510191653585, 5.1894049644470215, -0.44862595200538635, -0.11277744590410495, 0.030364268173467303, -0.14911735796086129, 0.05022871379924253, 0.0, -0.024004712639872677, 0.08008116366073263, -2.762892007827759, -0.11897921562194824, -0.06104946052655578, 4.0858330726623535, -0.5734469294548035, -5.913918906051906e-19, -0.0003343979991825108, -1.0538697843264445e-18]
[4.99999999999999, 0.3900066747912879, 5.175452709197998, -0.38510429859161377, -0.05457359371644207, 0.04149364616847406, -0.06962732332104596, 0.05635447657138485, 0.0, -0.023583204492102532, 0.07755778960878006, -2.765537977218628, -0.09799589961767197, -0.06089907418936491, 4.0667643547058105, -0.5879505276679993, -5.3510203603520896e-18, -0.0002967565690593096, -1.6541231266751305e-18]
[5.04999999999999, 0.3533172426246393, 5.151546478271484, -0.34995219111442566, -0.041538956691166445, 0.0283181961283886, -0.052509941224580914, -0.10278113247203526, 0.0, -0.02991369293596179, 0.07632172530523718, -2.770024538040161, -0.10731048882007599, -0.06043822757899761, 4.0242719650268555, -0.6258567571640015, -2.134643365510709e-17, -0.0002846681255171602, -1.801271975393709e-18]
[5.09999999999999, 0.34914589101788707, 5.139471054077148, -0.40938472747802734, -0.03980936639152999, 0.0008717011932097586, -0.05366246083265014, -0.13088197797154696, 0.0, -0.029596405814033267, 0.0800766548954785, -2.773336172103882, -0.14183516800403595, -0.05946460884064436, 4.003807067871094, -0.62751305103302, -4.9448936076812984e-18, -0.0003004514515518479, -2.8958100709258836e-18]
[5.14999999999999, 0.3714508552532233, 5.102775573730469, -0.6881354451179504, -0.04678240516078581, -0.06293396558787613, -0.06437053279596072, -0.12840001563253112, 0.0, -0.028228700461650002, 0.08277084737407259, -2.783928632736206, -0.2027003914117813, -0.0602406708151102, 3.960846185684204, -0.6117453575134277, -5.06256211582975e-19, -0.0003039775996625948, -3.876930410557064e-18]
[5.1999999999999895, 0.49959389522858205, 5.0516252517700195, -1.004577398300171, -0.4344176300332838, -0.06360641103575985, -0.7388664817591256, -0.08646165900446467, 0.0, -0.02840885239731863, 0.08786154728405654, -2.795469284057617, -0.23285463452339172, -0.06053287275135517, 3.923757314682007, -0.5961765050888062, -3.0591224572125156e-24, -0.00028323404967955387, -9.256974127093875e-18]
[5.249999999999989, 0.5351688898400753, 5.006824016571045, -1.210251808166504, 0.23968223722663282, -0.05847368985853897, 0.3646161378242491, -0.06829988685461472, 0.0, -0.027289727782771042, 0.08903320423106552, -2.8032686710357666, -0.2463430017232895, -0.06101653575897217, 3.899198293685913, -0.5862752199172974, -1.815714243257039e-29, -0.00025979022385211797, -1.743119552378331e-17]
[5.299999999999989, 0.6711285319211774, 4.929062366485596, -1.2591713666915894, 0.04158020316446156, -0.05236572006065956, 0.06222024287644253, -0.11800213324705544, 0.0, -0.019620486813449974, 0.09303601942290718, -2.816462516784668, -0.2799297273159027, -0.06224961459636688, 3.8635106086730957, -0.559532105922699, -7.265264924294434e-31, -0.0002429567759626184, -2.7375865383627517e-17]
[5.349999999999989, 0.6762962471468983, 4.878603458404541, -1.2225208282470703, 0.0408723871734878, -0.08029015666145677, 0.06174852151896814, -0.22703841857540724, 0.0, -0.012053671252966563, 0.09529003788126275, -2.8273799419403076, -0.3461343050003052, -0.06314935103058815, 3.8409202098846436, -0.5332021117210388, -5.6651731979172015e-30, -0.00023473394676879153, -3.512385368515799e-17]
[5.399999999999989, 0.6896080330511363, 4.840357303619385, -1.0871467590332031, 0.039049193451188555, -0.09498349268690413, 0.06662551547709714, -0.24549676817729996, 0.0, -0.010400740723632219, 0.11106970941484454, -2.839010238647461, -0.5245928764343262, -0.06517924018204212, 3.8239388465881348, -0.45956316590309143, -2.6016553353273434e-27, -0.00018229544643888555, -9.576723067503134e-17]
[5.449999999999989, 0.6749394954153187, 4.767518520355225, -0.9437904357910156, 0.04318646740000491, -0.07357827797410815, 0.07734435770310466, -0.12043569144259839, 0.0, -0.024713438629348262, 0.11846949568713298, -2.8735923767089844, -0.6137964725494385, -0.06625654511153697, 3.7924280166625977, -0.4017782509326935, -5.877093796399516e-26, -0.00014460409273625818, -1.5236654641890888e-16]
[5.4999999999999885, 0.5902273782879359, 4.738871097564697, -0.8194171786308289, 0.08642478763444082, -0.05182497657977305, 0.17561638858898143, -0.09002376067305386, 0.0, -0.02664544531980075, 0.1319382704646236, -2.8931639194488525, -0.6487448811531067, -0.06542773589491845, 3.7797112464904785, -0.3757174611091614, -4.7994528578043515e-21, -7.337340179178657e-05, -3.993240755808098e-16]
[5.549999999999988, 0.5390228978215837, 4.6910552978515625, -0.5767325758934021, 0.20499016957534388, -0.003096131041769215, 0.46293987737539755, 0.0020735069949298383, 0.0, -0.024618982517588903, 0.13425423184552795, -2.93646502494812, -0.6566334366798401, -0.06250356808304786, 3.754124879837036, -0.3630184233188629, -1.072018973312981e-18, -5.5452376659698904e-05, -5.231258357965571e-16]
[5.599999999999988, 0.46143007231618205, 4.673829555511475, -0.5045955181121826, -0.10607532687676997, 0.0022014919060030576, -0.2916706518785562, 0.01714599305421676, 0.0, -0.022796392162333298, 0.13514876477543897, -2.95674729347229, -0.6442881226539612, -0.05004286482930183, 3.7422306537628174, -0.36574313044548035, -2.2759116092732173e-16, -4.0085359291683e-05, -6.941342233158478e-16]
[5.649999999999988, 0.45054331305932405, 4.640650749206543, -0.4590905010700226, -0.08237194180877368, 0.05748838353323491, -0.23745190081407613, 0.12374221851454781, 0.0, -0.014518980523933859, 0.1333625320211297, -2.9950578212738037, -0.5876532196998596, -0.04680693008005619, 3.71295428276062, -0.38954904675483704, -5.769550698540502e-16, -3.1688833801713104e-05, -8.719637079808127e-16]
[5.699999999999988, 0.43694432375310305, 4.62566614151001, -0.4473678171634674, -0.05346662449318126, 0.08350738531286184, -0.18560982844303567, 0.1704009492618562, 0.0, -0.011508010230685341, 0.12713605672453251, -3.0114517211914062, -0.5325921773910522, -0.036868983507156367, 3.698500633239746, -0.4162602126598358, -1.946442312461654e-15, -3.0103667641686656e-05, -8.811875122130173e-16]
[5.749999999999988, 0.43632200807995464, 4.596781253814697, -0.4242249131202698, -0.04808670869259616, 0.17343665812173367, -0.17721765641891982, 0.13231334533618885, 0.0, -0.018994216132842974, 0.12229562120888865, -3.0390541553497314, -0.3849298357963562, -0.03338408902287483, 3.6636240482330322, -0.5199801325798035, -4.9702323004503906e-15, -2.9377681375285604e-05, -8.073391486038668e-16]
[5.799999999999987, 0.4976841807470248, 4.567559719085693, -0.5508067011833191, -0.15123948438334875, 0.10785521920993717, -0.7849070531138955, -0.0024717047961833557, 0.0, -0.03700559091921787, 0.11403095424589173, -3.0584182739257812, -0.3497360348701477, -0.02458925575017929, 3.6276419162750244, -0.5944077372550964, -1.4481198566913085e-15, -2.4442043464284188e-05, -5.773890035408939e-16]
[5.849999999999987, 0.5452316886109425, 4.542809009552002, -0.6663079261779785, 0.0669567040266665, 0.039683723857420826, 0.3362157343918965, -0.07307568539247465, 0.0, -0.039821970471054, 0.11411631154488949, -3.0713281631469727, -0.3609261214733124, -0.023194589167833325, 3.602052927017212, -0.6166554689407349, -9.624178689172013e-18, -1.9545072603897155e-05, -6.544703900764431e-16]
[5.899999999999987, 0.6880285415178133, 4.513938903808594, -0.7313611507415771, 0.013211028792758525, 0.02087673190842405, 0.07120928850133204, -0.0907176484214549, 0.0, -0.03924450256766835, 0.11769208137953958, -3.0852105617523193, -0.39088016748428345, -0.02185443580150604, 3.576115608215332, -0.6222518682479858, -1.6511082341654512e-18, -1.6736633397200297e-05, -8.612894876804595e-16]
[5.949999999999987, 0.7131511882779076, 4.470965385437012, -0.6544703245162964, 0.011818911853010546, -0.05599468726297998, 0.06545448700535632, -0.2565605421795315, 0.0, -0.030602965239792855, 0.12341434731819763, -3.110509157180786, -0.5189102292060852, -0.022301501035690306, 3.5378410816192627, -0.5985549092292786, -3.840175936050772e-18, -1.4153505711309983e-05, -1.170757642887367e-15]
[5.999999999999987, 0.7272306196882286, 4.446537971496582, -0.5483485460281372, 0.013933165103660465, -0.07464611340119079, 0.07055264612910188, -0.2578592294547828, 0.0, -0.02893788759224224, 0.14227932745955438, -3.1332578659057617, -0.6515606641769409, -0.028123329877853386, 3.5139100551605225, -0.5566202402114868, -1.072357582878379e-15, -6.504277902643649e-06, -3.16200454998648e-15]
[6.0499999999999865, 0.7274920076484264, 4.421358585357666, -0.2623179852962494, 0.01501055950388736, -0.07366371200242634, 0.07397259037597692, -0.13788439533884247, 0.0, -0.03400944586826153, 0.14938029489634963, -3.1763086318969727, -0.7841030955314636, -0.03034227430820464, 3.4822967052459717, -0.4783398509025574, -1.1095592465026415e-14, -2.599940053437619e-06, -8.371231123415437e-15]
[6.099999999999986, 0.6364775804878184, 4.415018081665039, -0.04696236550807953, 0.03004308644471638, -0.03479600801861259, 0.13755740914768463, -0.05902964781829579, 0.0, -0.03395149680256877, 0.1622687782738466, -3.207926034927368, -0.8074080348014832, -0.03556286200881003, 3.4634077548980713, -0.4523981809616089, -1.1950977284812703e-10, -1.6782540854356075e-06, -1.2613239136928556e-14]
[6.149999999999986, 0.6200578094738851, 4.421177864074707, 0.25596848130226135, 0.03489571301646545, -0.014665116209614743, 0.15966947919720612, 0.009583248073884915, 0.0, -0.02578794932832017, 0.1642636980759276, -3.2557625770568848, -0.7956416606903076, -0.03606741428375243, 3.436413049697876, -0.43556100130081177, -5.564715939112547e-10, -1.405395389645849e-06, -1.4789577696129305e-14]
[6.199999999999986, 0.5111970823736591, 4.431075572967529, 0.3668230473995209, 0.21195875830049413, -0.010296866337609336, 1.5041127008878066, 0.02297853656782878, 0.0, -0.02345529136086035, 0.16612938578909164, -3.280736207962036, -0.7773922085762024, -0.035829187780618645, 3.422372817993164, -0.43089765310287476, -9.395728299659162e-09, -8.541894559202603e-07, -2.3761350895407325e-14]
[6.249999999999986, 0.5024341178227331, 4.459980010986328, 0.4893033802509308, -0.19287649809687574, 0.012126653539615657, -1.1731202099350666, 0.08460014150277301, 0.0, -0.014370703933416377, 0.16693129778888469, -3.3313443660736084, -0.7171717882156372, -0.03536193788051602, 3.392653465270996, -0.4341850280761719, -1.1297583619721737e-08, -6.058478978115583e-07, -3.2878785084994044e-14]
[6.299999999999986, 0.4776771068218435, 4.489444732666016, 0.5073869824409485, -0.09657873394159351, 0.06647053646407859, -0.5037148212584629, 0.21900976995281368, 0.0, -0.011988895289719704, 0.16510297083654676, -3.3718035221099854, -0.6272450685501099, -0.03313815072178837, 3.36586332321167, -0.4548858404159546, -9.841135385163375e-09, -5.344418337662514e-07, -3.6832365746636396e-14]
[6.349999999999985, 0.4916231373867716, 4.510417461395264, 0.5786214470863342, -0.13008656466162372, 0.1328152268523622, -0.7640836105698781, 0.314179598333606, 0.0, -0.010931440326480196, 0.16320678076796666, -3.394326686859131, -0.4890768826007843, -0.03086043953895565, 3.346705198287964, -0.5036517381668091, -8.345926436341633e-09, -5.131258234005552e-07, -3.404394484340312e-14]
[6.399999999999985, 0.4803660911933658, 4.548140048980713, 0.6699351668357849, -0.04591743012064337, 0.21850587568481653, -0.47683845691373056, 0.23336232754965822, 0.0, -0.035003790579007245, 0.14188240009368075, -3.4158565998077393, -0.259198397397995, -0.014204459562897653, 3.3117423057556152, -0.6374639868736267, -5.137702551378994e-09, -4.7505510301273995e-07, -2.2398631087892823e-14]
[6.449999999999985, 0.49300793531636267, 4.574670791625977, 0.659187376499176, -0.04253473227564161, 0.19539971608066972, -0.7137369748918585, 0.08844734441509099, 0.0, -0.06922807259003844, 0.13638727851197055, -3.42405104637146, -0.1947065144777298, -0.008866692818701258, 3.2828140258789062, -0.7292861342430115, -3.1631151054796677e-09, -3.7237931068824745e-07, -1.049085687398548e-14]
[6.499999999999985, 0.5415185223436241, 4.611186981201172, 0.5679688453674316, -0.01701674861378632, 0.07166827890017732, 0.41535443513296566, -0.14750763763872105, 0.0, -0.099420035876047, 0.12882563923734786, -3.4351093769073486, -0.2149282991886139, 0.005433278046548378, 3.2347021102905273, -0.797412097454071, -2.569597579517436e-09, -3.4708145416905215e-07, -8.906180483383462e-15]
[6.549999999999985, 0.5695971257654737, 4.632429122924805, 0.500105619430542, -0.01403139647894152, 0.03338634608000267, 0.23190397842643257, -0.2622206535840418, 0.0, -0.10084798135870697, 0.13043799374200768, -3.444667100906372, -0.2851703464984894, 0.007963885348290215, 3.201486349105835, -0.8060243725776672, -2.0766455236975666e-09, -3.3475821219316553e-07, -9.251236958451898e-15]
[6.5999999999999845, 0.6044954421631374, 4.648280143737793, 0.519987940788269, -0.013583121012191893, 0.023668651303367115, 0.1653931941388428, -0.3184211743616564, 0.0, -0.09888465701107504, 0.14618406084928126, -3.455207347869873, -0.39747703075408936, 0.01206119921058418, 3.175042152404785, -0.8011554479598999, -1.220116025866405e-09, -2.7570337626183295e-07, -1.7113210521454955e-14]
[6.649999999999984, 0.5852788817215995, 4.688254356384277, 0.6547554135322571, -0.017714927476187026, -0.006719318097892099, 0.2230826677963077, -0.242910655622433, 0.0, -0.08258170965241046, 0.15827568730128375, -3.492473840713501, -0.6917893886566162, 0.012674807123839883, 3.1200497150421143, -0.7752434611320496, -1.0857482584710844e-09, -2.0278062363362718e-07, -2.3971874866706228e-14]
[6.699999999999984, 0.5063078228369651, 4.730626106262207, 0.7659858465194702, 0.0777931425770688, -0.017251229371340594, -1.3847860429364718, -0.05789599706403689, 0.0, -0.07138076350820628, 0.18183686202634658, -3.537646532058716, -0.7929793000221252, 0.014423064775765004, 3.0733940601348877, -0.7514209151268005, -5.166462112790536e-10, -5.830613522428379e-08, -5.923168312015631e-14]
[6.749999999999984, 0.481542296541238, 4.762162208557129, 0.8091514110565186, 0.04567764211011804, -0.017940917079990647, -0.6153233135864778, 0.025885550889208336, 0.0, -0.06200790278189146, 0.18643471601447353, -3.569211483001709, -0.7857998013496399, 0.01476350083947195, 3.0430634021759033, -0.7403457760810852, -3.276747992623404e-10, -2.8221701166986342e-08, -1.25350047736406e-13]
[6.799999999999984, 0.3809837592218627, 4.8134541511535645, 0.9363568425178528, 0.01545259530918411, -0.020858026320437914, -0.1567863064870963, 0.048459219936310395, 0.0, -0.04568371741914176, 0.18902432354571994, -3.6143715381622314, -0.7206929326057434, 0.01870795533061046, 2.998067617416382, -0.7256644368171692, -7.457503490045706e-11, -2.267535441568582e-08, -1.8719060295671073e-13]
[6.849999999999984, 0.3528354327827814, 4.851916790008545, 0.9623729586601257, 0.014013740855074213, -0.016251941740547508, -0.13005680835453323, -0.06882674064468183, 0.0, -0.03143874358696326, 0.19051629753985874, -3.642627716064453, -0.7072151899337769, 0.02058764055371308, 2.967447280883789, -0.7167474627494812, -3.8021321362920493e-11, -2.0651716860496695e-08, -2.3015143702888914e-13]
[6.8999999999999835, 0.3298468246375153, 4.906708240509033, 0.8586641550064087, 0.019045293511635124, 0.014139441863559758, -0.1211110001859485, -0.26590754758116597, 0.0, -0.01341381389356192, 0.20320866697558687, -3.6868302822113037, -0.7890068292617798, 0.03203767828643366, 2.9223275184631348, -0.7134056091308594, -1.8376606107470957e-11, -1.0221483217852923e-08, -4.5392284840293646e-13]
[6.949999999999983, 0.33545410430233047, 4.938699245452881, 0.7399184107780457, 0.02290072490214505, 0.03563479632618388, -0.13011303499421412, -0.31272428041298167, 0.0, -0.004170784046799133, 0.21167861383689585, -3.720065116882324, -0.8767664432525635, 0.037368650883436924, 2.8923754692077637, -0.7198132872581482, -1.934901654137572e-11, -2.812776693233309e-09, -7.184897292374551e-13]
[6.999999999999983, 0.4031822530228135, 4.974602699279785, 0.4589158892631531, 0.048560470092438, 0.05011373943885093, -0.2322798498924468, -0.28302122749651065, 0.0, 0.010915343998642, 0.23418089063980285, -3.775831699371338, -0.9747458100318909, 0.04943980202078906, 2.8470191955566406, -0.7358003854751587, -2.1463742830763925e-11, -1.4216040689857854e-09, -8.69437456809343e-13]
[7.049999999999983, 0.441482414464846, 4.987973213195801, 0.23378081619739532, 0.07757914641081086, 0.046990400386487455, -0.36323304553443897, -0.23893893548697906, 0.0, 0.020105545972759938, 0.2413704990971844, -3.815664291381836, -1.0160752534866333, 0.05280909121036655, 2.816397190093994, -0.7460912466049194, -1.3677690359750564e-11, -3.735500595381809e-10, -1.2493238419809646e-12]
[7.099999999999983, 0.5630040163521537, 4.992520809173584, -0.043679263442754745, -0.10716628589742742, 0.03687795321815488, 0.47898277926933364, -0.19098434788849028, 0.0, 0.029432198144319778, 0.25511070657541457, -3.8782923221588135, -1.0720798969268799, 0.0595482744276539, 2.769916534423828, -0.7617049217224121, -4.2754789423736526e-13, -1.997452461180698e-10, -1.526706056618055e-12]
[7.149999999999983, 0.6021479903001732, 4.987712860107422, -0.17855459451675415, -0.06821134474247133, 0.036002794697104164, 0.2954225207151487, -0.19870645053633584, 0.0, 0.03278603236205288, 0.2599043440074857, -3.92195987701416, -1.1116300821304321, 0.06098688602447694, 2.7385613918304443, -0.7717218399047852, -7.698554731023941e-14, -1.1285750116351174e-10, -1.845665286635829e-12]
[7.199999999999982, 0.6780708116371217, 4.974432945251465, -0.17908155918121338, -0.039914498567688424, 0.04574179765096963, 0.17252526835902593, -0.1920556774907078, 0.0, 0.0358620036061506, 0.2714376792311878, -3.9918792247772217, -1.2199395895004272, 0.06314448446035659, 2.689321994781494, -0.7982317209243774, -2.5760862285268045e-15, -2.093448480803986e-11, -2.733618348618696e-12]
[7.249999999999982, 0.6655901772164166, 4.968787670135498, -0.09674666076898575, -0.04310100545228628, 0.03860318352668708, 0.1918696284759706, -0.060004724685908846, 0.0, 0.042933418398472666, 0.280123832225802, -4.042844295501709, -1.276291012763977, 0.06335315272212368, 2.653855323791504, -0.8210012912750244, -8.913695984915768e-15, -2.465559406362542e-12, -3.406765354544808e-12]
[7.299999999999982, 0.5766786959965036, 4.968761920928955, 0.12546232342720032, -0.09502617911722235, 0.0002701561390110094, 0.43674939930387735, 0.07764756108374124, 0.0, 0.04605380275591296, 0.28848180323839334, -4.119849681854248, -1.2311664819717407, 0.0650032655894799, 2.6001646518707275, -0.8317311406135559, -2.370546217725198e-13, -1.4368960897317733e-12, -4.270599445373654e-12]
[7.349999999999982, 0.5324125749316523, 4.9762797355651855, 0.25979211926460266, -0.18055468785758078, -0.012750839064081022, 0.947383804893716, 0.10646186817148924, 0.0, 0.04408673518260388, 0.2888714158535014, -4.168259143829346, -1.1571464538574219, 0.06494881242514573, 2.5648465156555176, -0.8211472630500793, -4.032932828476365e-12, -1.0418140294724106e-12, -9.152542638848069e-12]
[7.399999999999982, 0.41168805987865437, 4.98576545715332, 0.3440123200416565, 0.06422855951851096, -0.015075610793358073, -0.295286461018443, 0.11574186944043705, 0.0, 0.042461139669837764, 0.2771543796360502, -4.204745292663574, -1.09677255153656, 0.06125392645598959, 2.537243604660034, -0.8103229999542236, -6.618165923411403e-12, -9.363359860113493e-13, -1.4999464041616032e-11]
[7.4499999999999815, 0.37222773928307307, 5.011524200439453, 0.4178905785083771, 0.04571626957190033, -0.05152749304454331, -0.2105568678875852, 0.24814052106908954, 0.0, 0.03463432593375557, 0.27289933979511344, -4.275718688964844, -0.9534143805503845, 0.059733826033794866, 2.479998826980591, -0.782220184803009, -7.2575561116404335e-12, -8.388179571769578e-13, -2.3828694728612057e-11]
[7.499999999999981, 0.3230185203008724, 5.034245491027832, 0.3505006432533264, 0.032019805719153006, -0.12118571378027483, -0.14557281203010172, 0.4338194636076776, 0.0, 0.02335081369211757, 0.25406680405140003, -4.32800817489624, -0.7505782842636108, 0.05610089331874401, 2.432398557662964, -0.7299332618713379, -4.631316699301615e-12, -8.570224753854209e-13, -9.090040521846182e-11]
[7.549999999999981, 0.30209480612276174, 5.04573392868042, 0.24546533823013306, 0.02875077891834714, -0.16791679578408966, -0.12796222719919131, 0.4659391326777849, 0.0, 0.021595166287776187, 0.24792063772678466, -4.355495929718018, -0.6002017259597778, 0.0558709496261415, 2.4029479026794434, -0.6811953186988831, -3.4917271006177537e-12, -9.203848351359076e-13, -1.7257278302701093e-10]
[7.599999999999981, 0.3328182108774978, 5.051421165466309, 0.13311977684497833, 0.03484030277342405, -0.18915410653084258, -0.13843700043435533, 0.45286798481577956, 0.0, 0.02539596356561899, 0.2287937474250802, -4.37335729598999, -0.49691176414489746, 0.05778801083674929, 2.3810408115386963, -0.6385798454284668, -3.906912071711209e-13, -8.888062601994371e-13, -1.10169938843515e-09]
