time, uz, alt, vel_alt, uthe, roll, uphi, pitch, upsi, yaw, ux, pos_x, vel_x, uy, pos_y, vel_y, Fz, Fx, Fy
[0.0, 0.510485862794332, 2.9443583488464355, 0.027666958048939705, 0.8171478466851267, -0.01688142205923141, 1.4534949694855732, 0.012013131431160416, 0.0, -0.026928260345528837, 0.03821187108755139, 3.1153640747070312, -0.06764520704746246, -0.04100048727473795, 0.12233512848615646, -0.02863866277039051, -8.353406345217445e-09, -2.79173207391859e-13, 2.0897389867025566]
[0.05, 0.5111096735522328, 2.9455204010009766, 0.026718655601143837, 0.8199929627612785, -0.016649729593663124, 1.3085316541109733, 0.012178411147806042, 0.0, -0.02702956865051319, 0.038310796022415765, 3.113588333129883, -0.06661622226238251, -0.042511287408397866, 0.12106522917747498, -0.027153771370649338, -1.9943759078340237e-08, -6.068915663309375e-13, 4.104446398542595]
[0.1, 0.5251677072867607, 2.9517736434936523, 0.12464135140180588, 0.2937498781967594, -0.015271045660364777, 0.26680504955325185, 0.0634194848012532, 0.0, -0.028269629368968985, 0.0384219808876524, 3.1091790199279785, -0.05029749125242233, -0.04408365632370717, 0.11846201866865158, -0.020735224708914757, -2.802761645873689e-07, -9.548033483750225e-13, 6.06285369918353]
[0.15000000000000002, 0.5781958427829039, 2.955575704574585, 0.11361287534236908, 0.0703534295398954, 0.03631137092356274, 0.053795136592988124, 0.20688577939379027, 0.0, -0.03488004898665168, 0.03403346449136891, 3.10817551612854, -0.012363411486148834, -0.044604149803308124, 0.11724938452243805, -0.024056311696767807, -6.223134944913252e-06, -1.5690398891632466e-12, 7.834777541247484]
[0.2, 0.6343713248022185, 2.960538864135742, 0.10439293086528778, 0.03541793885727702, 0.08717727376057897, 0.01987101484582577, 0.27651417240674514, 0.0, -0.03742457711449221, 0.022907806187870403, 3.1097142696380615, 0.1068849191069603, -0.040850461553293436, 0.11477331817150116, -0.06629444658756256, -1.2864248005039352e-05, -2.2824268196277452e-12, 8.704670574027274]
[0.25, 0.7113922374894659, 2.9692699909210205, 0.1553247720003128, 0.005553130144822609, 0.4501254304114424, -0.005154433488668126, 0.4959523769409336, 0.0, -0.040658999591104535, -0.009620852097867928, 3.125093936920166, 0.42501384019851685, -0.010365179737211721, 0.10343986004590988, -0.31151920557022095, -5.6975082823317055e-05, -9.930347134199466e-13, 4.599436518849388]
[0.3, 0.7749771275758404, 2.9790196418762207, 0.09293150901794434, -0.007196817580326419, 0.5747063314329818, -0.011215195105194689, 0.3899800242271572, 0.0, -0.13407788374725624, -0.02754352089017649, 3.1665055751800537, 0.6923454999923706, 0.01767541906446002, 0.06410311162471771, -0.7682600617408752, -5.8709309930095195e-05, 1.9399465225824338e-13, 1.0756293067357843]
[0.35, 0.8839887119845444, 2.981191396713257, 0.07044682651758194, -0.017565287839595878, 0.4769554120305069, -0.012621141581267668, 0.3060942661289845, 0.0, -0.19509963254787788, -0.04374880742281703, 3.1863925457000732, 0.73872971534729, 0.060894637579307034, 0.04001855477690697, -0.9335612058639526, -3.567457887614084e-05, 2.764643708698226e-13, 0.006343474402953188]
[0.39999999999999997, 0.9197671973699904, 2.9964046478271484, 0.4059978723526001, -0.02311748174466744, 0.2745512171188919, -0.014040464929517217, 0.2046721767166973, 0.0, -0.22435521784298534, -0.053325292095542196, 3.2446227073669434, 0.8891929984092712, 0.08781807663059815, -0.04339039698243141, -1.338902473449707, -0.00019573360420538496, 2.3876568630184477e-13, -0.016373965433073973]
[0.44999999999999996, 0.8485566627413472, 3.0374393463134766, 0.9727916121482849, -0.03812986656657746, 0.17149774598319026, -0.02178733776549434, 0.11622259037978834, 0.0, -0.2082326022170834, -0.06837388893589386, 3.2999985218048096, 0.9615471959114075, 0.11972815886119273, -0.13087520003318787, -1.5582607984542847, -0.005435394339692763, 7.558309843106721e-14, -0.0019061563339424234]
[0.49999999999999994, 0.8033045587401754, 3.0855307579040527, 1.4134842157363892, -0.04881937251652425, 0.1206724897908925, -0.027067588785839633, 0.0762171332264707, 0.0, -0.1823632561962248, -0.0735970639251173, 3.3385353088378906, 0.9798780083656311, 0.13286217543411596, -0.19512702524662018, -1.6526120901107788, -0.0009147236766501173, 4.8699991409126715e-14, -0.0007291429076868065]
[0.5499999999999999, 0.6384667444046412, 3.1291730403900146, 1.6954929828643799, -0.12728499807305638, 0.08952191682430734, -0.06775023361192227, 0.05049055884031178, 0.0, -0.15751939417319652, -0.08078909391537312, 3.365795135498047, 0.9824633002281189, 0.1527234632080863, -0.24148739874362946, -1.694909930229187, -8.892396799869753e-10, 2.1018268038164845e-14, -0.00018070698482807487]
[0.6, 0.6264787974293964, 3.2715065479278564, 2.233407974243164, -0.14515485063252642, 0.05360132762919654, -0.07670173423351385, 0.02252116690087904, 0.0, -0.12484506936831422, -0.08296423861756923, 3.435697317123413, 0.967564046382904, 0.15827360418655076, -0.3639226257801056, -1.740784764289856, -1.4523594967157525e-13, 1.5208974256483347e-14, -0.00013311423460521195]
[0.65, 0.6147675330215968, 3.3351705074310303, 2.3209831714630127, -0.16816649111311166, 0.029649119775978262, -0.08831477843095956, 0.00871872601802715, 0.0, -0.10903591754138146, -0.08597600854933263, 3.4624552726745605, 0.9561513662338257, 0.1654890364698068, -0.4119988977909088, -1.7397089004516602, -5.834548461137947e-20, 8.136315726679353e-15, -0.00011970856496248992]
[0.7000000000000001, 0.6572799169332959, 3.505040407180786, 2.392695903778076, -0.12174142108482802, -0.024588405354265024, -0.06352834094441652, -0.021179069747513112, 0.0, -0.08744781172532579, -0.08683241290971637, 3.5296506881713867, 0.9161361455917358, 0.16733927883812297, -0.5347954630851746, -1.700695514678955, -4.538185138286355e-21, 6.2256969156281415e-15, -0.0001394436608380846]
[0.7500000000000001, 0.7554906226130564, 3.6486032009124756, 2.4053215980529785, -0.07364969191243052, -0.07289158082925548, -0.03855782008227831, -0.04727052357704929, 0.0, -0.06950766347349663, -0.08777052626013757, 3.5830130577087402, 0.8664427399635315, 0.1679968044486597, -0.6339792013168335, -1.6321160793304443, -2.9744526060495964e-22, 3.745143174957885e-15, -0.0002780881479208983]
[0.8000000000000002, 0.8087933483008531, 3.74587082862854, 2.447974920272827, -0.06010845275134548, -0.09496578379255136, -0.03171739857738868, -0.05807623455903455, 0.0, -0.05867505238913075, -0.08786181624978781, 3.6167662143707275, 0.8255603909492493, 0.16673795279358536, -0.6975131034851074, -1.569392204284668, -1.167484854287435e-22, 3.0632214067847385e-15, -0.00044029449133074815]
[0.8500000000000002, 0.8389231425171326, 3.8158116340637207, 2.530428647994995, -0.05297054829935766, -0.09714451022417712, -0.028320637954934412, -0.057480364680173236, 0.0, -0.0510797103616633, -0.08635741218924523, 3.639380693435669, 0.7931472063064575, 0.1616946204030763, -0.7404159307479858, -1.5177820920944214, -7.622964189799164e-26, 2.1118953802940624e-15, -0.001470262731199526]
[0.9000000000000002, 0.8161185147569876, 4.0120697021484375, 2.9195621013641357, -0.0556120854617851, -0.08096620833242903, -0.030003427384299265, -0.04481008139012426, 0.0, -0.04342016720061836, -0.0851484676077962, 3.6933014392852783, 0.7094758749008179, 0.1580113737260952, -0.8439083695411682, -1.3764874935150146, -1.6153881604362792e-29, 1.8091207280217163e-15, -0.002776828969933104]
[0.9500000000000003, 0.6768862834489187, 4.200281620025635, 3.3215982913970947, -0.0972718582841347, -0.06519258266265247, -0.05335328181145484, -0.03199129396232388, 0.0, -0.036420050918648236, -0.08260002221912145, 3.733388662338257, 0.6519085168838501, 0.15114196695990284, -0.9269767999649048, -1.2751821279525757, -6.530502918034375e-41, 1.2555464609569537e-15, -0.008572830328522761]
[1.0000000000000002, 0.5977107288181962, 4.338714599609375, 3.5667898654937744, -0.17896114244170572, -0.05782475647965266, -0.10005323236231581, -0.026522280618104934, 0.0, -0.03253525369110911, -0.08160606803372503, 3.758317470550537, 0.6196193695068359, 0.14779041507181254, -0.9794078469276428, -1.217982530593872, -1.6846262928049482e-47, 1.0489829664874915e-15, -0.013591841724770175]
[1.0500000000000003, 0.41711073886746214, 4.441048622131348, 3.7013485431671143, 0.1625238499737087, -0.05383856012700402, 0.09324266579584745, -0.023434838500404745, 0.0, -0.02900826372457076, -0.08050584042444825, 3.7750473022460938, 0.5998615622520447, 0.141777351657679, -1.0147833824157715, -1.1837581396102905, -1.1035258643078104e-60, 6.998859892106128e-16, -0.02712861709822616]
[1.1000000000000003, 0.38318436158953634, 4.712287425994873, 3.764272689819336, 0.11793526343004228, -0.06619185280372533, 0.06589355828596284, -0.029581729246071536, 0.0, -0.024554460296432743, -0.0775587852858007, 3.8159308433532715, 0.5560754537582397, 0.13956165195679646, -1.1010301113128662, -1.1137313842773438, -1.2569015691570302e-63, 5.746870171725146e-16, -0.03608902221898003]
[1.1500000000000004, 0.31493732372336625, 4.817022323608398, 3.698429584503174, 0.07506892988896613, -0.08218013823219285, 0.04042050784049522, -0.038600686386585085, 0.0, -0.022118399795930006, -0.0731136690825224, 3.830984354019165, 0.5393121242523193, 0.13607933499652716, -1.1332136392593384, -1.0895296335220337, -1.2512756837656106e-62, 3.804336402833506e-16, -0.05282590899439096]
[1.2000000000000004, 0.341153395801564, 5.073671817779541, 3.3898842334747314, 0.08661474227200894, -0.023249380638612416, 0.0435352906240397, -0.00855633684383198, 0.0, -0.02574422394332655, -0.06817015807144344, 3.867994785308838, 0.5105535984039307, 0.13600967862340413, -1.2127958536148071, -1.0547252893447876, -1.6355316142009377e-59, 3.1337096946071085e-16, -0.06315481546126396]
[1.2500000000000004, 0.3784170698111151, 5.266518592834473, 3.031273126602173, 0.11145341669275313, 0.05437301092966344, 0.05180689117666183, 0.0346246455257069, 0.0, -0.028510485986168545, -0.06323563675861806, 3.8978850841522217, 0.5038432478904724, 0.13666758449581862, -1.2779805660247803, -1.058519721031189, -4.195510802518589e-50, 2.0313825614377411e-16, -0.061703602051735265]
[1.3000000000000005, 0.41387924745466675, 5.383094310760498, 2.7927346229553223, 0.1520034979431017, 0.08422174126335791, 0.06808061937520306, 0.05373948343972673, 0.0, -0.028680601126364592, -0.06074330151139293, 3.9177169799804688, 0.5035348534584045, 0.13678137654006559, -1.321611762046814, -1.0701217651367188, -2.2846873293771242e-45, 1.6426575219439603e-16, -0.05822712123471469]
[1.3500000000000005, 0.4506641060594963, 5.459877014160156, 2.6342015266418457, 0.24269523165927062, 0.10001004453602151, 0.10806004016255255, 0.06479814684033373, 0.0, -0.02839000123026431, -0.05965731116943061, 3.9312446117401123, 0.5044249892234802, 0.13694660983503368, -1.354337215423584, -1.0811340808868408, -4.865526285174951e-37, 1.0406824532549604e-16, -0.04107854784039419]
[1.4000000000000006, 0.4705855371129374, 5.6391215324401855, 2.280442953109741, 0.35753659593031306, 0.11139913659049278, 0.15970103365536586, 0.070224900881087, 0.0, -0.027315935749046925, -0.05883877722546458, 3.9662203788757324, 0.5125805139541626, 0.1382300055065494, -1.4405804872512817, -1.1165668964385986, -4.306461261351434e-34, 8.375704345329483e-17, -0.03390886274390973]
[1.4500000000000006, 0.4600643936245926, 5.702194690704346, 2.1656641960144043, 0.298740774734622, 0.124153181335089, 0.13073108144335133, 0.07362060179416918, 0.0, -0.02558127025201996, -0.060849812012165785, 3.9800188541412354, 0.5176041722297668, 0.14375015685060624, -1.4747178554534912, -1.1343498229980469, -1.3354319211578032e-29, 5.1930991089630674e-17, -0.0193803916275664]
[1.5000000000000007, 0.43872887895147916, 5.850297927856445, 1.9144243001937866, 0.21861851851263295, 0.1754962338281052, 0.0934442175789492, 0.09117486230522773, 0.0, -0.020890161915937195, -0.0619039967469871, 4.016645908355713, 0.5384834408760071, 0.1473949244557219, -1.5637422800064087, -1.198528528213501, -3.6683266692276487e-28, 4.0957829802219056e-17, -0.014134788353968034]
[1.5500000000000007, 0.37890640695019434, 5.903201580047607, 1.821624755859375, 0.1291473323028631, 0.22583425671876495, 0.05381355720149494, 0.11070610334241297, 0.0, -0.016348297485633108, -0.06544533584266901, 4.031367778778076, 0.5503997802734375, 0.1580178143403148, -1.5997087955474854, -1.2345564365386963, -6.744414236293558e-26, 2.3825277625582404e-17, -0.0054875335311474075]
[1.6000000000000008, 0.34104676583819626, 6.0264410972595215, 1.5575320720672607, 0.10530436076456874, 0.26775282241977566, 0.04340951686079884, 0.12858425673798937, 0.0, -0.011777946705859493, -0.06801589228212833, 4.071298599243164, 0.5897766947746277, 0.16566000635839728, -1.696306824684143, -1.3448790311813354, -1.0763799606983728e-24, 1.6735755919062298e-17, -0.00262717820430704]
[1.6500000000000008, 0.2955692767458946, 6.068995475769043, 1.4306864738464355, 0.08881054992900825, 0.26186289754275516, 0.036163296467111535, 0.12724608090193273, 0.0, -0.012193132622860219, -0.07190025426447391, 4.087576389312744, 0.6032167673110962, 0.17707838403302306, -1.7358858585357666, -1.3836948871612549, -7.806507459731701e-23, 9.533685619386073e-18, -0.0007897825824621831]
[1.7000000000000008, 0.26093911608128806, 6.160301208496094, 1.043221116065979, 0.07879223702030393, 0.21493632693835607, 0.03188119530360064, 0.10792263135004229, 0.0, -0.016353887757060447, -0.07361618738621473, 4.130987167358398, 0.6247242093086243, 0.18234580008824236, -1.840983510017395, -1.4550734758377075, -7.263426204591816e-22, 7.038317989501638e-18, -0.0004392727173095466]
[1.7500000000000009, 0.2405311127551733, 6.188623428344727, 0.8706294894218445, 0.076606612543188, 0.17706245733054257, 0.030825032796973826, 0.09008941386109032, 0.0, -0.018888760277662408, -0.07700798947364092, 4.148333549499512, 0.6283152103424072, 0.19178648662628195, -1.8843976259231567, -1.4727224111557007, -1.900732573638847e-20, 3.712985615722761e-18, -0.00015121759436763306]
[1.800000000000001, 0.23264642554287468, 6.237151622772217, 0.3843226432800293, 0.07582091281215185, 0.12803165818882176, 0.030378862095416407, 0.06504304256071729, 0.0, -0.020413900286796762, -0.07811328884214164, 4.1933088302612305, 0.6285267472267151, 0.19536311685220703, -1.9977821111679077, -1.499267816543579, -2.773821057935034e-20, 2.7637066874193184e-18, -9.833948121792066e-05]
[1.850000000000001, 0.2663747626825376, 6.246230125427246, 0.18274080753326416, 0.08932093295713986, 0.10572100335154679, 0.03563464309981362, 0.05238723488546402, 0.0, -0.020207625399365176, -0.08049420114606619, 4.210748672485352, 0.626997709274292, 0.2023459287760826, -2.0421254634857178, -1.505325436592102, -1.816618428517524e-21, 1.486951603696143e-18, -4.284363708021314e-05]
[1.900000000000001, 0.26139025794113047, 6.242771148681641, -0.3494049906730652, 0.08868884270202325, 0.08137766743462095, 0.0353284679479801, 0.037819159641091414, 0.0, -0.018465969565073483, -0.08143473848700522, 4.25527811050415, 0.6188566088676453, 0.2050147021983695, -2.15531587600708, -1.513367772102356, -7.439426980069994e-23, 1.1163352614113573e-18, -2.9844505790427262e-05]
[1.950000000000001, 0.320479905168507, 6.23126220703125, -0.5484818816184998, 0.11947068290753489, 0.0734423469796922, 0.047512666877560665, 0.032159003897946015, 0.0, -0.016812738141877455, -0.08351753547787666, 4.2724199295043945, 0.6156136989593506, 0.21108928733060497, -2.199352264404297, -1.5156828165054321, -1.469432859388816e-27, 6.085144952248464e-19, -1.3862945055666038e-05]
[2.000000000000001, 0.3160013833594415, 6.176027774810791, -1.053894281387329, 0.11815913870838522, 0.07355924108371575, 0.046912040443328036, 0.03048324676841171, 0.0, -0.013781935051369118, -0.08440880164504051, 4.316079139709473, 0.6065307855606079, 0.21367700659258196, -2.3118507862091064, -1.520510196685791, -1.7473504960366796e-30, 4.579217242604138e-19, -9.616444812200933e-06]
[2.0500000000000007, 0.3837633871425058, 6.145089149475098, -1.2316473722457886, 0.1852772984229249, 0.07875553951181635, 0.07379824278836218, 0.032266177261656016, 0.0, -0.012014596706628541, -0.08649814583361148, 4.33286714553833, 0.6031041741371155, 0.2198805925644551, -2.3556134700775146, -1.5232560634613037, -6.555391927776805e-38, 2.5030568852275556e-19, -4.21177488903306e-06]
[2.1000000000000005, 0.3402228083166008, 6.042541980743408, -1.680646538734436, 0.1404832891587785, 0.09602930864530516, 0.05584638461804673, 0.03948979322812095, 0.0, -0.008661786214987775, -0.0879654761403799, 4.375640869140625, 0.594515323638916, 0.22286295097457737, -2.467804431915283, -1.532558798789978, -9.111522060377322e-42, 1.8851043675220332e-19, -2.7953323456940678e-06]
[2.1500000000000004, 0.4150584129336377, 5.995153427124023, -1.8307764530181885, 0.2537619941816487, 0.10802299789950777, 0.10181728129207572, 0.04471224903355431, 0.0, -0.006800467142130159, -0.08990180090069771, 4.3930463790893555, 0.5934118628501892, 0.2293976236459029, -2.511537551879883, -1.538063645362854, -1.395894815871604e-50, 1.0108248816658104e-19, -1.0755074214380474e-06]
[2.2, 0.4238340270359762, 5.85400390625, -2.2217369079589844, 0.2820198018673482, 0.13935410956163358, 0.11369152111797223, 0.05753374332396567, 0.0, -0.003495113725742019, -0.0911857046186924, 4.438203811645508, 0.5925574898719788, 0.23288780969819653, -2.6243503093719482, -1.5583869218826294, -1.183279079143134e-54, 7.39845565227185e-20, -6.544463622434843e-07]
[2.25, 0.48710197083539475, 5.791435241699219, -2.357057809829712, 0.8044683498104315, 0.15675894780222913, 0.41988324845107117, 0.0646435692437409, 0.0, -0.0017234161969291847, -0.09474143333733082, 4.455724239349365, 0.5942507982254028, 0.24144408925233354, -2.6686010360717773, -1.5704021453857422, -2.787104732927274e-64, 3.7717080710386e-20, -2.028601546617911e-07]
[2.3, 0.5038341149442094, 5.613215446472168, -2.677563190460205, 1.1428937117581486, 0.19803207921888363, 1.0364032327839023, 0.08057282389913446, 0.0, 0.0013764579450702935, -0.09655658394098282, 4.5005621910095215, 0.6021301746368408, 0.2460061634473573, -2.7839174270629883, -1.6138372421264648, -3.712509942198201e-68, 2.734893460632718e-20, -1.072953986986638e-07]
[2.3499999999999996, 0.5597962547933227, 5.538418292999268, -2.7441868782043457, -0.5001729296908441, 0.2536963195676173, -0.21704923655227906, 0.10468631141252238, 0.0, 0.004106802574801135, -0.10177400566637515, 4.518247127532959, 0.6136896014213562, 0.25828881596312114, -2.8297815322875977, -1.647696852684021, -1.0724963944215248e-73, 1.3272518514114232e-20, -1.9596897151632444e-08]
[2.3999999999999995, 0.5687244736361102, 5.45081090927124, -2.811133623123169, -0.4484244852135262, 0.3001612489171032, -0.19154923933405302, 0.12581034490049664, 0.0, 0.006221450907938671, -0.10554632596671581, 4.538857460021973, 0.6376326084136963, 0.26672835227695013, -2.883570671081543, -1.7046658992767334, -6.684226871552251e-75, 8.940641967245773e-21, -5.929699581446696e-09]
[2.4499999999999993, 0.6247280872048208, 5.258078575134277, -2.9109697341918945, -0.2720490818387614, 0.6729724604838156, -0.11223714739572681, 0.30565360623263244, 0.0, 0.04066679360681848, -0.1198454100638628, 4.58729362487793, 0.7704159617424011, 0.29850207775835863, -3.0072200298309326, -1.9733778238296509, -3.178401244367594e-76, 2.613014168174856e-21, -4.640065143989309e-11]
[2.499999999999999, 0.6652253646432813, 5.045483112335205, -3.0943355560302734, -0.22480424712464794, 0.9327634952718299, -0.09430529438709667, 0.3012595045215795, 0.0, -0.030571058515604255, -0.13607393115758898, 4.649683475494385, 0.9132504463195801, 0.3304386043548586, -3.167926788330078, -2.5109729766845703, -2.2603740727709878e-77, 9.877086083386832e-22, -2.047687381326524e-13]
[2.549999999999999, 0.7877584209028482, 4.958469867706299, -3.209014654159546, -0.14738263728757128, 0.9801858471983819, -0.058578512835222724, 0.25754698600111997, 0.0, -0.14306219235401393, -0.15096933834254742, 4.676967620849609, 0.9191380143165588, 0.3828297707438469, -3.2409958839416504, -2.7263693809509277, -1.795151365113464e-83, 2.993462062972595e-22, -4.634477281878974e-18]
[2.5999999999999988, 0.8273151276571564, 4.854855060577393, -3.340214967727661, -0.1381824513093187, 0.9529632081251762, -0.0533103729305845, 0.23826430580398372, 0.0, -0.1949882557063641, -0.15692791946232318, 4.708164215087891, 0.9023966789245605, 0.409565811753273, -3.331186532974243, -2.9382529258728027, -2.970220059948478e-87, 1.9352953178910706e-22, -1.4451249788996688e-20]
[2.6499999999999986, 0.9112909727102732, 4.626851558685303, -3.3743531703948975, -0.12389978092395117, 0.641499640045379, -0.04318309471132255, 0.15878703978162187, 0.0, -0.31909751341331843, -0.1607049485296011, 4.771263599395752, 0.8348190784454346, 0.463608418405056, -3.5454797744750977, -3.411916494369507, -1.2774158528276143e-86, 9.191651699420531e-23, -6.381385941370494e-27]
[2.6999999999999984, 0.8868882343210328, 4.397374153137207, -3.0440196990966797, -0.13793881183059212, 0.40144511974678915, -0.046532031940144374, 0.07971928780645234, 0.0, -0.3294393881219594, -0.1626538060605526, 4.8324079513549805, 0.7762594819068909, 0.48542504668235775, -3.805722713470459, -3.8094699382781982, -1.4712356858480088e-81, 6.424298906177991e-23, -4.054742553776454e-30]
[2.7499999999999982, 0.8152837071063244, 4.316030502319336, -2.846501588821411, -0.1806621636526793, 0.25842137407131616, -0.05965836436910841, 0.03591493285425679, 0.0, -0.3061737586442541, -0.16899609051644804, 4.854988098144531, 0.7524690628051758, 0.5177158263325691, -3.9131386280059814, -3.8957014083862305, -2.2218252742135336e-66, 3.049531064417847e-23, -2.907783596912637e-35]
[2.799999999999998, 0.7559405526280867, 4.133269786834717, -2.2946841716766357, -0.22528883599504926, 0.11585716439060414, -0.07608354775575628, -0.0030142773340673347, 0.0, -0.25148410508387414, -0.17375850044190883, 4.909262657165527, 0.6869395971298218, 0.5239017894864082, -4.195548057556152, -3.954742193222046, -9.870050773394963e-59, 2.1952281647422525e-23, -1.0351408934210086e-36]
[2.849999999999998, 0.6506669987298879, 4.072893142700195, -2.1117022037506104, -0.38328923053495056, 0.05060287723129872, -0.13531106785591537, -0.02191006270414497, 0.0, -0.21194436213398624, -0.1774898251146078, 4.929059028625488, 0.6613168120384216, 0.5305433669686317, -4.3055291175842285, -3.9373483657836914, -9.037378940924177e-45, 1.1276586261557006e-23, -2.630085481430573e-38]
[2.8999999999999977, 0.6212786261545696, 3.9375476837158203, -1.7644842863082886, -0.4671720101888013, -0.022516042348492825, -0.17303000276882055, -0.04235049878466927, 0.0, -0.16888419544105682, -0.18025358028709887, 4.976144790649414, 0.594575047492981, 0.528102548122406, -4.584409713745117, -3.829186201095581, -3.5910612060672878e-40, 8.37127232254578e-24, -1.3481310300168205e-38]
[2.9499999999999975, 0.6437369924421629, 3.890261650085449, -1.7147610187530518, -0.39645093562435424, -0.07728593761595136, -0.14594384794035073, -0.057703261864383126, 0.0, -0.1429433634085422, -0.18218902878463267, 4.994396209716797, 0.5720877051353455, 0.5244390952587128, -4.690161228179932, -3.7738986015319824, -1.1603131370172618e-34, 4.41145857512121e-24, -9.976787119538656e-39]
[2.9999999999999973, 0.7057041336433302, 3.7712433338165283, -1.6974819898605347, -0.2770623747605857, -0.20090350143026703, -0.10032814729990396, -0.09996119223888401, 0.0, -0.10596257659068466, -0.18258681513369082, 5.038578033447266, 0.5079060196876526, 0.5184049122780562, -4.9539079666137695, -3.5847392082214355, -6.572590320574356e-34, 3.231345998658278e-24, -1.314277114549971e-38]
[3.049999999999997, 0.8493825511763617, 3.7251245975494385, -1.6925067901611328, -0.16051089295186047, -0.26495179778958305, -0.05770369202195455, -0.12283932068238004, 0.0, -0.08751791059300273, -0.18170276537537575, 5.054281711578369, 0.4748713970184326, 0.5101005072519184, -5.052380084991455, -3.485184907913208, -2.554720701517028e-33, 1.7625788886108627e-24, -9.292365606063775e-38]
[3.099999999999997, 0.9492182944044245, 3.6077768802642822, -1.6217960119247437, -0.12254956179817726, -0.30489805418548555, -0.044209608879873304, -0.1329591705999107, 0.0, -0.06800235979701087, -0.1800802933424711, 5.0889410972595215, 0.3740471303462982, 0.5018622689694165, -5.291797637939453, -3.175342559814453, -6.396357389725003e-33, 1.3683708037571713e-24, -4.090916665849795e-37]
[3.149999999999997, 1.0636271824333037, 3.565452814102173, -1.474295735359192, -0.09328137978170503, -0.2812729151000761, -0.03378048294341611, -0.11901686658825855, 0.0, -0.06304677276156188, -0.1733941826224327, 5.10020637512207, 0.3243560791015625, 0.48029542848467827, -5.378239154815674, -3.0161397457122803, -7.1773460596692305e-28, 8.316599527426543e-25, -4.439580749131419e-35]
[3.1999999999999966, 1.0852506858420412, 3.4822041988372803, -0.833505392074585, -0.08749418180831853, -0.2038555965079555, -0.03184983835273757, -0.07992253266321171, 0.0, -0.059317122879275694, -0.1698624128103256, 5.122294902801514, 0.2096276879310608, 0.4678997904062271, -5.580536365509033, -2.615858793258667, -4.2497011379839165e-23, 6.691744882812416e-25, -4.5104872952266015e-34]
[3.2499999999999964, 0.9620076510250501, 3.4648282527923584, -0.47886908054351807, -0.10539651502142666, -0.16835523845698924, -0.038868537421623495, -0.061057498716450054, 0.0, -0.054469258225484325, -0.1629103934764862, 5.128754615783691, 0.17276714742183685, 0.4435049724578858, -5.651625633239746, -2.469059467315674, -1.2559603064350242e-10, 4.373551028967166e-25, -2.6150833079314325e-32]
[3.2999999999999963, 0.8696257304096666, 3.4664955139160156, 0.45151618123054504, -0.1290818052987705, -0.12414104443789142, -0.048133321797045873, -0.03939250044436368, 0.0, -0.046451775038939096, -0.16055291369557378, 5.140758991241455, 0.10514363646507263, 0.4331383195519447, -5.817725658416748, -2.1638753414154053, -1.2317277624047942e-06, 3.6986211601116315e-25, -8.619597433371687e-32]
[3.349999999999996, 0.6325221020698552, 3.4852707386016846, 0.8033990859985352, -0.34912842406640815, -0.10757142450965244, -0.13771357257288333, -0.030600546023555053, 0.0, -0.03996669180448155, -0.15737469181418418, 5.1450419425964355, 0.08685965836048126, 0.4173324623703957, -5.877146244049072, -2.0680694580078125, -0.00013237525413402346, 2.7623307181391443e-25, -2.4445639213207555e-31]
[3.399999999999996, 0.5456392807840176, 3.576420783996582, 1.5624418258666992, -0.8425724089833263, -0.09971585347768505, -0.44107431196369956, -0.026417548414579856, 0.0, -0.031111798683107428, -0.15593481048941613, 5.153810501098633, 0.047161903232336044, 0.40961421668529513, -6.018609523773193, -1.8573989868164062, -2.083125406406734e-06, 2.442827421565324e-25, -2.820374281356228e-31]
[3.4499999999999957, 0.42197348008038643, 3.6230111122131348, 1.6702558994293213, 0.4470415905074887, -0.11239156713781295, 0.1854068572499831, -0.031687608464494914, 0.0, -0.025817308991498582, -0.15301783338189123, 5.156394958496094, 0.034480929374694824, 0.3979383409023285, -6.069986820220947, -1.7993966341018677, -4.330843363345732e-11, 1.9665968918708166e-25, -1.7187757214905575e-31]
[3.4999999999999956, 0.4355897521491916, 3.7484045028686523, 1.7052974700927734, 0.5073917991288183, -0.22692463447487826, 0.21610792778829002, -0.08156724721325276, 0.0, -0.01657009540956002, -0.15139970583841206, 5.1599836349487305, -0.02109425514936447, 0.39252519875764846, -6.1942138671875, -1.6316661834716797, -7.445320434201058e-12, 1.7977271051259336e-25, -1.1425176202371654e-31]
[3.5499999999999954, 0.48500966387171635, 3.796741485595703, 1.6658525466918945, 0.9427916671639409, -0.38241605602311785, 0.5557534198316156, -0.1485231859339593, 0.0, -0.006184705924206606, -0.1438415317237377, 5.159864902496338, -0.058247361332178116, 0.37550761818885803, -6.238673686981201, -1.5349335670471191, -1.0488130047705077e-11, 1.3819129480242086e-25, -9.05834392376153e-32]
[3.599999999999995, 0.5559386943442358, 3.913435220718384, 1.4835368394851685, -0.6802019778954542, -0.6204553671236549, -0.31490281433751505, -0.1400159948994859, 0.0, -0.03398505860943424, -0.13868783056735992, 5.153752326965332, -0.15493559837341309, 0.36225092411041254, -6.3374104499816895, -1.1836577653884888, -3.2406409383209736e-11, 1.1915029126899538e-25, -1.2777568148172717e-31]
[3.649999999999995, 0.668094880626148, 3.9550578594207764, 1.405326008796692, -0.21879698340933748, -0.7062576199001799, -0.0889731834244105, -0.06924408182749864, 0.0, -0.1065941019848666, -0.1307106801867485, 5.149790287017822, -0.1688675880432129, 0.32709589213132856, -6.368036270141602, -1.0028083324432373, -1.0320747621941541e-09, 1.0682408647138898e-25, -3.969018940163288e-31]
[3.699999999999995, 0.757421590545052, 4.0543532371521, 1.3148471117019653, -0.1315680424664923, -0.6442277822700809, -0.056831346659899855, 0.0685257064326064, 0.0, -0.2520478456162925, -0.13046063289046286, 5.141768455505371, -0.04627564921975136, 0.3039427754282951, -6.4216532707214355, -0.4882408678531647, -2.626657946420939e-09, 1.2961671302128984e-25, -6.275096245677768e-31]
[3.7499999999999947, 0.7543086786712884, 4.0927653312683105, 1.3164546489715576, -0.11569653031733104, -0.5394950083089516, -0.06310844832087731, 0.07849267230750043, 0.0, -0.2734442578715738, -0.14308348514139652, 5.141647815704346, 0.030656035989522934, 0.26366622939705847, -6.433751583099365, -0.3136747181415558, -1.3935713727278196e-09, 2.5604391102079187e-25, -6.311694330952182e-31]
[3.7999999999999945, 0.7343598219946795, 4.198554515838623, 1.5609838962554932, -0.11456629018460311, -0.4069682313239279, -0.06960927218100965, 0.0093817894888416, 0.0, -0.2294500324205751, -0.14497744768857956, 5.149030685424805, 0.1561724990606308, 0.23985398113727568, -6.442792892456055, 0.13831761479377747, -2.553491756887178e-10, 2.9338449396715524e-25, -4.187019309323508e-31]
[3.8499999999999943, 0.5837901543896985, 4.245706558227539, 1.6956285238265991, -0.2788741191974938, -0.3335468138754476, -0.21525296002114672, -0.016740993673064412, 0.0, -0.19847377102466798, -0.14952525824308396, 5.153499603271484, 0.1700000762939453, 0.2004471760988235, -6.437826156616211, 0.2895669937133789, -5.0691503818762404e-14, 2.7515735762386874e-25, -1.001029403635379e-31]
[3.899999999999994, 0.5126058574457544, 4.383477687835693, 2.0059142112731934, -0.8815446718388531, -0.25477513576900657, -1.4084929494771021, -0.03239436956922997, 0.0, -0.16200752373256955, -0.1474932197481394, 5.165521144866943, 0.1701485961675644, 0.18136304289102553, -6.407833576202393, 0.5809640288352966, -3.1074285375633966e-16, 2.5077666223452955e-25, -5.123414908868103e-32]
[3.949999999999994, 0.3632369705524021, 4.441822528839111, 2.047130823135376, 0.1133942563558093, -0.2213016963873705, 0.10716966345272805, -0.05245528688443746, 0.0, -0.13553448996074377, -0.1463328067958355, 5.169890880584717, 0.1596757024526596, 0.15579717427492143, -6.391381740570068, 0.6506018042564392, -7.656326449043858e-20, 1.9954554436875697e-25, -2.2064175900398806e-32]
[3.999999999999994, 0.3399791217557716, 4.591279029846191, 1.9658329486846924, 0.09237349832565386, -0.2521690663838294, 0.09071471025945128, -0.13884022294402612, 0.0, -0.09260934568507169, -0.14333742015063763, 5.178861141204834, 0.09619920700788498, 0.14657597467303274, -6.340919494628906, 0.7906280159950256, -3.277452304365693e-20, 1.7722526245108097e-25, -1.9677123076387062e-32]
[4.049999999999994, 0.3165828662856056, 4.64631986618042, 1.8731240034103394, 0.07216219617635238, -0.3466477397762023, 0.07543584930768649, -0.2476439212277543, 0.0, -0.05781829262217425, -0.13548263732576743, 5.180705547332764, 0.052688825875520706, 0.12995181158185004, -6.318566799163818, 0.8497607111930847, -2.356388367362102e-18, 1.3097454960144592e-25, -1.7402834329713755e-32]
[4.099999999999993, 0.33420118074634236, 4.773782730102539, 1.5800000429153442, 0.07263666945680355, -0.5030243499232798, 0.07895864611098415, -0.3156326803476584, 0.0, -0.028301819800725866, -0.12891561321914197, 5.1788411140441895, -0.08705203980207443, 0.11892628192901611, -6.25138521194458, 1.052929401397705, -3.731408319387749e-17, 1.0900774496389e-25, -1.3114356397871385e-32]
[4.149999999999993, 0.38563445752532716, 4.817391872406006, 1.4324346780776978, 0.08321621762596781, -0.5948987394246831, 0.10183135506334572, -0.2890687837900286, 0.0, -0.043697924183646215, -0.11778023496270179, 5.174603462219238, -0.1311776041984558, 0.09663930863142015, -6.223031044006348, 1.1355576515197754, -2.8122490452142214e-14, 7.923876825551861e-26, -5.2069701480082354e-33]
[4.199999999999993, 0.42506990798973565, 4.910141944885254, 1.0511904954910278, 0.10827562322066989, -0.650541069698719, 0.14443169310554807, -0.19094324286608072, 0.0, -0.11523196910257306, -0.11448399513959884, 5.158934593200684, -0.19933313131332397, 0.08646209940314292, -6.139543533325195, 1.3781797885894775, -4.3253727052748606e-13, 7.570187137878926e-26, -3.000958304075522e-33]
[4.249999999999993, 0.4994157631060938, 4.939337730407715, 0.923621654510498, 0.40001628083213603, -0.5751813432617469, 0.8407454633337251, -0.12814913843258074, 0.0, -0.15608907204182568, -0.10960190683603287, 5.151913166046143, -0.20953987538814545, 0.062191019654273955, -6.101917743682861, 1.4777706861495972, -8.445302782870372e-12, 8.480631377279865e-26, -5.1639357323959295e-34]
[4.299999999999993, 0.5362727455705821, 4.997955799102783, 0.633777916431427, -0.19277122565673963, -0.3742089293126227, -0.41368885285269325, -0.04667253497029822, 0.0, -0.1834885802249229, -0.10690049305558204, 5.133857727050781, -0.21513448655605316, 0.05190792448818682, -5.993431091308594, 1.6534385681152344, -1.4083480704395235e-11, 9.604854623970328e-26, -3.2506735839939843e-34]
[4.3499999999999925, 0.5670971259105503, 5.016783237457275, 0.6085883975028992, -0.06287870034534511, -0.23443637356583086, -0.1944557106105949, 0.032829720292523866, 0.0, -0.19182126498350485, -0.10421825259923935, 5.126922130584717, -0.20635387301445007, 0.0339578345417976, -5.948121547698975, 1.7062079906463623, -1.0637495838507495e-11, 1.3695464017152022e-25, -2.936636452729126e-34]
[4.399999999999992, 0.5518404915511642, 5.065836429595947, 0.6998394131660461, -0.06580747421012964, -0.0537648562512197, -0.26604208387331413, 0.18514501974296976, 0.0, -0.18972848398812445, -0.10567007705569266, 5.113595485687256, -0.07953546196222305, 0.026487423405051225, -5.8270039558410645, 1.7306863069534302, -7.923277774840792e-12, 1.8369040118255588e-25, -5.266624236224557e-34]
[4.449999999999992, 0.4733591475003107, 5.087559223175049, 0.7369115948677063, 0.05965039534264507, 0.05550579838335493, 0.33566891729838755, 0.16414326062857346, 0.0, -0.1698070679500173, -0.11847229547798634, 5.111454963684082, -0.019328564405441284, 0.021479341760277743, -5.780332565307617, 1.6944518089294434, -3.081336998882528e-12, 3.863083343242575e-25, -1.329936255500151e-32]
[4.499999999999992, 0.4282246276531197, 5.146245002746582, 0.7663652300834656, 0.0298820258487538, 0.07080174598554938, 0.1599131238694847, 0.01575507023216885, 0.0, -0.15068532922275768, -0.12224099263548852, 5.110872745513916, 0.02093859203159809, 0.022946933060884467, -5.66552734375, 1.5773998498916626, -1.874784441781166e-12, 4.404801452362942e-25, -1.140844327650533e-31]
[4.549999999999992, 0.3446108782443997, 5.169958591461182, 0.7905720472335815, 0.015337297028434657, 0.01792295476268663, 0.07858070441730006, -0.07705716344481947, 0.0, -0.13449454496425983, -0.12069911513477563, 5.110435962677002, -0.0053355093114078045, 0.023584034442901608, -5.624002933502197, 1.5515992641448975, -7.480182788752312e-13, 4.1115680179156087e-25, -4.259656675191164e-30]
[4.599999999999992, 0.3021006239542764, 5.2310099601745605, 0.7111319899559021, 0.010707781025292535, -0.034328148153441644, 0.061015662744724655, -0.04791139867637326, 0.0, -0.10688274390753613, -0.11771178871393202, 5.105618000030518, -0.07042691111564636, 0.020671129748225187, -5.519044399261475, 1.5292350053787231, -4.5427222985179513e-13, 3.7268712387076993e-25, -1.4016965377989713e-29]
[4.6499999999999915, 0.3164416940523357, 5.250852108001709, 0.5879936218261719, 0.007766079365860424, -0.039016875493196004, 0.06402200552701645, 0.016433911667033996, 0.0, -0.0902611418775846, -0.11500614464282989, 5.102890491485596, -0.07474260777235031, 0.013960438147187226, -5.478347301483154, 1.523069977760315, -3.538969158760204e-13, 3.741691119437579e-25, -1.3040412010271288e-28]
[4.699999999999991, 0.34239227300531916, 5.282826900482178, 0.19333449006080627, 0.00592654620270223, -0.030435270175412157, 0.07295495182173133, 0.08113596688131823, 0.0, -0.06655040393754953, -0.11352886468172073, 5.0963873863220215, -0.06317435204982758, 0.009230890460312335, -5.373316287994385, 1.5024868249893188, -1.857963513685227e-13, 4.003617467052069e-25, -3.8181863701375255e-28]
[4.749999999999991, 0.4278497664578967, 5.287111759185791, 0.02596268430352211, 0.003177255389733781, -0.025046656024751063, 0.1467767569267524, 0.09448651757385607, 0.0, -0.053312566293848895, -0.11256065636873246, 5.094156265258789, -0.05616515129804611, 0.002445363365113723, -5.332733631134033, 1.4932986497879028, -3.337340145865215e-15, 4.696816300693391e-25, -3.711712479420145e-27]
[4.799999999999991, 0.4810436776339892, 5.276288986206055, -0.393754780292511, -0.001034480135594713, -0.01831610648911659, 0.39830806910069344, 0.09328305425712952, 0.0, -0.03733874379562813, -0.11292898893356323, 5.089735984802246, -0.03596065938472748, -0.0003011989220976785, -5.2286763191223145, 1.4688092470169067, -1.386657108357558e-16, 5.044226142107518e-25, -1.0794321356377899e-26]
[4.849999999999991, 0.5877197246072773, 5.264403343200684, -0.531356930732727, 0.010026003121921742, -0.014145521832953893, -0.15789049679982867, 0.08780553448255739, 0.0, -0.027777100399478734, -0.11468412667512894, 5.088430881500244, -0.027359556406736374, -0.007313001472502967, -5.188596725463867, 1.4580618143081665, -3.255826894741134e-20, 5.750581403951316e-25, -1.0228552147060507e-25]
[4.899999999999991, 0.6148253728563178, 5.220969200134277, -0.7168048620223999, 0.011773873509815482, -0.009224942353480717, -0.11850322378457025, 0.11223097756387584, 0.0, -0.016415649720424672, -0.11567039757966996, 5.086917877197266, 0.01559024304151535, -0.011519892886281025, -5.086409568786621, 1.4270694255828857, -1.5564467250763583e-21, 6.1343056683192025e-25, -2.969187663113293e-25]
[4.94999999999999, 0.618532922364125, 5.202995300292969, -0.6894514560699463, 0.01949618753356514, -0.008023905024919316, -0.11913461476206891, 0.16360975407029033, 0.0, -0.010617804149192682, -0.12040567979216575, 5.088599681854248, 0.05891060456633568, -0.01975338585674763, -5.047715187072754, 1.4128245115280151, -6.812649265394821e-22, 7.336363301728417e-25, -2.8309616035281415e-24]
[4.99999999999999, 0.5774134537169247, 5.164814472198486, -0.5270048379898071, 0.03721346097188559, -0.009997849285888377, -0.19714566281865403, 0.08990770335897341, 0.0, -0.005137314411426037, -0.12479520797729492, 5.099869728088379, 0.1663627028465271, -0.023720737327821567, -4.949757099151611, 1.378566026687622, -1.0149218418133e-20, 7.816738991643381e-25, -7.892333457385078e-24]
[5.04999999999999, 0.5104700173004452, 5.152987003326416, -0.47483861446380615, 0.24848009574957997, -0.007014830357867265, -1.5361176095155393, 0.010649807597118244, 0.0, -0.0032355230107439592, -0.12556329354643822, 5.1055145263671875, 0.16983428597450256, -0.03187753044068814, -4.9122443199157715, 1.3642330169677734, -8.079489968721549e-19, 6.689210624479211e-25, -6.798990116732082e-23]
[5.09999999999999, 0.47052062593924626, 5.126225471496582, -0.41041597723960876, -0.09042100982873935, 0.0017931329184940569, 0.32629204390188393, -0.055948208910344584, 0.0, -0.001877281686606956, -0.12381410002708435, 5.1182942390441895, 0.12654799222946167, -0.03502294527366759, -4.817074775695801, 1.325286626815796, -3.1537845809188853e-18, 5.8586890542288225e-25, -1.857962341557827e-22]
[5.14999999999999, 0.42425686452761263, 5.116400241851807, -0.4043680727481842, -0.051887695452602446, 0.020737285095357848, 0.1486848625786271, -0.12001844568631972, 0.0, -0.00023729532063888355, -0.11903347074985504, 5.122124195098877, 0.09743878245353699, -0.04173093121498822, -4.7807841300964355, 1.3084660768508911, -8.586619097917451e-18, 4.322353003449369e-25, -1.5428182644405524e-21]
[5.1999999999999895, 0.4119771754857431, 5.091285705566406, -0.35968106985092163, -0.046869298113072964, 0.112765237172256, 0.12585574103149622, -0.25776116225171464, 0.0, 0.004683085819491347, -0.11494439750909805, 5.125221252441406, -0.07444192469120026, -0.0429505291581154, -4.6902756690979, 1.2187443971633911, -1.0403241085985028e-17, 3.5839474482136525e-25, -4.615211974874028e-21]
[5.249999999999989, 0.37312069460254427, 5.0824737548828125, -0.3688608407974243, -0.029485123739661927, 0.17055093680267908, 0.07893098090963216, -0.23868119080558503, 0.0, 0.015685510824030774, -0.10034010022878646, 5.12253999710083, -0.14946162700653076, -0.03753244947642087, -4.6572651863098145, 1.164528489112854, -3.3598070036952934e-17, 1.9297270675979223e-25, -9.507844173769361e-20]
[5.299999999999989, 0.38129484314148315, 5.0533952713012695, -0.5534892082214355, -0.026521601127442583, 0.16648471984085705, 0.0806184512278753, -0.1102659861527477, 0.0, 0.05223183878253478, -0.09637374341487884, 5.108860015869141, -0.2380136400461197, -0.03174654006958008, -4.579062461853027, 1.035170555114746, -9.225930780305048e-18, 1.6419974751632917e-25, -4.0643216219988044e-19]
[5.349999999999989, 0.44100939716470106, 5.038167953491211, -0.6662485003471375, -0.03414070293138354, 0.09262108443634916, 0.14639847363066166, -0.02894444198979462, 0.0, 0.06757505508599279, -0.09428243666887283, 5.10261344909668, -0.24555416405200958, -0.022074350640177737, -4.551132678985596, 1.0051910877227783, -1.5557288597966658e-20, 1.760867548465653e-25, -4.16444590009135e-18]
[5.399999999999989, 0.4855979178374473, 4.98353385925293, -0.9796484708786011, -0.07081771737938485, 0.012992797904744915, 0.39702096835571027, 0.030911110176348188, 0.0, 0.07094464403231994, -0.09482510983943938, 5.086232662200928, -0.2407275140285492, -0.017395967245101937, -4.482048988342285, 0.9643279314041138, -2.1570176796354042e-22, 2.0046178655391797e-25, -9.070369072960849e-18]
[5.449999999999989, 0.6035202330209388, 4.956427574157715, -1.085504412651062, 0.015850234554425597, -0.017144055042252287, -0.10905181745008664, 0.05625530611085103, 0.0, 0.06771532147771087, -0.09489665254950522, 5.080089569091797, -0.2332392781972885, -0.013821372911334048, -4.455695629119873, 0.956540048122406, -9.342078988633678e-27, 2.837550461395755e-25, -3.4116022735959694e-17]
[5.4999999999999885, 0.6686763759014624, 4.874289512634277, -1.2713146209716797, 0.005867831200332615, -0.027039414253349835, -0.06478363293102, 0.09209557658917308, 0.0, 0.05988014090522403, -0.09540513679385185, 5.0653533935546875, -0.19774490594863892, -0.00864754602313042, -4.3882880210876465, 0.9431257843971252, -1.1830968689646423e-28, 3.3984954742926233e-25, -5.941533814436778e-17]
[5.549999999999988, 0.7129481265544377, 4.8409833908081055, -1.2197856903076172, 0.004041070572627317, -0.02968928132771245, -0.05226947972133105, 0.13333818424742452, 0.0, 0.053288571850968566, -0.0984045122563839, 5.0606913566589355, -0.15887244045734406, -0.007611380070447926, -4.362191200256348, 0.9419940710067749, -1.2506093925732267e-28, 5.765950747730376e-25, -1.7378335067296188e-16]
[5.599999999999988, 0.7096826707680111, 4.764418125152588, -0.9882350564002991, 0.0032581650430123696, -0.01730106315500232, -0.05517717335501888, 0.059566521419391255, 0.0, 0.04593193704671081, -0.10221788793802261, 5.053685188293457, -0.0727892741560936, -0.006038964316248896, -4.2949604988098145, 0.9341850876808167, -9.815355729217654e-27, 7.65589399605308e-25, -2.7616281930944124e-16]
[5.649999999999988, 0.648816247980786, 4.739935398101807, -0.8620229959487915, 0.004948370963673475, -0.008978828835341523, -0.08055854591360902, 0.0005223481779284094, 0.0, 0.04063649100446815, -0.10386730134487152, 5.051955699920654, -0.07152626663446426, -0.006387087479233749, -4.2690510749816895, 0.9254752397537231, -1.1173306726932694e-21, 9.620264762028677e-25, -8.675932655625026e-16]
[5.699999999999988, 0.5916072220160407, 4.6925740242004395, -0.5454908013343811, 0.009539720414558195, -0.005013648897382692, -0.13334976371521884, -0.032165534019671906, 0.0, 0.03223750318387387, -0.10145929396152496, 5.046141624450684, -0.10680324584245682, -0.007280082255601878, -4.203615188598633, 0.8968163132667542, -7.859934956359466e-19, 9.537464120092422e-25, -1.7816176977453866e-15]
[5.749999999999988, 0.5379969262641711, 4.680046081542969, -0.46059924364089966, 0.03206243004744589, -0.0029279310826136815, -0.3600636332907964, -0.047091069086738734, 0.0, 0.026992993409328016, -0.09768617391586304, 5.043489933013916, -0.12443681806325912, -0.00889250457286834, -4.178445816040039, 0.8847948312759399, -7.575433661980175e-16, 9.137764969336077e-25, -5.25942950976222e-15]
[5.799999999999987, 0.5223605079447272, 4.655393123626709, -0.3451077938079834, 0.07267314965656507, 2.4347896156583863e-05, -0.6866569829204726, -0.07345577873834638, 0.0, 0.01979355719308684, -0.0939061164855957, 5.034148216247559, -0.1806052178144455, -0.010783871412277218, -4.115047931671143, 0.8539463877677917, -5.839368221523076e-15, 8.81885099288659e-25, -9.29305775402564e-15]
[5.849999999999987, 0.5346663704067561, 4.64724063873291, -0.3347313404083252, 0.06006282216871086, 0.0028429148455085314, -0.3630298310290983, -0.10147400453906118, 0.0, 0.015505770946406976, -0.08684035509824753, 5.029295921325684, -0.20702001452445984, -0.014705821275711043, -4.090961456298828, 0.8428546786308289, -2.6491188463783787e-14, 8.157447181959838e-25, -2.945912063275378e-14]
[5.899999999999987, 0.5540847201461516, 4.62566614151001, -0.34801188111305237, 0.039761760195488015, 0.018805609551128047, -0.198891907619052, -0.2344414961679495, 0.0, 0.008656501760007096, -0.08235145658254622, 5.0118184089660645, -0.3281380236148834, -0.016581194698810538, -4.030693531036377, 0.8081859350204468, -2.7675051023632868e-14, 7.507415742370622e-25, -5.0251236710718135e-14]
[5.949999999999987, 0.5792666015564883, 4.617330074310303, -0.32862454652786255, 0.027943417640478137, 0.03412734933044485, -0.10093779159315251, -0.34262576883819473, 0.0, 0.004040506574693531, -0.06501927878707647, 5.001808166503906, -0.4231657385826111, -0.018035103678703146, -4.008006572723389, 0.7886579036712646, -4.4425120939675057e-14, 3.794870821351929e-25, -1.6754094021747233e-13]
[5.999999999999987, 0.5803246129116478, 4.598209857940674, -0.29653671383857727, 0.027567781401608205, 0.0441499824060355, -0.07756959006716567, -0.3820602195919444, 0.0, 0.0020400729100028773, -0.05065906300325877, 4.96109676361084, -0.7254751920700073, -0.018026571124791786, -3.952690601348877, 0.7280957102775574, -9.228878373560654e-14, 1.787867813890254e-25, -3.1158669191097494e-13]
[6.0499999999999865, 0.6176624365575831, 4.591058254241943, -0.3026356101036072, 0.017224664681976493, 0.041620572265798995, -0.024528337471957498, -0.3263526820422787, 0.0, 0.004548489991250717, -0.02447966389358043, 4.939751148223877, -0.8205761313438416, -0.017193908691405167, -3.9323298931121826, 0.7053899168968201, -1.1160015538397082e-13, 3.774769730178634e-26, -1.0780566764956278e-12]
[6.099999999999986, 0.6343412402813534, 4.571903705596924, -0.3088100552558899, 0.01398672772680476, 0.03554267335331191, -0.01106987765019204, -0.23745288333851092, 0.0, 0.00693105036760736, -0.012757388502359385, 4.87436580657959, -0.9978523254394531, -0.016120268553493574, -3.8828237056732178, 0.6525132656097412, -1.1308087929518528e-13, 2.2979453317633637e-26, -1.8342158151334885e-12]
[6.149999999999986, 0.6702577697325113, 4.565155506134033, -0.29238268733024597, 0.00849567345773646, 0.03219185704364657, 0.006389664780744433, -0.1842938370364507, 0.0, 0.007125787147479075, 0.009490500241518027, 4.846844673156738, -1.046696424484253, -0.012618921697134513, -3.864041805267334, 0.6333218216896057, -1.9323372245643103e-13, 1.4641373935721874e-26, -5.23282224957372e-12]
[6.199999999999986, 0.6754543418897543, 4.5511322021484375, -0.19980019330978394, 0.006566765354908959, 0.025764610269736903, 0.012344868405800671, -0.11792112034470659, 0.0, 0.005933078891689407, 0.018930963613092905, 4.771333694458008, -1.131028413772583, -0.010070592612019829, -3.8179094791412354, 0.5875449180603027, -4.331263822863031e-13, 1.4789083078746087e-26, -8.296969939445783e-12]
[6.249999999999986, 0.66156086802426, 4.548091411590576, -0.1356445699930191, 0.005042690718600399, 0.021388953432567866, 0.022779311529258578, -0.08170146982280374, 0.0, 0.0043765143075496955, 0.03200286284089089, 4.740577220916748, -1.1513559818267822, -0.007085195034721772, -3.8008408546447754, 0.570805549621582, -5.780278162839476e-12, 2.3538161261373497e-26, -2.0585364269194152e-11]
[6.299999999999986, 0.6327146598043486, 4.549278736114502, 0.05961499363183975, 0.006183768299855986, 0.015529267332889129, 0.03297573677920821, -0.04633940224441471, 0.0, 0.002021875486363739, 0.037517547216266406, 4.658972263336182, -1.1780050992965698, -0.007036835290458035, -3.7593579292297363, 0.5321518778800964, -3.6237432716069673e-11, 3.876431453375061e-26, -3.355187450509469e-11]
[6.349999999999985, 0.5808297787476737, 4.553676128387451, 0.12950344383716583, 0.013359026359553203, 0.01241203121654345, 0.0672913807516518, -0.029729259861747074, 0.0, 0.00045392279795921893, 0.04424024846404792, 4.626855373382568, -1.1802269220352173, -0.008789953291350905, -3.743929862976074, 0.51913982629776, -2.940859131055144e-10, 1.0684223692566263e-25, -6.526729438147219e-11]
[6.399999999999985, 0.5541271399354483, 4.572086811065674, 0.26470446586608887, 0.029962602519218784, 0.008984953276337495, 0.11750595091139525, -0.010640812121470477, 0.0, -0.0014702107715610963, 0.04827885851264001, 4.5438714027404785, -1.1715466976165771, -0.012342596948056275, -3.706157684326172, 0.48957592248916626, -5.897788639526106e-10, 1.9998913982198455e-25, -9.054730902394578e-11]
[6.449999999999985, 0.5248379658512603, 4.591508388519287, 0.28129735589027405, 0.10931649290699495, 0.008545484533408521, 0.37407011261332673, 0.0078444521120352, 0.0, -0.0028208001750335237, 0.053983208835124974, 4.475272178649902, -1.1535382270812988, -0.016214448958463964, -3.6763052940368652, 0.4678132236003876, -9.21031059634417e-10, 8.624669002757138e-25, -1.713583175304884e-10]
[6.499999999999985, 0.5270645789266684, 4.604183673858643, 0.26042887568473816, 0.10736395188227481, 0.010510317977752417, 0.34324485290219886, 0.025184627314388534, 0.0, -0.0035785985121080085, 0.05652315407991411, 4.430121898651123, -1.135076880455017, -0.018101546391616825, -3.6572062969207764, 0.45273783802986145, -8.252344930857361e-10, 1.7852168362373754e-24, -2.279235304275516e-10]
[6.549999999999985, 0.5502683453532029, 4.6127028465271, 0.24829436838626862, 0.05603800964351128, 0.016161169045813266, 0.16810835931261478, 0.05029851625699247, 0.0, -0.004189752090656167, 0.06333699107170104, 4.398665904998779, -1.1171512603759766, -0.021235047652904553, -3.6438775062561035, 0.441855788230896, -4.81442406097054e-10, 9.647942241537584e-24, -4.129024473792225e-10]
[6.5999999999999845, 0.565524016908346, 4.631979942321777, 0.18854951858520508, 0.043755771788081176, 0.048600377101365624, 0.12743593599778139, 0.14806276681834876, 0.0, -0.004426944210223614, 0.06593541353940964, 4.32063102722168, -1.0299214124679565, -0.022715148333839145, -3.6113860607147217, 0.40012577176094055, -3.557184116250313e-10, 2.4266635918927952e-23, -5.522769543049482e-10]
[6.649999999999984, 0.5742135938310415, 4.638552188873291, 0.19129008054733276, 0.03791303766737797, 0.07055780164836796, 0.10723169477644362, 0.21615532904695373, 0.0, -0.003936787900191954, 0.06406270176172257, 4.292497158050537, -0.9665974974632263, -0.02270447351857649, -3.5997567176818848, 0.37494543194770813, -2.027083265171486e-10, 3.186254760445118e-22, -1.1213029403182146e-09]
[6.699999999999984, 0.5762473610804039, 4.655163764953613, 0.18415556848049164, 0.035917716236409374, 0.06571944190808691, 0.09895719444036338, 0.2119061698554117, 0.0, -0.00875189822635621, 0.06095689594745637, 4.22902250289917, -0.7913386821746826, -0.022170732280518822, -3.5736424922943115, 0.3069573938846588, -1.8360072939749698e-10, 1.2514897067385705e-21, -1.5832899550971403e-09]
[6.749999999999984, 0.5654111874463513, 4.6614227294921875, 0.18194268643856049, 0.03922643369709629, 0.055887796167687784, 0.10586646254898521, 0.1843920144492519, 0.0, -0.012247959588911074, 0.05457184314727784, 4.207528114318848, -0.7333537340164185, -0.020268584598608377, -3.5647575855255127, 0.28423136472702026, -1.379648552457626e-10, 1.3683488570224307e-20, -2.972720697405588e-09]
[6.799999999999984, 0.5633427790029033, 4.676428318023682, 0.17397311329841614, 0.039758289105544777, 0.044107807449098035, 0.10810206022266564, 0.14269547335032423, 0.0, -0.01546538577596451, 0.0536527505517006, 4.158733367919922, -0.616795003414154, -0.01978157285221047, -3.54490065574646, 0.23330965638160706, -1.2203748160018668e-10, 3.2636931828977456e-20, -3.798542386994899e-09]
[6.849999999999984, 0.5710241907908934, 4.682225227355957, 0.16989099979400635, 0.03065625989061909, 0.0395305928290834, 0.08706642618999078, 0.12206530037703625, 0.0, -0.0158685985881538, 0.049367156922817235, 4.14177942276001, -0.5801811814308167, -0.017409707972479673, -3.5381178855895996, 0.21629199385643005, -9.325135648944833e-11, 1.4092147193312171e-19, -5.888133084733039e-09]
[6.8999999999999835, 0.578010422233273, 4.695793628692627, 0.14888305962085724, 0.0267258306535151, 0.03709569241223992, 0.0750326737847048, 0.108401345692446, 0.0, -0.014953015859949284, 0.04738359451293945, 4.102511882781982, -0.4990173578262329, -0.01689739643826024, -3.5230090618133545, 0.17583419382572174, -7.877082820256983e-11, 2.49295100458143e-19, -7.0141147724347414e-09]
[6.949999999999983, 0.5791899947639476, 4.701205730438232, 0.14530089497566223, 0.023880559435160716, 0.03642005068812079, 0.06773178083742841, 0.10365526764846615, 0.0, -0.01391591252715595, 0.043499739021062855, 4.088317394256592, -0.469835489988327, -0.015351588939682945, -3.51702880859375, 0.1607404351234436, -5.575728650987829e-11, 7.163097005035249e-19, -9.878174232299747e-09]
[6.999999999999983, 0.5713618457197661, 4.714725494384766, 0.14545182883739471, 0.02592240361831598, 0.033190950119307276, 0.07410787632849165, 0.09326378150992966, 0.0, -0.01235811665176681, 0.04222259029746056, 4.055289268493652, -0.3999033272266388, -0.01478599863840535, -3.5032880306243896, 0.12412656098604202, -5.007737070089005e-11, 1.1198015509196765e-18, -1.1489844912884439e-08]
[7.049999999999983, 0.5488691474680254, 4.719968318939209, 0.14904716610908508, 0.03743799136543683, 0.030468610342350808, 0.10989736821941168, 0.08516169934950879, 0.0, -0.01144572475845952, 0.039749499410390854, 4.043755054473877, -0.37520110607147217, -0.013574830837224109, -3.498687982559204, 0.11075396090745926, -4.571665285468415e-11, 2.5756068936829656e-18, -1.5224835466549168e-08]
[7.099999999999983, 0.5388860210823346, 4.733290672302246, 0.15387886762619019, 0.04805508772233869, 0.027045175847497452, 0.14719385881484706, 0.07405786653747543, 0.0, -0.010023580042492262, 0.03969317808747291, 4.017382621765137, -0.31956732273101807, -0.013015756478274331, -3.4891936779022217, 0.07847567647695541, -4.476813900429766e-11, 3.612906095356302e-18, -1.7022624329046865e-08]
[7.149999999999983, 0.5294679584388832, 4.738503456115723, 0.14306628704071045, 0.06398864071982395, 0.026802257010925614, 0.20676237303809103, 0.07245758108914753, 0.0, -0.009242192756645161, 0.037846805155277254, 4.008144855499268, -0.3009195625782013, -0.011812796795331265, -3.486151933670044, 0.0670943483710289, -3.362167034545551e-11, 6.668506332400008e-18, -2.0898558653380164e-08]
[7.199999999999982, 0.5344294758308121, 4.749598503112793, 0.09186532348394394, 0.04807425119669135, 0.03166285717486679, 0.1586740906621044, 0.0865734591685639, 0.0, -0.0077835595386980365, 0.03623035326600074, 3.9871084690093994, -0.25050288438796997, -0.011031581252074159, -3.4803168773651123, 0.03755125775933266, -2.312393739100269e-11, 9.207012492511953e-18, -2.3090925150775826e-08]
[7.249999999999982, 0.5419415846723085, 4.7528791427612305, 0.06449945271015167, 0.032637408454284964, 0.03656509379452839, 0.11461914894688516, 0.10353193806437615, 0.0, -0.006811363844798304, 0.0340806107968092, 3.9799630641937256, -0.2275923639535904, -0.009729072574208898, -3.478667974472046, 0.025092612951993942, -1.0526327039248275e-11, 1.4670829493941133e-17, -2.6394206580588286e-08]
[7.299999999999982, 0.5474389239173862, 4.757431507110596, -6.150345143396407e-05, 0.026923379190122967, 0.04669704272390747, 0.09681549584501342, 0.14079253778787162, 0.0, -0.0050537934356657595, 0.033698777630925186, 3.9653501510620117, -0.14703227579593658, -0.00938820284768263, -3.476642370223999, -0.012426634319126606, -6.498702375514932e-12, 1.8947388042257496e-17, -2.816995573773143e-08]
[7.349999999999982, 0.5508670204193483, 4.758141040802002, -0.020017800852656364, 0.01892319007063387, 0.04759273417497848, 0.0766661118872501, 0.15013090528687226, 0.0, -0.0047519908023744934, 0.029094740673899652, 3.9606120586395264, -0.1096937358379364, -0.007189236511975234, -3.4757399559020996, -0.028445620089769363, -2.8996597920174333e-12, 3.270344454646669e-17, -3.209739489631858e-08]
[7.399999999999982, 0.5497227136066761, 4.757461071014404, -0.06375279277563095, 0.01733493495008084, 0.03995081648259716, 0.07485968456831335, 0.13589310203316562, 0.0, -0.005585899103988892, 0.027611197829246523, 3.9528608322143555, -0.02098294347524643, -0.006400423053337472, -3.4752094745635986, -0.06467772275209427, -2.0904113308622243e-12, 4.058087321534508e-17, -3.384218913924763e-08]
[7.4499999999999815, 0.5596626176913199, 4.756509780883789, -0.07826460897922516, 0.010765649921129399, 0.03427778848114742, 0.053320723976312046, 0.12093079214390519, 0.0, -0.006171129257319327, 0.02456538211554289, 3.9515366554260254, 0.009227641858160496, -0.004962383546871075, -3.475745916366577, -0.07706525921821594, -1.1509499035352304e-12, 5.591238275630512e-17, -3.6316982048520616e-08]
[7.499999999999981, 0.5630466072167452, 4.752376556396484, -0.11339996755123138, 0.008572731512201599, 0.026480176839549573, 0.047631366694918485, 0.09854368522104837, 0.0, -0.006589517080938173, 0.02343501787632704, 3.9521865844726562, 0.07169272005558014, -0.004219551943702041, -3.4793834686279297, -0.10440428555011749, -9.071901246480164e-13, 6.109034616719282e-17, -3.6793411345324373e-08]
[7.549999999999981, 0.5691998818151425, 4.750271797180176, -0.12166450172662735, 0.004783317743067847, 0.02245959428478232, 0.036409051665092874, 0.08689337342746142, 0.0, -0.006527611349404929, 0.019985185991972687, 3.9535739421844482, 0.0916704311966896, -0.002626197152342124, -3.481340169906616, -0.11342538148164749, -5.8409387594529e-13, 6.706961521330876e-17, -3.675051385896816e-08]
[7.599999999999981, 0.5650197472175006, 4.743310928344727, -0.1338539868593216, 0.004316540150203416, 0.01656304016645465, 0.03668672107613088, 0.06973636841694493, 0.0, -0.0062245594320661105, 0.018715800885111093, 3.9598958492279053, 0.13379624485969543, -0.002202598937895528, -3.4880547523498535, -0.13403652608394623, -5.368226152153938e-13, 6.762363712008756e-17, -3.621317052590379e-08]
[7.649999999999981, 0.5665977309689165, 4.740524768829346, -0.13435113430023193, 0.0021817531482918296, 0.013129188284209881, 0.02942556786762359, 0.05963206625530673, 0.0, -0.005937451040432514, 0.01543957247165963, 3.9631268978118896, 0.14702968299388885, -0.0011449312074538094, -3.4910836219787598, -0.14050056040287018, -5.262069242404398e-13, 6.538612501850047e-17, -3.441611742502171e-08]
