time, uz, alt, vel_alt, uthe, roll, uphi, pitch, upsi, yaw, ux, pos_x, vel_x, uy, pos_y, vel_y, Fz, Fx, Fy
[0.0, 0.5128125792202405, 2.952930450439453, 0.017890388146042824, 0.7057734392180188, -0.019241071357716785, 0.986954806843601, 0.012611083499409563, 0.0, 0.110810495174536, 0.039455209907658634, 2.881624937057495, 0.033204108476638794, -0.04029954047284565, -0.007976092398166656, -0.03967331349849701, 3.72298050895915e-10, -4.866096593721538e-11, 1.90655790611647]
[0.05, 0.5127322029984884, 2.954634428024292, 0.016184931620955467, 0.7324513309422722, -0.018922634857581437, 1.0001763716411478, 0.01254075453270322, 0.0, 0.11086920693529648, 0.03945207067192811, 2.883427143096924, 0.033556751906871796, -0.042160549099613795, -0.013503328897058964, -0.0375681072473526, 2.6758194296551187e-09, -9.592635589252223e-11, 3.8269082373575043]
[0.1, 0.5194727787121295, 2.959686756134033, 0.1148308739066124, 0.42780385479470395, -0.017781609373027786, 0.4204902486677813, 0.06310395199015997, 0.0, 0.10982757801939308, 0.03925789755782881, 2.8861589431762695, 0.04254284128546715, -0.04385080616580295, -0.020902596414089203, -0.03185039013624191, -1.0043758836460749e-07, -1.3807938518543588e-10, 5.775135794039541]
[0.15000000000000002, 0.5334410514656039, 2.9653520584106445, 0.10392293334007263, 0.2040715488960642, 0.03246835338961792, 0.17586663583732293, 0.2076639091912777, 0.0, 0.1030621626771038, 0.038606160152886745, 2.8890347480773926, 0.09452828764915466, -0.04566512846017802, -0.025204835459589958, -0.028635375201702118, -1.91985267884426e-06, -1.8322423080643245e-10, 7.719863211760171]
[0.2, 0.6025159557066908, 2.9696178436279297, 0.11325309425592422, 0.05149449819073497, 0.11277908018349964, 0.024644795269584067, 0.3122649348265348, 0.0, 0.09992650408600103, 0.021135660147044964, 2.8937666416168213, 0.1951690912246704, -0.044205825433182265, -0.028533119708299637, -0.05132807791233063, -7.844476385622964e-06, -2.162259560605714e-10, 9.234038714366696]
[0.25, 0.6265418324276477, 2.981998920440674, 0.17055955529212952, 0.03285475050361415, 0.41744946205958017, 0.008737607526411376, 0.4374020351148851, 0.0, 0.08793544726732282, 0.009437814850104758, 2.919698476791382, 0.5562721490859985, -0.03550086402101382, -0.042542897164821625, -0.25984519720077515, -3.225854997693791e-05, -1.5205641045992798e-10, 9.253775037358848]
[0.3, 0.7039656021520806, 2.9931836128234863, 0.18021970987319946, -0.0023593515712380746, 0.4369005380137188, -0.017543299943244058, 0.3350836977576896, 0.0, 0.014379696231190542, -0.0315403559244954, 2.961632251739502, 0.8126039505004883, 0.004242003719065867, -0.07049506902694702, -0.5746156573295593, -5.596831848180822e-05, -2.151663794789239e-11, 3.4837945543932136]
[0.35, 0.7594936911004136, 3.002112627029419, 0.23784510791301727, -0.010072050401406804, 0.30431640482187705, -0.01886896876999288, 0.2564937972191488, 0.0, -0.027063954460466583, -0.043636037372053134, 2.996778964996338, 0.9282634854316711, 0.023294612318915362, -0.0992724597454071, -0.7549980878829956, -0.00012172457275415838, 4.565857878817301e-13, 0.584078525952023]
[0.39999999999999997, 0.7701043354454358, 3.0111899375915527, 0.3158135712146759, -0.022393088147087785, 0.2435821690837431, -0.02914738845097334, 0.21980715942072035, 0.0, -0.03991505082346083, -0.07028396882116868, 3.02779483795166, 0.9993069767951965, 0.054013797848901896, -0.1264456957578659, -0.8547205328941345, -0.000818893220806777, 7.280482995012005e-13, -0.2452942481704001]
[0.44999999999999996, 0.8275583329034932, 3.0436606407165527, 0.6215419173240662, -0.02237032546655346, 0.12082621174124064, -0.025955035141381765, 0.1025840227763824, 0.0, -0.0561634247714184, -0.07640621704980792, 3.0971100330352783, 1.0923113822937012, 0.06587196140261069, -0.20213660597801208, -1.0053223371505737, -0.002928564537391626, 6.156872857349081e-13, -0.3397754457749471]
[0.49999999999999994, 0.7938612921130443, 3.0672452449798584, 0.8008733987808228, -0.03142397188878373, 0.10080746005871868, -0.034138123135158176, 0.08381481534380675, 0.0, -0.05476190082475115, -0.08984638285823188, 3.1313514709472656, 1.1102889776229858, 0.08274645108281405, -0.24015532433986664, -1.051376461982727, -0.0026610642161623483, 2.0461622488240324e-13, -0.22999453841478879]
[0.5499999999999999, 0.8576367491590235, 3.139134407043457, 1.2808668613433838, -0.02779810802908278, 0.04700908896696136, -0.02905819256556597, 0.03103045827727839, 0.0, -0.04221219665379147, -0.09364887467119858, 3.205164909362793, 1.117523193359375, 0.08962356371031015, -0.3241572082042694, -1.1100938320159912, -0.0006391949711268991, 1.5010358615282832e-13, -0.2268107716819528]
[0.6, 0.8090780258306749, 3.229152202606201, 1.6772143840789795, -0.03584616600995185, 0.024622253692087325, -0.03579058407482308, 0.00998648592629825, 0.0, -0.033675655122640605, -0.09924869623791899, 3.27016544342041, 1.0984649658203125, 0.09946665903802203, -0.3988388776779175, -1.1296124458312988, -9.903376576086832e-08, 7.069991843225869e-14, -0.20120626564310745]
[0.65, 0.8356840771316358, 3.3032310009002686, 2.000932455062866, -0.03377509816035186, 0.014036989446677344, -0.03343228000504241, 0.0016342223022209246, 0.0, -0.029523985055647916, -0.10095094650052494, 3.312798500061035, 1.0764389038085938, 0.10204391472533399, -0.448376327753067, -1.1302801370620728, -8.11155676382464e-10, 5.57874864637365e-14, -0.21473579600507378]
[0.7000000000000001, 0.7278250418483156, 3.3718366622924805, 2.2454183101654053, -0.05285401781757697, 0.010023620104369696, -0.050786232247011176, -0.001421825511347445, 0.0, -0.027481426677615807, -0.1026156106591225, 3.346331834793091, 1.055519938468933, 0.10693917400553113, -0.4874342083930969, -1.1250327825546265, -1.1607823056030843e-18, 3.200110701653359e-14, -0.24727902724628767]
[0.7500000000000001, 0.7444119276113432, 3.541531801223755, 2.7218894958496094, -0.049549352669231786, -0.004375618766582934, -0.047568377524023986, -0.011017206535293825, 0.0, -0.020938129022010525, -0.10342173272743824, 3.415414810180664, 1.007251501083374, 0.10785763002814769, -0.5693995952606201, -1.1029657125473022, -1.5846569574071297e-22, 2.6217897858899382e-14, -0.2824962872457386]
[0.8000000000000002, 0.6618078042249717, 3.714355945587158, 2.9922142028808594, -0.07764847280821348, -0.015268884153973518, -0.07404111850222804, -0.018365949363477494, 0.0, -0.017246391172927023, -0.10436328113079071, 3.4696099758148193, 0.9607018232345581, 0.1097687225291948, -0.6460959315299988, -1.0791963338851929, -3.384795598803884e-33, 1.57469486509151e-14, -0.3707151363114987]
[0.8500000000000002, 0.6601748980660864, 3.8378665447235107, 3.1442372798919678, -0.07884755006680474, -0.02312981193787066, -0.07489200958674476, -0.024523589840815617, 0.0, -0.015792613120819816, -0.10443158712238075, 3.4992074966430664, 0.923220694065094, 0.11027878042155069, -0.7041196227073669, -1.0641840696334839, -3.0248509309147864e-36, 1.3824509067739281e-14, -0.4216017931060248]
[0.9000000000000002, 0.5857789272247433, 4.032835483551025, 3.2408721446990967, -0.15819388991728792, -0.03272420887226304, -0.14506861713975922, -0.03263786974201963, 0.0, -0.014183743394425095, -0.10260524462908507, 3.5424368381500244, 0.8672991991043091, 0.11322810363088062, -0.7869222164154053, -1.0368808507919312, -5.899715527955627e-44, 1.0514927207630698e-14, -0.5156351259749247]
[0.9500000000000003, 0.5870709781642612, 4.166067123413086, 3.3380250930786133, -0.1554658575964019, -0.04279218331155583, -0.1427320655761315, -0.04127571277652467, 0.0, -0.013110254865648235, -0.10265066333115103, 3.5703413486480713, 0.8294381499290466, 0.11310182837886985, -0.8394809365272522, -1.0147958993911743, -1.0116019028040047e-45, 9.436730836252107e-15, -0.5810102645891431]
[1.0000000000000002, 0.5509402593127808, 4.367684364318848, 3.33514404296875, -0.28370568659190243, -0.06686821460151395, -0.25858448956306246, -0.06239216076095808, 0.0, -0.011482574217885566, -0.10036281779408457, 3.6104254722595215, 0.7691725492477417, 0.1144366253079951, -0.9143446087837219, -0.9747923612594604, -1.1161325748358347e-48, 6.998002748560005e-15, -0.7269460620463021]
[1.0500000000000003, 0.579004113966399, 4.501081466674805, 3.303455352783203, -0.17326456794483286, -0.08896434019797295, -0.15536673665947898, -0.0816323400930286, 0.0, -0.010389197006273415, -0.10016899626702071, 3.635720729827881, 0.723309338092804, 0.11329488492174647, -0.9615132212638855, -0.9401229619979858, -1.1263175048922786e-48, 6.292856601795006e-15, -0.8332154767086264]
[1.1000000000000003, 0.5621586284227911, 4.698083400726318, 3.2220218181610107, -0.22361357674451507, -0.1403227012508955, -0.1949658921781019, -0.12628509187103712, 0.0, -0.007624168905103411, -0.0954603275284171, 3.670837879180908, 0.6432738304138184, 0.1120576892775874, -1.0275570154190063, -0.8723464012145996, -6.625680712134456e-48, 4.886796594443066e-15, -1.1388008279185264]
[1.1500000000000004, 0.5697325979660027, 4.826775550842285, 3.183457374572754, -0.19376735254431598, -0.17206833715937092, -0.16631277930028818, -0.1537432636846293, 0.0, -0.006010938609258832, -0.09292943198233843, 3.691781520843506, 0.5719754099845886, 0.11015282617396342, -1.06788170337677, -0.805892288684845, -3.988564709582411e-47, 4.501119094182073e-15, -1.3832114774607314]
[1.2000000000000004, 0.5207926589484662, 4.928467750549316, 3.1459813117980957, -0.6816599741350995, -0.18117403069264829, -0.6989736659121957, -0.16256867414743753, 0.0, -0.006414005067626831, -0.08407570201903582, 3.7068097591400146, 0.5108239054679871, 0.10602499307627627, -1.0972568988800049, -0.7463009357452393, -2.5587018116542137e-46, 3.8009434462352765e-15, -2.2676727318281773]
[1.2500000000000004, 0.5145474388756832, 5.1399359703063965, 3.0441410541534424, -0.8351189675530557, -0.18722212704101793, -1.1040255050201304, -0.16829322764971896, 0.0, -0.010795983598844493, -0.08363726107403636, 3.7268381118774414, 0.38047364354133606, 0.10346511650286383, -1.1670089960098267, -0.6301222443580627, -9.925533558622664e-46, 3.623207813284417e-15, -2.7720810791081907]
[1.3000000000000005, 0.47135614500459433, 5.236952304840088, 2.9907007217407227, 0.26739862662631325, -0.19300689088853393, 0.2176117712631749, -0.1743796373615269, 0.0, -0.011332427386408342, -0.07919193331152201, 3.733924150466919, 0.32095348834991455, 0.1004888887736134, -1.1957309246063232, -0.5762898325920105, -4.462281839136905e-44, 3.0809036271151063e-15, -3.574296388321356]
[1.3500000000000005, 0.43968446004735434, 5.436474800109863, 2.8304927349090576, 0.14902821436506947, -0.3872159834978395, 0.11623502289027977, -0.361954528365622, 0.0, 0.008768255770193432, -0.07609154333360493, 3.7420096397399902, 0.14054444432258606, 0.09850951068323986, -1.2493584156036377, -0.42268604040145874, -3.5437939694179615e-43, 2.8414879644929477e-15, -4.049160631717607]
[1.4000000000000006, 0.380986575690847, 5.603771209716797, 2.707134485244751, 0.0712119837510716, -0.642140513877121, 0.04707124253933844, -0.4993428250465546, 0.0, 0.02628960421035181, -0.056324521619826554, 3.7365798950195312, -0.1383838802576065, 0.08538671715273484, -1.279698371887207, -0.10982328653335571, -1.3775954401583443e-40, 1.6801933077834028e-15, -4.460383784910284]
[1.4500000000000006, 0.33963573576679096, 5.710089206695557, 2.5502572059631348, 0.046372076079675875, -0.7850925124615656, 0.028529806959438794, -0.4761350739748597, 0.0, -0.04656734251516222, -0.04505896521732211, 3.724496364593506, -0.29263240098953247, 0.07330089745016333, -1.2866050004959106, 0.1562899798154831, -1.189681963149326e-39, 1.079834202999565e-15, -3.706212908937899]
[1.5000000000000007, 0.31938473666536177, 5.854684352874756, 2.2278261184692383, 0.02061692011216547, -0.8393486436806692, 0.015055255179318038, -0.384594669750488, 0.0, -0.22001617680339092, -0.026598958615213632, 3.6988730430603027, -0.3976973593235016, 0.03643160014465663, -1.2755671739578247, 0.5381261110305786, -4.421336265085947e-34, 4.4214490717723177e-16, -0.5331458063444802]
[1.5500000000000007, 0.2982809133032143, 5.940185546875, 2.0005695819854736, 0.011311888685932947, -0.7655392999428782, 0.012223424694719083, -0.32054407365959836, 0.0, -0.320120624429759, -0.023986151292920112, 3.680259943008423, -0.4105863869190216, 0.02219893448869947, -1.255720615386963, 0.7332565784454346, -8.920580380384773e-32, 4.93252141823788e-16, -0.028231450126209968]
[1.6000000000000008, 0.2945069620634494, 6.051344871520996, 1.657098412513733, -0.0023971533596858826, -0.5603061751008275, 0.011477038104016318, -0.24505965870782132, 0.0, -0.38561003155171125, -0.022922826204448937, 3.6550815105438232, -0.4125361442565918, -0.0047878939647052286, -1.2143265008926392, 0.9468547105789185, -1.471764813909184e-26, 5.923656867312257e-16, -0.0065653782513174185]
[1.6500000000000008, 0.2728964879258625, 6.114072322845459, 1.4234644174575806, -0.0058506154221097395, -0.425509002649046, 0.010385457547208822, -0.19665808969281592, 0.0, -0.3990086824727521, -0.02282260749489069, 3.641366481781006, -0.41738712787628174, -0.01285742324618986, -1.182715654373169, 1.032401204109192, -5.594701752320413e-25, 6.689126238686508e-16, -0.0017080006153368883]
[1.7000000000000008, 0.2702852372501655, 6.190659046173096, 1.0765916109085083, -0.011702956638672274, -0.21887627011712163, 0.010060647099936086, -0.10892052481598892, 0.0, -0.39022900248226094, -0.022352256588637827, 3.6198015213012695, -0.4287598729133606, -0.026002685816005566, -1.128800630569458, 1.1034060716629028, -5.748425160072067e-22, 8.495003954779886e-16, 0.0003800699270725416]
[1.7500000000000009, 0.2470608800513301, 6.229969024658203, 0.8333107829093933, -0.012088120032822398, -0.13595714711434548, 0.009028692570719298, -0.06731276353466106, 0.0, -0.3730123484251569, -0.02200279723852873, 3.6048026084899902, -0.4341783821582794, -0.029460414272229167, -1.090247631072998, 1.121046781539917, -2.901825960737876e-21, 9.301737639762301e-16, 0.0005453046960519953]
[1.800000000000001, 0.2610209251926745, 6.254453182220459, 0.6343324184417725, -0.01499566618252686, -0.09473578320736332, 0.009417807553196355, -0.045282303626323406, 0.0, -0.3585656205022745, -0.021732591949403284, 3.5924344062805176, -0.43674328923225403, -0.03460719922826074, -1.0583268404006958, 1.1249409914016724, -1.4650452235192088e-20, 1.2343507279432967e-15, 0.0009679262378066637]
[1.850000000000001, 0.22928098003862746, 6.284389972686768, 0.1857321560382843, -0.013774900305383942, -0.023902996961975648, 0.00842725623430927, -0.0019694467960197906, 0.0, -0.30465107407139164, -0.021925744265317917, 3.565932035446167, -0.43961456418037415, -0.03584175115224089, -0.9901055693626404, 1.1150492429733276, -8.423622407426472e-21, 1.3916651215643061e-15, 0.0012144982453719906]
[1.900000000000001, 0.27261990095810695, 6.284222602844238, -0.22547757625579834, -0.017485377917786905, -0.011846851648619951, 0.010161245920242033, 0.005829816170987209, 0.0, -0.25529588177410595, -0.022355904281139375, 3.542048931121826, -0.4400203824043274, -0.03847441627184741, -0.929120659828186, 1.0999544858932495, -5.355761635469202e-23, 1.9540352968161587e-15, 0.0022236863791147473]
[1.950000000000001, 0.2671660303798121, 6.270183086395264, -0.5155016779899597, -0.01754894381134977, -0.01530448302310861, 0.009956958720922376, 0.0024737719032762047, 0.0, -0.22748001476709556, -0.022409724816679955, 3.525947332382202, -0.44113680720329285, -0.03950140674528287, -0.8883385062217712, 1.090282678604126, -1.6847784190464016e-24, 2.232278618897001e-15, 0.002809808818551176]
[2.000000000000001, 0.30466185050891503, 6.2503485679626465, -0.7494192123413086, -0.022224125563288774, -0.01861882210537884, 0.011895632968559871, -0.0005996313563535605, 0.0, -0.21214945194254423, -0.022639337331056598, 3.5128867626190186, -0.4421289265155792, -0.04230411253277635, -0.8555325269699097, 1.0828113555908203, -2.093461873939586e-30, 3.1257490569924103e-15, 0.004932650965202561]
[2.0500000000000007, 0.29895224711223056, 6.18406867980957, -1.2211707830429077, -0.022239471864023638, -0.032365664198577865, 0.01190034165015146, -0.014112445685439193, 0.0, -0.1541361655022671, -0.02327805496752262, 3.5033092498779297, -0.43341296911239624, -0.04351045129577758, -0.7901654839515686, 1.0670150518417358, -2.8612151882867607e-33, 3.3918279882787644e-15, 0.0060602812016135495]
[2.1000000000000005, 0.3854259393448762, 6.141894817352295, -1.4338632822036743, -0.04000117253683091, -0.03521068584677145, 0.021841926285117007, -0.017149114393804336, 0.0, -0.13811909442676, -0.025221659243106844, 3.498223304748535, -0.43068864941596985, -0.046219122348570604, -0.7591074705123901, 1.0606600046157837, -4.311609269353856e-42, 4.0373070649518896e-15, 0.009832767987023526]
[2.1500000000000004, 0.3760927446278509, 6.030072212219238, -1.8725312948226929, -0.03819241409171477, -0.04074382971371044, 0.020769853048186362, -0.021853255271751793, 0.0, -0.09310269213456016, -0.025780184045433998, 3.4869186878204346, -0.42716822028160095, -0.04743207892452703, -0.6931113600730896, 1.0487406253814697, -6.886270862548837e-46, 4.296750369950879e-15, 0.01179253732190379]
[2.2, 0.43399145340579925, 5.908456802368164, -2.1991302967071533, -0.0719049158681741, -0.043841991996016294, 0.0377407971430137, -0.02020027819073377, 0.0, -0.06250600978448739, -0.026599029377102852, 3.474198579788208, -0.4263934791088104, -0.050776854172236395, -0.6342554092407227, 1.0393507480621338, -1.4596401905263534e-56, 5.1585734868158796e-15, 0.018262281901304654]
[2.25, 0.4297930631372092, 5.8171305656433105, -2.40492582321167, -0.07030426941451869, -0.04739923955528909, 0.03592270408336503, -0.01698359703768264, 0.0, -0.04711677151358891, -0.026714917868375786, 3.464667320251465, -0.42591220140457153, -0.05238130154787359, -0.5948051810264587, 1.034237265586853, -2.5843383106208716e-60, 5.536998303606501e-15, 0.02159672557171785]
[2.3, 0.5114956251114774, 5.738227844238281, -2.5539093017578125, 1.0672037198684068, -0.048994077100485194, -1.102713224037142, -0.015428663950512645, 0.0, -0.04174779779323372, -0.02741819620132447, 3.4561567306518555, -0.42647668719291687, -0.05576084171189425, -0.5630589127540588, 1.030961036682129, -4.819802303890503e-70, 6.848374722583854e-15, 0.03165875329134267]
[2.3499999999999996, 0.4983150766263196, 5.5558180809021, -2.840808153152466, -0.47371701988489767, -0.0662974292608196, 0.24406812049855778, -0.0035014126955482537, 0.0, -0.020672764720980365, -0.02696922026574612, 3.4375836849212646, -0.42597565054893494, -0.057213617045937686, -0.4954777657985687, 1.027204155921936, -5.229398434304222e-73, 7.449850954616562e-15, 0.03685467368235606]
[2.3999999999999995, 0.5437133016059458, 5.463902950286865, -2.8817410469055176, 0.1917835939041878, -0.07014611621740637, -0.08576091117039551, -0.002800238383460472, 0.0, -0.017706757690100897, -0.026862304285168656, 3.427842617034912, -0.4245809316635132, -0.06089317110389818, -0.463344544172287, 1.0319823026657104, -1.4675354714332555e-77, 9.670972614883795e-15, 0.048742881271730536]
[2.4499999999999993, 0.5304170437069047, 5.271746635437012, -2.8544366359710693, 0.31817192386681153, -0.06234864213652942, -0.13892103895551014, -0.17017674240234876, 0.0, 0.01036030174058419, -0.02645777873694898, 3.4219419956207275, -0.4662877321243286, -0.06292980616258255, -0.3951702415943146, 1.0535857677459717, -4.019489864289613e-76, 9.801881497727672e-15, 0.05147137956492185]
[2.499999999999999, 0.5399124147648127, 5.103475093841553, -2.8487348556518555, 0.24146068660033443, 0.009330806831888808, -0.06041113486327262, -0.1842058066607181, 0.0, 0.024806963328093096, -0.016768077164888383, 3.409574270248413, -0.5671181082725525, -0.06839650238233012, -0.33390235900878906, 1.0452004671096802, -1.6515792281268107e-73, 5.332480267121811e-15, 0.0624045200864662]
[2.549999999999999, 0.5617560031633209, 4.989930629730225, -2.897956609725952, 0.14075746949258044, 0.0739300431080905, -0.015499829600782479, -0.15865432884854777, 0.0, 0.02792875222220934, -0.007435470595955848, 3.3967444896698, -0.6115158796310425, -0.06797541815160645, -0.29356738924980164, 1.0158460140228271, -3.0888004627149956e-73, 4.0639083669034935e-15, 0.07580030082596839]
[2.5999999999999988, 0.6429023415125492, 4.897348403930664, -2.9938201904296875, 0.054029817435355634, 0.11899230509960011, 0.0038096193671246737, -0.14792704644485816, 0.0, 0.02879931019453849, 0.004692479074001316, 3.3840529918670654, -0.6585292220115662, -0.06661594573599289, -0.2622189521789551, 0.9324677586555481, -1.2631463716516142e-74, 2.9416145875545324e-15, 0.15824083429763558]
[2.6499999999999986, 0.6734406860810084, 4.6961469650268555, -3.04396653175354, 0.04121010500871854, 0.18658471452648415, 0.0067405515447011895, -0.11595257612213479, 0.0, 0.03035702051896525, 0.010210528299212453, 3.364708662033081, -0.6828855872154236, -0.06246054031311618, -0.20177873969078064, 0.8596327304840088, -2.3051286028722605e-75, 2.6949748361022868e-15, 0.24520404993640077]
[2.6999999999999984, 0.7500816641313843, 4.515182018280029, -3.035759687423706, 0.025362704843715434, 0.14985000108571098, 0.008542187172697717, -0.07702569404722044, 0.0, 0.0317165397258968, 0.019007485359907147, 3.3424553871154785, -0.71159827709198, -0.056448131017008546, -0.15503525733947754, 0.7448740601539612, -1.1251124909803667e-75, 2.398523790522697e-15, 0.6955228369624618]
[2.7499999999999982, 0.7692993759496695, 4.396222114562988, -2.9714269638061523, 0.0229394063011913, 0.11029177530008247, 0.009105388427523148, -0.05339965073061403, 0.0, 0.030047009982357945, 0.021882552355527874, 3.325039863586426, -0.7235469222068787, -0.05513963168462567, -0.12728561460971832, 0.6775060296058655, -2.6399479434264074e-74, 2.413276235432242e-15, 1.1233366092091006]
[2.799999999999998, 0.8053177773790416, 4.22426700592041, -2.776322364807129, 0.01969528869694787, 0.06663564613073689, 0.009610507194183108, -0.029238793727683416, 0.0, 0.02379678039874392, 0.02630481764674187, 3.2961056232452393, -0.7297892570495605, -0.0539155678778644, -0.08970959484577179, 0.5980250835418701, -5.222296483101128e-68, 2.9694503179313575e-15, 2.4519871502871844]
[2.849999999999998, 0.806855787957633, 4.11776876449585, -2.580885410308838, 0.0201077120773698, 0.04671352907129288, 0.010117088834904342, -0.019513605551039155, 0.0, 0.01881921217102009, 0.0278356859087944, 3.275364637374878, -0.7291538715362549, -0.05533182153435345, -0.06679624319076538, 0.5573369264602661, -6.552161294495888e-64, 3.3915245132614795e-15, 3.580732661801528]
[2.8999999999999977, 0.7770237261831703, 4.038501739501953, -2.3954014778137207, 0.022546415700786564, 0.03765612117608892, 0.012344082096803443, -0.015388296409258052, 0.0, 0.015845530447596175, 0.030550388544797896, 3.257768154144287, -0.7269608378410339, -0.055811034775449894, -0.04942745715379715, 0.5299327373504639, -7.147748238489421e-52, 5.305772228999163e-15, 5.8949720292529015]
[2.9499999999999975, 0.7620727031463479, 3.8916022777557373, -1.9466326236724854, 0.025217948890792995, 0.019099244679036356, 0.01259240178441004, -0.007027323803276897, 0.0, 0.007461650991031957, 0.029420047663152215, 3.2200186252593994, -0.7171124815940857, -0.05893158389698833, -0.014795731753110886, 0.48472341895103455, -7.523282862367256e-47, 6.466871401893362e-15, 7.836891398542813]
[2.9999999999999973, 0.7232812495607469, 3.8327012062072754, -1.7482041120529175, 0.031198069606937415, 0.016592148944605194, 0.015822422253900938, -0.005658300674818953, 0.0, 0.005824852551700307, 0.03127864390611647, 3.2012786865234375, -0.711940348148346, -0.061696669924776265, 0.0006405776366591454, 0.46880850195884705, -3.181132133221369e-35, 1.1243229977890949e-14, 11.015973612438145]
[3.049999999999997, 0.7321028033095699, 3.7278389930725098, -1.3544087409973145, 0.031792567686043896, 0.01287427532308751, 0.014334564618952123, -0.0012536928084067238, 0.0, 0.0006512044403368744, 0.02950898826122283, 3.168247938156128, -0.6948632597923279, -0.06547215694619374, 0.031580910086631775, 0.438806414604187, -3.7053808167910995e-31, 1.3857344808449138e-14, 13.701365274023573]
[3.099999999999997, 0.7637709453018976, 3.6871280670166016, -1.1986675262451172, 0.029612166460125787, 0.012953381848568068, 0.011905391324039555, -0.0003301200422031003, 0.0, -0.00028756254321113964, 0.02800219766795633, 3.151970148086548, -0.6869960427284241, -0.06967161069348117, 0.04549074545502663, 0.42521780729293823, -1.2520423357511651e-22, 2.3820613215879994e-14, 17.75331544413824]
[3.149999999999997, 0.7917884425202165, 3.6165170669555664, -0.8786445260047913, 0.02805141837490719, 0.015558959734552815, 0.010470265396742331, 0.0031529729918880417, 0.0, -0.0030891265235034157, 0.027345304414629915, 3.1174347400665283, -0.6691666841506958, -0.07328275141168993, 0.0737924799323082, 0.3975505232810974, -4.4231792876105234e-20, 2.9338972091352156e-14, 21.167144597067043]
[3.1999999999999966, 0.8457250839922086, 3.591334819793701, -0.6964330077171326, 0.025251148121286593, 0.0161697733187559, 0.008690990567603042, 0.003549443432881778, 0.0, -0.003542191839050675, 0.02704269871115679, 3.100358009338379, -0.6606033444404602, -0.07858862068826689, 0.0864650160074234, 0.3827509582042694, -7.650386334979824e-14, 5.1168950597888955e-14, 26.213096197195185]
[3.2499999999999964, 0.8597995958750471, 3.559293508529663, -0.2263932079076767, 0.025632658383788736, 0.016386172257258236, 0.008289689728095288, 0.003481672263697037, 0.0, -0.005127315278351757, 0.02687531433999532, 3.0643694400787354, -0.6417261958122253, -0.0831206690485054, 0.11185294389724731, 0.34894296526908875, -1.9861177190965182e-11, 6.297065922444351e-14, 30.483625900226215]
[3.2999999999999963, 0.8116029085179604, 3.5564019680023193, 0.06152813881635666, 0.031868748085795845, 0.016243661456175583, 0.009829812875757536, 0.0032854085375463448, 0.0, -0.005390895520574034, 0.027477726042270553, 3.046940565109253, -0.633263349533081, -0.08911577666335523, 0.12300873547792435, 0.33251383900642395, -3.6266157842650627e-06, 1.0900850022228998e-13, 36.56961163663089]
[3.349999999999996, 0.7821643530498263, 3.5820200443267822, 0.7242568731307983, 0.037496226823775465, 0.015350662643133431, 0.010973149240634144, 0.00217564536184796, 0.0, -0.006169305263965456, 0.027679993584751955, 3.010329008102417, -0.6150648593902588, -0.09463125154805835, 0.1450556218624115, 0.29812338948249817, -5.285753036572045e-05, 1.3228930119242925e-13, 41.54373422694857]
[3.399999999999996, 0.6237726043334016, 3.609503984451294, 1.007973313331604, 0.09488903843996917, 0.015485287431056052, 0.027323533733459558, 0.0020594572955431167, 0.0, -0.006273745990557776, 0.028818321824073574, 2.99282169342041, -0.6077607274055481, -0.10039408018269975, 0.15463286638259888, 0.28278008103370667, -1.0939570799768623e-05, 2.1663272352417326e-13, 47.9518245665117]
[3.4499999999999957, 0.590061026404263, 3.695039749145508, 1.5016305446624756, 0.14219985094457369, 0.019498929340798735, 0.03886984740591937, 0.0027220024529697033, 0.0, -0.006698918969468551, 0.028856178224086513, 2.958773374557495, -0.5917425155639648, -0.10631037089835095, 0.16882698237895966, 0.2484285980463028, -4.769672570212408e-07, 2.482331185193133e-13, 53.18653453002858]
[3.4999999999999956, 0.4899325380567483, 3.7450454235076904, 1.6143091917037964, -0.5324149051277575, 0.021396447063444127, -0.15894549869017272, 0.003238601185223681, 0.0, -0.00674398569831866, 0.02981300212442839, 2.9425289630889893, -0.5852224826812744, -0.11097496419338199, 0.17482389509677887, 0.232944518327713, -6.99437010609782e-11, 3.6122920189523215e-13, 59.364252976455404]
[3.5499999999999954, 0.516733088400758, 3.8578858375549316, 1.6787490844726562, 1.036114503132265, 0.05569542657458571, 0.4411976578870101, 0.012295848001390067, 0.0, -0.006830955217631434, 0.029469122719019275, 2.9082744121551514, -0.5696984529495239, -0.11652808382472937, 0.18599967658519745, 0.1923360526561737, -1.4495545935433505e-11, 3.7499718374338753e-13, 64.5554640825743]
[3.599999999999995, 0.5475487476293636, 3.9119231700897217, 1.6900248527526855, 0.3288632727134884, 0.05019215066189427, 0.08615376950321897, 0.00876982680957667, 0.0, -0.00813922495654593, 0.030056066524120528, 2.8919551372528076, -0.5625669360160828, -0.11919954974725258, 0.19054320454597473, 0.16888828575611115, -2.0173165172020413e-12, 4.525786548800484e-13, 69.9563734658004]
[3.649999999999995, 0.5754816193396987, 4.024998188018799, 1.6355375051498413, 0.2016037124032213, -0.12838091826073852, 0.051005045564762035, -0.004003094664577308, 0.0, -0.02916524266247981, 0.030980998622253234, 2.8569529056549072, -0.5721165537834167, -0.12419651041179795, 0.19962061941623688, 0.1887264847755432, -2.4167922888585985e-12, 3.06028696578408e-13, 74.52364305406708]
[3.699999999999995, 0.6106386203015715, 4.07722806930542, 1.6302071809768677, 0.14396863702131749, -0.13803239447643126, 0.03732742069372416, 0.01872996195305098, 0.0, -0.03932232639542582, 0.03483216367661956, 2.8398520946502686, -0.5664434432983398, -0.13531201284436672, 0.20542427897453308, 0.22825966775417328, -1.892031490692194e-12, -2.2826292764426312e-14, 78.40095173625438]
[3.7499999999999947, 0.6331734396108679, 4.189234733581543, 1.67742919921875, 0.12511972627064671, 0.0347090855279202, 0.02968930760981647, 0.07064897900996647, 0.0, -0.06717562070335577, 0.03390242733061391, 2.8052902221679688, -0.5112255215644836, -0.1436464554718747, 0.22085559368133545, 0.2516735792160034, -9.930165486722662e-13, -7.805183193481483e-13, 82.43743798649454]
[3.7999999999999945, 0.6184581123609542, 4.243862628936768, 1.7150219678878784, 0.15141731880250012, 0.06816203741097483, 0.031438482167596725, 0.06697014603185036, 0.0, -0.06804909277248529, 0.031612056717281435, 2.790040969848633, -0.4872007966041565, -0.15345293569588156, 0.227909654378891, 0.22131453454494476, -3.303984165844982e-14, -4.860327469206998e-12, 90.0003822448203]
[3.8499999999999943, 0.6202583792364498, 4.365406036376953, 1.8031117916107178, 0.15831063604522314, 0.08940394431699096, 0.02797946328521743, 0.046395822698241454, 0.0, -0.06152774632075588, 0.02859896779061473, 2.7579355239868164, -0.44705456495285034, -0.16320266262972244, 0.2315262258052826, 0.131626158952713, -7.38634525300782e-15, -1.1090457026357261e-11, 97.2810514398802]
[3.899999999999994, 0.557457732186268, 4.424664497375488, 1.8349716663360596, 0.3658119363863587, 0.09082275938953972, 0.057017985379805534, 0.039966050412147666, 0.0, -0.05802453102410984, 0.025105904340775656, 2.743492841720581, -0.4333757758140564, -0.16875553770452179, 0.23151083290576935, 0.09207586944103241, -1.254863941316702e-16, -3.163881765694756e-11, 102.2675420203749]
[3.949999999999994, 0.5449352251212557, 4.553584098815918, 1.886460304260254, 0.49101855266628514, 0.11027080381716052, 0.07624476972920266, 0.025991941694805346, 0.0, -0.046274710297054565, 0.024734454006011784, 2.7137742042541504, -0.414016991853714, -0.17362850833065674, 0.22760994732379913, 0.005042704287916422, -3.388765659345932e-17, -5.5133957170001026e-11, 106.3216860903041]
[3.999999999999994, 0.4707161846675902, 4.668087959289551, 1.863638997077942, -0.4285588182577942, 0.16308302698122737, -0.06305254793919705, 0.0272844717392397, 0.0, -0.037764908000020754, 0.022986793369169655, 2.688349723815918, -0.40132230520248413, -0.16667239317139898, 0.2203671932220459, -0.07993059605360031, -2.6994972521480143e-18, -1.1485885247470205e-10, 101.25848823627743]
[4.049999999999994, 0.44735086856137385, 4.742858409881592, 1.8171532154083252, -0.27673429847812503, 0.23766430682655176, -0.036526409719422656, 0.03670605884325335, 0.0, -0.032117181824265484, 0.02121784478443345, 2.6717936992645264, -0.3917810022830963, -0.16502231666241501, 0.21280595660209656, -0.15773794054985046, -2.6403033682107016e-18, -1.7365147578774976e-10, 99.65751760993811]
[4.099999999999993, 0.38322039456847523, 4.851532936096191, 1.759078860282898, -0.10698231117823123, 0.29316757908364166, -0.015919037502954436, 0.03521353103525072, 0.0, -0.030536715163535188, 0.018706343919371458, 2.6478493213653564, -0.37042009830474854, -0.12620127171305778, 0.19483055174350739, -0.3254186809062958, -5.2635622663831625e-18, -3.3268489110430354e-10, 70.9010627868569]
[4.149999999999993, 0.35286147779529864, 4.9213080406188965, 1.6749083995819092, -0.07212008873135219, 0.20255746066092134, -0.011959347189797666, 0.014004815323483253, 0.0, -0.03703944073679408, 0.01741794318009439, 2.6324405670166016, -0.3651122748851776, -0.10522280671191658, 0.17781305313110352, -0.413362979888916, -5.728230244839875e-18, -4.869978578096461e-10, 55.589623828653956]
[4.199999999999993, 0.32166939960569985, 4.974153995513916, 1.5752754211425781, -0.04353368623077734, 0.1306455363454183, -0.00962186703397996, 0.001707819779497549, 0.0, -0.039675825427707714, 0.016794986911901396, 2.6201906204223633, -0.36688631772994995, -0.07603734422276767, 0.16262470185756683, -0.44546741247177124, -1.44740333935698e-16, -7.833667494515061e-10, 35.16027305076869]
[4.249999999999993, 0.3269872884662324, 5.073700428009033, 1.2887426614761353, -0.044162583951598666, -0.06530477031075331, -0.009893191851812467, -0.029848187294806552, 0.0, -0.041577796039028794, 0.01678100168806718, 2.591836452484131, -0.37848615646362305, -0.07495929248452896, 0.12116397172212601, -0.44827255606651306, -8.693570208358802e-16, -1.017314375915643e-09, 34.536754636175566]
[4.299999999999993, 0.406283824522145, 5.112765312194824, 1.1154314279556274, -0.08095776314642944, -0.08100688708814961, -0.015902699276201977, -0.0335132207629326, 0.0, -0.041342796915325844, 0.015287623481381747, 2.578298330307007, -0.38465172052383423, -0.07800028733122893, 0.10250480473041534, -0.4385014772415161, -1.0682466548136529e-13, -1.4193975374087609e-09, 38.05063470411845]
[4.3499999999999925, 0.4426252629743723, 5.17652702331543, 0.7257676124572754, -0.12735934365671375, -0.07790345674976737, -0.024306188784541213, -0.03410578266324446, 0.0, -0.039873244487826934, 0.015180480295691915, 2.5488619804382324, -0.3965838551521301, -0.07998329535803986, 0.06447797268629074, -0.41841810941696167, -3.9814775092695255e-13, -1.7623365520587697e-09, 40.36395252428245]
[4.399999999999992, 0.5317744742549606, 5.197861194610596, 0.5768381953239441, 0.3992385904836858, -0.07182540383903149, 0.08492005930476107, -0.032371343761578485, 0.0, -0.039107049917878486, 0.017178676894559555, 2.5349459648132324, -0.4072507917881012, -0.08544898891466374, 0.04800168424844742, -0.39820975065231323, -8.465286095408792e-13, -2.4875920579780684e-09, 45.325131654913385]
[4.449999999999992, 0.5508683557435312, 5.22937536239624, 0.3115854859352112, 0.2327916796971179, -0.06801725676520107, 0.04526875121322833, -0.02746286469678441, 0.0, -0.03382427907142131, 0.01715807283607962, 2.504680633544922, -0.4144664704799652, -0.08989418817539264, 0.014527824707329273, -0.382705956697464, -5.263273930705237e-13, -3.1078070634434615e-09, 48.0916884340768]
[4.499999999999992, 0.5461229912456422, 5.239288330078125, 0.2890269458293915, 0.2919713677528916, -0.06940523104466814, 0.05766082001978541, -0.026710071437970512, 0.0, -0.03217043662375771, 0.01932556629617466, 2.4903321266174316, -0.42128419876098633, -0.10079167949231685, 0.00018720101797953248, -0.3621750473976135, -1.3739325182150562e-13, -4.365576089600239e-09, 56.40402556243697]
[4.549999999999992, 0.5153190044579742, 5.261116981506348, 0.3135899603366852, 1.1048405647649366, 0.10325951167432013, 0.3878471632473114, 0.014338135805154686, 0.0, -0.03125961905317308, 0.020139632491388382, 2.459378242492676, -0.42265230417251587, -0.10589183381281328, -0.02892967499792576, -0.3743092119693756, -1.307581049171895e-13, -5.5814404799850965e-09, 60.08448619849514]
[4.599999999999992, 0.43065625474256697, 5.271678447723389, 0.30535125732421875, -0.12005044700990844, 0.14484688740438065, -0.029080878085917205, 0.025647470185830062, 0.0, -0.030059552748747664, 0.021390881845726253, 2.445119619369507, -0.41588693857192993, -0.08874411876876029, -0.04326314851641655, -0.41587939858436584, -9.557053102927549e-14, -9.311917154716665e-09, 48.557356648185575]
[4.6499999999999915, 0.4021838064867412, 5.2921600341796875, 0.25606319308280945, -0.07708740459147959, 0.29756005100311667, -0.021810337839842035, 0.08055414541388431, 0.0, -0.024211543244926494, 0.021797228841298116, 2.413165807723999, -0.3852918744087219, -0.07720016031417512, -0.0879731997847557, -0.5509506464004517, -7.343702439806933e-14, -1.3225567538888406e-08, 40.868519608708844]
[4.699999999999991, 0.3512030308885646, 5.299816608428955, 0.1966940015554428, -0.024194770908389524, 0.37854686839978624, -0.013002940669725637, 0.11075347407339783, 0.0, -0.021010793899360104, 0.01913790050087427, 2.3993659019470215, -0.3572100102901459, -0.03561813854951544, -0.1121743768453598, -0.6493405103683472, -2.418652095320768e-14, -2.9186953180660554e-08, 16.14462579939647]
[4.749999999999991, 0.3301329664121818, 5.30800199508667, 0.014342093840241432, -0.01111133037055868, 0.5812839953828819, -0.00999208940491168, 0.11979305907160213, 0.0, -0.05572986458559882, 0.016657444023956865, 2.373373031616211, -0.2967199683189392, -0.018524359984677392, -0.17583027482032776, -0.9365687370300293, -1.0618499752815008e-14, -4.6064466472605465e-08, 8.138724163528636]
[4.799999999999991, 0.36910801053767484, 5.306854724884033, -0.10402199625968933, 0.015491567365019509, 0.567173487307759, -0.011289338238591639, 0.10769116866171334, 0.0, -0.07249179637155893, 0.014742096934807476, 2.362545967102051, -0.2856891453266144, 0.02023159423938897, -0.21159999072551727, -1.0625346899032593, -3.3835206051782407e-16, -8.602159810628953e-08, 0.6700373582733772]
[4.849999999999991, 0.37761971587861054, 5.288821220397949, -0.4470245838165283, 0.023617764671558364, 0.3252480451985196, -0.010866048066556062, 0.07198098900569173, 0.0, -0.1109120767855523, 0.013332084230045928, 2.340247869491577, -0.2755614221096039, 0.028983746620846185, -0.29689499735832214, -1.2083417177200317, -2.8639010255993346e-17, -1.1072601222748168e-07, 0.2938901325490189]
[4.899999999999991, 0.4981156964205852, 5.272137641906738, -0.5999818444252014, 0.37340129922322285, 0.2612833390293641, -0.12115506734258538, 0.06269979172062494, 0.0, -0.11461362474401135, 0.013410148634195982, 2.330251455307007, -0.2706894278526306, 0.04347091009616124, -0.3388148844242096, -1.2462342977523804, -4.281129837221243e-21, -1.626021255211852e-07, 0.07350949794782369]
[4.94999999999999, 0.5268182799913372, 5.220499515533447, -0.9111976623535156, -0.2821784993985472, 0.10536356839948133, 0.08216070243226349, 0.0239853429886538, 0.0, -0.11460362488003314, 0.012835432494143924, 2.309401750564575, -0.26519539952278137, 0.0453424447341415, -0.4301755130290985, -1.2865415811538696, -9.173788244116882e-23, -2.031130419481561e-07, 0.04954113303098155]
[4.99999999999999, 0.611763530472357, 5.190316200256348, -0.9638868570327759, -0.05400819114325781, 0.09520873981595772, 0.015087288913684455, 0.014696561223076507, 0.0, -0.11178313493932501, 0.014230571823553695, 2.2999050617218018, -0.2638089656829834, 0.05099291075419633, -0.47332754731178284, -1.3020124435424805, -5.033097096851355e-26, -2.853437792192171e-07, 0.02109929520638467]
[5.04999999999999, 0.6226773915879419, 5.122825622558594, -0.9799851179122925, -0.0511193812551524, 0.15935371258534645, 0.014968870750462916, -0.017438712112214066, 0.0, -0.09019838100987697, 0.01563307052433229, 2.270847797393799, -0.29272833466529846, 0.053436202230931915, -0.5753047466278076, -1.3770955801010132, -2.2858619465170465e-26, -3.5345292194746955e-07, 0.011308145640694194]
[5.09999999999999, 0.6026794841994898, 5.091883659362793, -0.9376372694969177, -0.07690035045560062, 0.12864546837073249, 0.022244180368081814, -0.011126530714070234, 0.0, -0.0806017231114224, 0.0191098676630873, 2.256838083267212, -0.30480098724365234, 0.06620071500417773, -0.6246113181114197, -1.4128336906433105, -5.840035642937025e-25, -4.4793074454449884e-07, -0.00188093510453763]
[5.14999999999999, 0.5805945532629085, 5.031044006347656, -0.8406796455383301, -0.10568335611982844, 0.039716563682792284, 0.030472366598148445, 0.011039595051065085, 0.0, -0.046643226103733636, 0.019943338312691777, 2.226794481277466, -0.30830585956573486, 0.06943630204727232, -0.7308789491653442, -1.4345813989639282, -4.33757105050691e-24, -5.741778307801945e-07, -0.00287049641191768]
[5.1999999999999895, 0.5212995137948901, 4.981802940368652, -0.800139307975769, -0.622286125299721, 0.025032716244370687, 0.194528692833747, 0.016045045842606184, 0.0, -0.028343357720464927, 0.020632718186346585, 2.201794385910034, -0.3046267032623291, 0.07656954159942195, -0.82332444190979, -1.4340485334396362, -1.9687049358748163e-22, -8.749642919847922e-07, -0.0041407158665281284]
[5.249999999999989, 0.5108357084248927, 4.949946880340576, -0.8011319041252136, -1.2894854745340723, 0.007759688197488802, 1.2237612263672373, 0.01911515734195025, 0.0, -0.020945043832541393, 0.02141537721894115, 2.1858110427856445, -0.300814151763916, 0.07880631081364134, -0.8841448426246643, -1.4271845817565918, -4.322490417759819e-22, -1.1517795883054517e-06, -0.004511993145733114]
[5.299999999999989, 0.4931449964763432, 4.902299404144287, -0.7946430444717407, 0.48281879886086965, -0.1018043877678317, -0.14212708239270042, 0.046961333166187995, 0.0, -0.009542337145205186, 0.022352692340928182, 2.162980556488037, -0.2873271703720093, 0.08272032539054955, -0.9735060334205627, -1.3938380479812622, -1.2436587816060163e-21, -1.7932234859080668e-06, -0.0055564443787322615]
[5.349999999999989, 0.5107191808780926, 4.870121002197266, -0.809861958026886, -1.2946981926413434, -0.2521215664258386, 1.2836546632252406, 0.10740258796713621, 0.0, -0.006853125894933121, 0.022571319384326917, 2.149052381515503, -0.2527051568031311, 0.08306400562043012, -1.0304934978485107, -1.3188211917877197, -1.5649954912396746e-21, -2.426853162610476e-06, -0.006514288137564502]
[5.399999999999989, 0.5490879542558394, 4.844104290008545, -0.8103615045547485, -0.1974051551089086, -0.3492127019213933, 0.03530047515364076, 0.16336351794848128, 0.0, -0.01074786531284301, 0.01279351742470301, 2.139814853668213, -0.19321300089359283, 0.07250221577302708, -1.072638750076294, -1.2023930549621582, -1.9772121740113386e-21, -4.931331046775667e-06, -0.018157109778072052]
[5.449999999999989, 0.5529156501638797, 4.7862677574157715, -0.8799036145210266, -0.15480749495846036, -0.730837926539039, 0.01151741333625424, 0.30170514877706694, 0.0, -0.011851784544608335, 0.00458116441208183, 2.1216468811035156, -0.022145621478557587, 0.06207423602954936, -1.1530016660690308, -0.8021419644355774, -2.6447138157990113e-21, -6.250918500717908e-06, -0.01830069140982565]
[5.4999999999999885, 0.6338271437286301, 4.755943298339844, -0.9624550938606262, -0.019656503537305685, -0.8219160779204744, -0.013007537829577214, 0.342160764194027, 0.0, -0.021609843643443684, -0.014928682191586235, 2.11775541305542, 0.06173435598611832, 0.022563207108373114, -1.179589867591858, -0.5511017441749573, -2.2230232622637803e-23, 5.631065108835941e-06, 1.4950688594632677]
[5.549999999999988, 0.6793353411228262, 4.680318832397461, -1.2280223369598389, 0.0015145302613180107, -1.0284383901648388, -0.014689823993019933, 0.383127643702266, 0.0, 0.10818525018409189, -0.023055867355214543, 2.1183507442474365, 0.20199498534202576, -0.002377162001322165, -1.2043992280960083, 0.11331620067358017, -8.006093941195032e-25, 3.921602863722621e-05, 4.2269109405979055]
[5.599999999999988, 0.8341046762815807, 4.638463020324707, -1.3525575399398804, 0.02043762946185654, -0.996237647984576, -0.010897359730872594, 0.3799625113378677, 0.0, 0.15216918444363964, -0.032734808267331814, 2.121800184249878, 0.22563567757606506, -0.061402789917248034, -1.1990083456039429, 0.4274009168148041, -3.606703468093647e-30, 9.210524627561668e-05, 2.638445314424771]
[5.649999999999988, 0.8811395272538933, 4.541241645812988, -1.4504438638687134, 0.024418008441931448, -0.5897383819744112, -0.010425930619385819, 0.32477424685183015, 0.0, 0.3097085629324809, -0.03586359340826595, 2.1313908100128174, 0.27912384271621704, -0.08401240275095324, -1.1570000648498535, 0.9819963574409485, -2.5378703232407065e-31, 0.00014320144974646433, 0.8728117574296526]
[5.699999999999988, 0.9232689337576123, 4.495365619659424, -1.3800151348114014, 0.03593394575192439, -0.5174954207908433, -0.011824211640723949, 0.2986288547656417, 0.0, 0.3267384438017506, -0.0452909280557669, 2.138240337371826, 0.32940641045570374, -0.13770225011494136, -1.1245287656784058, 1.209121584892273, -5.42944652055781e-30, 0.00019149971373643994, 0.022291771435506362]
[5.749999999999988, 0.8932783828576706, 4.415543079376221, -0.9163797497749329, 0.04505231452188215, -0.22674993419489728, -0.014100989787772496, 0.16065418345224103, 0.0, 0.3281381891212248, -0.05009319527185967, 2.158841609954834, 0.45060035586357117, -0.16016020148818308, -1.033432960510254, 1.5905877351760864, -1.2508906924470885e-26, 0.000233483682171857, 0.004078297064825306]
[5.799999999999987, 0.7008954970512893, 4.380221366882324, -0.2631363570690155, 0.11489242830621064, -0.1291566456542467, -0.035075583493992014, 0.08307000324692755, 0.0, 0.27274409407461386, -0.06208186691325159, 2.187124729156494, 0.5142421722412109, -0.20429473328141168, -0.9414486885070801, 1.7691384553909302, -7.833579598171137e-16, 0.00021343749018434884, 0.00018554476695028892]
[5.849999999999987, 0.5854893967627646, 4.379247665405273, 0.1752278059720993, 0.29934104477429685, -0.09076030617208977, -0.09362784209327958, 0.05354984094346054, 0.0, 0.23827900660705204, -0.06569746764533464, 2.2120954990386963, 0.5314552783966064, -0.21686750632052598, -0.8816948533058167, 1.824953317642212, -3.6140772451632693e-12, 0.00021370284501845798, 9.32467478170144e-05]
[5.899999999999987, 0.32091593132122803, 4.390043258666992, 0.4319964349269867, -0.13455811099743248, -0.07243501401343298, 0.042006992565645114, 0.041930244444869993, 0.0, 0.21975046817798602, -0.0736576924710076, 2.23189640045166, 0.5347855091094971, -0.23744682071214163, -0.8312346339225769, 1.839184045791626, -2.5107749232804618e-08, 0.00016728923726937005, 6.166701758742414e-05]
[5.949999999999987, 0.26823061144614607, 4.430077075958252, 0.6305211782455444, -0.10732369492088019, 0.025454601427419413, 0.033494812825584135, -0.008591864061402311, 0.0, 0.15294060697398348, -0.07508053299987742, 2.2738566398620605, 0.5279939770698547, -0.24154528733961286, -0.723371684551239, 1.8061797618865967, -2.9598855402185162e-08, 0.00016060674617249338, 8.252136409380806e-05]
[5.999999999999987, 0.26487628589298634, 4.4504547119140625, 0.5862501859664917, -0.10817559205851093, 0.05518328904993376, 0.0359368058632872, -0.022587864994520035, 0.0, 0.1420073465413343, -0.08167663567592393, 2.2928531169891357, 0.5184143781661987, -0.24687652927306888, -0.6721205711364746, 1.770431399345398, -1.7601027498352915e-08, 0.0001286797691344845, 0.00033241180178097436]
[6.0499999999999865, 0.32644949778004734, 4.479952812194824, 0.23051808774471283, -0.1441363644692354, 0.14483158022516607, 0.04807477938915199, -0.03619289837163311, 0.0, 0.09841558344270251, -0.08184528418140523, 2.3323581218719482, 0.5016432404518127, -0.24719485263043464, -0.5661364793777466, 1.6957343816757202, -1.1614290967026381e-08, 0.00012167053333153234, 0.0006122391802233848]
[6.099999999999986, 0.5465623989055781, 4.4845170974731445, 0.03162870928645134, 0.6187871305770808, 0.14162484529730723, -0.24579585536374737, -0.026379731427011884, 0.0, 0.09109654974402441, -0.08500935959413033, 2.350252866744995, 0.4967381954193115, -0.24877261860530697, -0.5165930986404419, 1.6646754741668701, -2.0761438626844276e-10, 9.554221610914974e-05, 0.0024550990375133874]
[6.149999999999986, 0.6479151225870922, 4.4720611572265625, -0.3950742185115814, 0.19280479203516543, 0.04276834813394165, -0.06659324574673813, 0.026201565105503494, 0.0, 0.06575113582055842, -0.08524535932616906, 2.387998342514038, 0.4933058023452759, -0.2500967450231409, -0.41334763169288635, 1.6138699054718018, -9.968039103718785e-12, 8.80010576692677e-05, 0.0038213819360594127]
[6.199999999999986, 0.8259131614405337, 4.458184719085693, -0.46701282262802124, 0.08660114905609684, 0.012705704749665028, -0.03002490903658628, 0.031815017766845595, 0.0, 0.05871998721888124, -0.08793585232625997, 2.4054605960845947, 0.4986118972301483, -0.2543084501224102, -0.36485755443573, 1.5942206382751465, -1.062315810964087e-14, 6.637702977653408e-05, 0.009711136156454563]
[6.249999999999986, 0.8654888883180345, 4.428817272186279, -0.3765931725502014, 0.07738277308858187, 0.11101685382627362, -0.02688463235812868, -0.05302608987645691, 0.0, 0.0490840263088302, -0.08859736562987693, 2.4540722370147705, 0.48495566844940186, -0.25555324055097617, -0.27656111121177673, 1.5119738578796387, -9.77509443525433e-15, 5.78286302836782e-05, 0.013664139728902706]
[6.299999999999986, 0.8302852795855051, 4.415297508239746, -0.03673546761274338, 0.08375206540661394, 0.11999728700823477, -0.028731850860551786, -0.056005953431037606, 0.0, 0.04845617185759896, -0.0853112168370925, 2.493468999862671, 0.42105069756507874, -0.24929577523443922, -0.20452284812927246, 1.3431649208068848, -3.2408214994446997e-12, 4.214636909131212e-05, 0.0870835182450855]
[6.349999999999985, 0.7737875923745607, 4.4218950271606445, 0.3458983898162842, 0.09906193877672571, 0.09688314354537829, -0.03333141196055788, -0.04280306579366159, 0.0, 0.04701232234850351, -0.08151827357280683, 2.516525983810425, 0.3801741302013397, -0.24311535086984493, -0.16103368997573853, 1.2267240285873413, -1.678232576392237e-10, 3.806817960871286e-05, 0.22879805917597165]
[6.399999999999985, 0.5642155634973413, 4.4598541259765625, 0.8907124400138855, 0.4260850274219197, 0.09009336799352961, -0.1413996764400876, -0.031450494494233, 0.0, 0.03949024507361238, -0.0715264062827405, 2.54727840423584, 0.33741241693496704, -0.23036569081944774, -0.10187312215566635, 1.0815941095352173, -1.9728962075505574e-08, 2.8783636960707403e-05, 1.5755801717693996]
[6.449999999999985, 0.4775030940552503, 4.501095771789551, 1.1629728078842163, -0.6342000003985483, 0.08328147789401208, 0.22996646575547858, -0.026933893472942748, 0.0, 0.032623048514785535, -0.0705089544362676, 2.5657706260681152, 0.31658053398132324, -0.22752904889518757, -0.0658593624830246, 0.9999449849128723, -5.490837312449928e-09, 2.5839294194887477e-05, 2.777703528948038]
[6.499999999999985, 0.2909851670746172, 4.579742908477783, 1.4026098251342773, -0.11152207020719332, 0.09795145923876351, 0.035049249957574344, -0.03003396377263156, 0.0, 0.024277902442903045, -0.07117314712247703, 2.590991973876953, 0.2898530066013336, -0.22745364143546598, -0.015994828194379807, 0.8986379504203796, -5.88424023331169e-12, 1.9828890290566662e-05, 8.36626320179478]
[6.549999999999985, 0.2581801951876929, 4.635912895202637, 1.4092862606048584, -0.09792384767766772, 0.1359896711133247, 0.030839359098094134, -0.02946731787420001, 0.0, 0.023403569888877793, -0.07199775647146889, 2.6062703132629395, 0.27065780758857727, -0.2293835172611994, 0.014850023202598095, 0.8313691020011902, -1.1815369103734908e-12, 1.7990900968001372e-05, 11.54466820841256]
[6.5999999999999845, 0.26462486335603164, 4.679413318634033, 1.295624852180481, -0.10303024973845261, 0.12776321565791027, 0.03316271624792299, -0.00543759674266423, 0.0, 0.02897670269660765, -0.07544421130810985, 2.6175320148468018, 0.2642510235309601, -0.2352668387301412, 0.03833196312189102, 0.7933492660522461, -2.5153911005606593e-12, 1.4249432183095852e-05, 23.130830735727837]
[6.649999999999984, 0.3177085987717827, 4.752166748046875, 0.8839167952537537, -0.13296956307635305, 0.013479826570528347, 0.04404637705602319, 0.06139482320822515, 0.0, 0.041530305631072316, -0.07854834962357461, 2.645003080368042, 0.2717186212539673, -0.23861060206426857, 0.07386573404073715, 0.7484120726585388, -1.8262847318977238e-11, 1.2998475421664193e-05, 27.456926001446213]
[6.699999999999984, 0.46639553203415474, 4.791616439819336, 0.4861994981765747, -0.5348468379117778, -0.07576263162812441, 0.20861803338453963, 0.07679673438564442, 0.0, 0.04241739960971862, -0.08555275869089601, 2.668605327606201, 0.2825101315975189, -0.2447293053038953, 0.10530993342399597, 0.7353217601776123, -2.8568952760578977e-10, 1.0249199856139989e-05, 34.316651470267615]
[6.749999999999984, 0.5437481361077681, 4.805097579956055, 0.2378973811864853, 0.6528279537485406, -0.10754543126312369, -0.270057450086358, 0.0761154704869342, 0.0, 0.041854851776108266, -0.08658312599779763, 2.68404221534729, 0.29048195481300354, -0.24816843171201974, 0.12741445004940033, 0.7362887859344482, -2.121664189412847e-10, 9.347216278190334e-06, 36.86397452436715]
[6.799999999999984, 0.6802360356664076, 4.809670925140381, 0.05486999452114105, 0.15779189961379034, -0.12102684049787112, -0.055588196667793764, 0.07513804348861498, 0.0, 0.04123367944724891, -0.08779459114537952, 2.6961543560028076, 0.3153035640716553, -0.2514311325285375, 0.1462770402431488, 0.7705557942390442, -9.860122889563878e-12, 7.4075293427116395e-06, 37.245602283233374]
[6.849999999999984, 0.7111305492386011, 4.813349723815918, 0.05972184240818024, 0.13381229400618683, -0.25421038548872993, -0.0467486881677888, 0.0711551576552101, 0.0, 0.04695053450728668, -0.08720673550201727, 2.723484516143799, 0.34548985958099365, -0.2512105188859462, 0.1813797503709793, 0.844510555267334, -4.67398275431563e-12, 6.745589509020648e-06, 35.02836476693146]
[6.8999999999999835, 0.7128518503305209, 4.819295406341553, 0.1784379780292511, 0.12791033355537476, -0.16402062554947985, -0.04584615642215749, -0.011196929097190398, 0.0, 0.07282432043053975, -0.08625263203785141, 2.748415231704712, 0.3464405834674835, -0.2420498368166681, 0.22259874641895294, 0.9831023812294006, -8.284597241101833e-12, 5.186650353137698e-06, 15.989176186203574]
[6.949999999999983, 0.6837814271833973, 4.829965114593506, 0.375716894865036, 0.14840925372892938, -0.06534948613992662, -0.05242256839406103, -0.02263066416712875, 0.0, 0.07194103891004329, -0.08450954566561708, 2.7639284133911133, 0.3228011727333069, -0.24113062157087234, 0.2551704943180084, 1.0254380702972412, -1.8762398153020952e-11, 4.683072645634023e-06, 11.32813132159615]
[6.999999999999983, 0.5294310164145262, 4.86063289642334, 0.662992000579834, 0.8856397397963794, 0.0013472154862464937, -0.4148153206717339, -0.028289442269390366, 0.0, 0.06003931354425774, -0.07930444038835478, 2.784945487976074, 0.2899380326271057, -0.24078411792337243, 0.30652904510498047, 1.0080411434173584, -1.1722567250619783e-10, 3.663721806449569e-06, 9.133483813398506]
[7.049999999999983, 0.4542122973717285, 4.889886856079102, 0.8178724646568298, -0.4324914853472364, 0.028313637421390907, 0.14813346619952295, -0.03430287879675391, 0.0, 0.05029641793628758, -0.07715617756348808, 2.7975480556488037, 0.2676726281642914, -0.24132951843417766, 0.3406689465045929, 0.9753667712211609, -9.476722589931604e-11, 3.3433433447510844e-06, 10.291218039165777]
[7.099999999999983, 0.3023514311955896, 4.940317630767822, 0.8492609858512878, -0.12653982785593443, 0.13351485344105976, 0.0380421885273974, -0.07756899772743996, 0.0, 0.03908590651262473, -0.07324703280177713, 2.8143248558044434, 0.2286067008972168, -0.24500969029545497, 0.3902815580368042, 0.9047720432281494, -1.8219785434198873e-11, 2.610653647363821e-06, 17.06777639269545]
[7.149999999999983, 0.28450110831996306, 4.973588943481445, 0.8463589549064636, -0.11797255535817325, 0.27231206799407, 0.03449025895516767, -0.11692192262258645, 0.0, 0.03610210605320487, -0.07211060657577069, 2.823530435562134, 0.18068833649158478, -0.24785125633710967, 0.42082729935646057, 0.8029001951217651, -1.549506628148311e-11, 2.4534896223160675e-06, 20.6630690955554]
[7.199999999999982, 0.2569806994117304, 5.017475128173828, 0.631565272808075, -0.11530045941908722, 0.42692530300250686, 0.029060710823892947, -0.057941722878295576, 0.0, 0.06593643679821881, -0.06816605969260725, 2.834759473800659, 0.13833990693092346, -0.27169687926027164, 0.4567255675792694, 0.6376699805259705, -1.0557008782807283e-11, 1.9271233914441315e-06, 55.90761064741001]
[7.249999999999982, 0.30159551411792873, 5.036224365234375, 0.40261775255203247, -0.14893678295337437, 0.4383078011292525, 0.03503731220110817, -0.023781184840465625, 0.0, 0.08227773134706202, -0.06770202161105054, 2.842371940612793, 0.1355920284986496, -0.2899943967218389, 0.4733624756336212, 0.545953094959259, -1.1370398111799443e-11, 1.8003739764489995e-06, 77.20211133909125]
[7.299999999999982, 0.4300231147005569, 5.046952247619629, 0.040070682764053345, -0.4202597007072636, 0.33899914632835093, 0.09708520610119224, 0.00693710306834268, 0.0, 0.08871880520419097, -0.07218900630377836, 2.85331392288208, 0.13911092281341553, -0.3328092147737689, 0.49382472038269043, 0.4313812553882599, -1.1469482171036275e-12, 1.5845210097377027e-06, 127.03060794174147]
[7.349999999999982, 0.5015799919180783, 5.04240608215332, -0.2017325758934021, -1.279375549453391, 0.21314440493793163, 0.7392248932452706, 0.01792776125720763, 0.0, 0.08410799842383505, -0.07114359649541888, 2.8604605197906494, 0.14183850586414337, -0.3520424023444637, 0.5051726698875427, 0.37776824831962585, -1.5076687495557654e-13, 1.5151790077396157e-06, 148.65547003102148]
[7.399999999999982, 0.6661713649340241, 5.018987655639648, -0.3806399405002594, 0.25579588217775967, 0.006706666189540666, -0.053284092694562066, 0.034234436074532394, 0.0, 0.07214695157387914, -0.07719626606828078, 2.870988607406616, 0.14690826833248138, -0.37906816279867206, 0.5204914808273315, 0.3319469094276428, -5.638303956602359e-17, 1.3542781725349006e-06, 176.17356336095844]
[7.4499999999999815, 0.7064214112590331, 4.996801853179932, -0.5534777045249939, 0.2124988791328541, -0.14591812125930403, -0.043519001252994946, 0.07556899352469448, 0.0, 0.06564342794066852, -0.07927350561619567, 2.878200054168701, 0.16616375744342804, -0.3931421532205904, 0.5307952761650085, 0.34643855690956116, -3.900321754595522e-18, 1.2993888747349676e-06, 189.06431646120194]
[7.499999999999981, 0.7437440496843579, 4.962596893310547, -0.5235517621040344, 0.1797016734548746, -0.4665172279739174, -0.040944191162736426, 0.1739259534344768, 0.0, 0.0566921987264158, -0.08874863211487205, 2.8916969299316406, 0.2527725398540497, -0.3938703033791141, 0.5524441003799438, 0.5348823666572571, -1.0785338708205636e-18, 1.2335625487085058e-06, 176.41325508218569]
[7.549999999999981, 0.7156654958503805, 4.940876483917236, -0.5175727605819702, 0.19259139584996543, -0.5891774903893282, -0.04921888349417607, 0.14566897675228205, 0.0, 0.08244598600882118, -0.09389232875618043, 2.9037535190582275, 0.31369706988334656, -0.3721577718292185, 0.5763933658599854, 0.7649621963500977, -3.474610213857639e-18, 1.2091070843895361e-06, 142.5437428985544]
[7.599999999999981, 0.7079685761315855, 4.923557281494141, -0.5297998189926147, 0.15718765623512973, -0.6009352982800493, -0.05463385648635428, 0.12232686594344838, 0.0, 0.10173551676190898, -0.10034056584535542, 2.9145071506500244, 0.32853302359580994, -0.2912371741180634, 0.6030322909355164, 0.9618905782699585, -4.987177604805565e-18, 9.983629202285208e-07, 22.3287816291069]
[7.649999999999981, 0.6697681264768857, 4.889395713806152, -0.349577933549881, 0.19435917319315468, -0.33541702626323583, -0.0679145303728282, 0.054509427355154426, 0.0, 0.13453137202073798, -0.10071804793603407, 2.9367668628692627, 0.3346700370311737, -0.29214659515928637, 0.6784310340881348, 1.347273826599121, -1.491512957527429e-17, 9.132145582869688e-07, 6.8075284750403595]
[7.699999999999981, 0.5407171962259741, 4.879310607910156, -0.21642649173736572, 0.8093029671555014, -0.26232099239292545, -0.34318634075425103, 0.03699777707371105, 0.0, 0.13400912388690542, -0.1017260528912536, 2.9472453594207764, 0.3333573043346405, -0.31712629757638416, 0.7218970060348511, 1.44895601272583, -1.863074448084683e-14, 7.262221496886277e-07, 0.3894581627413449]
