time, uz, alt, vel_alt, uthe, roll, uphi, pitch, upsi, yaw, ux, pos_x, vel_x, uy, pos_y, vel_y, Fz, Fx, Fy
[0.0, 0.5064214668498361, 2.96720027923584, 0.0037317241076380014, -0.6599863009418557, -0.01944668857950857, 0.9100236340227614, 0.008202210022209961, 0.0, -0.05002483060867787, -0.04266560876268312, -0.01607237011194229, 0.0011144153540953994, -0.04193956538364533, -0.03562320023775101, -0.006195055786520243, -4.323290740681607e-09, 2.575554479764545, 2.294698395116809]
[0.05, 0.5057608448279071, 2.9696614742279053, 0.003032119944691658, -0.6359828498856694, -0.019852179649063058, 0.8550808172941093, 0.007886364631878326, 0.0, -0.05024756031510784, -0.04518432598359835, -0.014852740801870823, 0.0006088733207434416, -0.04420800320317332, -0.03685299679636955, -0.005120742134749889, -8.419420954332152e-09, 5.143320260419965, 4.589102170218871]
[0.1, 0.4977723751241712, 2.9713830947875977, 0.07099773734807968, -0.36225108937279615, -0.01998046648832568, 0.39930859453905954, 0.025137249571815012, 0.0, -0.05073116768599741, -0.04782097367947124, -0.01439195778220892, 0.0020443976391106844, -0.046614769061974, -0.03729170933365822, -0.0037353213410824537, 1.412032677692185e-07, 7.7189792264732, 6.899230534157466]
[0.15000000000000002, 0.5281549552577778, 2.9753401279449463, 0.09554468840360641, 0.26916546450946965, -0.03414203973777466, -0.3003825317688723, 0.12272213939361201, 0.0, -0.05105206643676991, -0.05211948832314581, -0.013704231008887291, 0.01980499178171158, -0.04859200511940492, -0.037703484296798706, -0.004417410120368004, -8.160968498918049e-07, 10.489171490111653, 9.16350846060288]
[0.2, 0.6042088166933863, 2.984452247619629, 0.11245835572481155, 0.05882551001916159, -0.2241508318466225, -0.07269963594743886, 0.3625196652641284, 0.0, -0.05684168411932177, -0.06358810335830348, -0.006603107787668705, 0.20887026190757751, -0.051557674128500874, -0.03750700503587723, 0.05866540968418121, -6.3871662807213105e-06, 12.298933404633123, 11.30712330335205]
[0.25, 0.6195193423988987, 2.998051404953003, 0.16013194620609283, 0.06671514266808065, -0.4684190744566427, -0.08788823560838303, 0.4214279081533966, 0.0, -0.05030482136295959, -0.08943918462662205, 0.022985517978668213, 0.5745940208435059, -0.06808097398878887, -0.024658024311065674, 0.36864328384399414, -2.0539971261163853e-05, 12.686465611564389, 13.993584821390659]
[0.3, 0.6923675330253035, 3.0037879943847656, 0.15170818567276, 0.05809916316328382, -0.567947137864409, -0.06910630207369922, 0.32372599533594193, 0.0, 0.018216795432347343, -0.1169885409490035, 0.041084785014390945, 0.6751524209976196, -0.09854402991041303, -0.01256563700735569, 0.5378149151802063, -4.058655709982012e-05, 5.741413445846852, 7.597048301545401]
[0.35, 0.7662050874049535, 3.0164783000946045, 0.16192016005516052, 0.04733445318494577, -0.42877722662959444, -0.05172478015359237, 0.17756437445586207, 0.0, 0.10629279920060396, -0.12293059430031433, 0.09515023231506348, 0.7791666388511658, -0.11263072710397055, 0.039402954280376434, 0.9168843626976013, -7.024891969389088e-05, 4.252522615178969, 1.3229199536736846]
[0.39999999999999997, 0.8278964326558252, 3.0232229232788086, 0.24563875794410706, 0.046264017639859364, -0.26936223717717606, -0.045058802960544604, 0.10286239269620921, 0.0, 0.12617399180692931, -0.13284505234246735, 0.11757197231054306, 0.7972895503044128, -0.1365419341292213, 0.06617680937051773, 1.022853970527649, -0.00032056771716467715, 4.523462738447233, 0.7112994179110352]
[0.44999999999999996, 0.8105019138878846, 3.0378799438476562, 0.42643502354621887, 0.057161794009125355, -0.17902873483736023, -0.04994698364353942, 0.05212648625935361, 0.0, 0.12590818147108615, -0.13922072422696286, 0.15001705288887024, 0.8034214973449707, -0.15957117269243853, 0.10867699235677719, 1.1238267421722412, -0.002294060775062402, 5.106801828425461, 0.3648265307750123]
[0.49999999999999994, 0.8773550887107244, 3.0772693157196045, 0.8262179493904114, 0.04969455613231458, -0.1004644809979413, -0.04206370105106244, 0.007293523549441045, 0.0, 0.10566724065958903, -0.1432965761404713, 0.19797568023204803, 0.7779555916786194, -0.16948174818666942, 0.17815816402435303, 1.2123233079910278, -0.001959221845066009, 6.848243277542796, 0.1941140672779635]
[0.5499999999999999, 0.7755944824860941, 3.1599769592285156, 1.3977292776107788, 0.07302246733065584, -0.05450212349980078, -0.05979289430562689, -0.011020534681751458, 0.0, 0.0853214954307467, -0.14735763540610625, 0.25266173481941223, 0.7288932800292969, -0.18038950680070506, 0.266007661819458, 1.2456820011138916, -8.300292405462292e-05, 10.225081738344864, 0.15881156795606716]
[0.6, 0.724789741687325, 3.2040624618530273, 1.66205632686615, 0.09363007379823987, -0.0326313102121469, -0.07490911993294451, -0.01803207127168967, 0.0, 0.07318414463920586, -0.14939898633829835, 0.2728889286518097, 0.7056115865707397, -0.18745898407477923, 0.30046531558036804, 1.2438429594039917, -1.2282093977700307e-09, 13.038820742173602, 0.1681750692803521]
[0.65, 0.6616408681303579, 3.279217481613159, 2.0038881301879883, 0.13395498096746547, -0.01636248932815603, -0.10824513521330364, -0.02125058936796126, 0.0, 0.062474741437419934, -0.1527254938002254, 0.29979410767555237, 0.6727856993675232, -0.1905105526619759, 0.34908565878868103, 1.230875015258789, -1.9317014672459507e-14, 17.120324125843805, 0.19664524730115623]
[0.7000000000000001, 0.7656075823939871, 3.411997079849243, 2.3346526622772217, 0.08111935968521249, 0.008633653833263803, -0.06667380925709722, -0.03004385616603646, 0.0, 0.0513776348502354, -0.1581827900850954, 0.3368537127971649, 0.6273193359375, -0.19302091145789102, 0.4201720058917999, 1.1926639080047607, -1.6789287519475602e-20, 23.256930514592156, 0.2836632159896154]
[0.7500000000000001, 0.6782977906372406, 3.509190320968628, 2.5446090698242188, 0.123335453918785, 0.02658813762282206, -0.10381121926172858, -0.03941546782636375, 0.0, 0.0457604081931643, -0.1625072584777933, 0.36022675037384033, 0.5652099847793579, -0.19440467149353277, 0.46624094247817993, 1.1200451850891113, -3.668337761879688e-23, 29.3584929697078, 0.39363324976219327]
[0.8000000000000002, 0.7209683789618323, 3.6630795001983643, 2.673275947570801, 0.09831822973404097, 0.05532022499689329, -0.08663785648841434, -0.05793137681934986, 0.0, 0.03743253765873733, -0.16982421621995475, 0.39281702041625977, 0.5320873260498047, -0.1935851091284281, 0.5323560833930969, 1.0794715881347656, -2.1709163379369365e-28, 39.71292063909081, 0.7417181272035712]
[0.8500000000000002, 0.7065653513030445, 3.751373052597046, 2.8010597229003906, 0.10520309427316421, 0.05703527547336843, -0.0968143720071112, -0.058210910590968765, 0.0, 0.033322904684520406, -0.17692641764377015, 0.40865960717201233, 0.4956415295600891, -0.1932708613126569, 0.565657377243042, 1.0322238206863403, -1.078752454549503e-31, 48.57213753704684, 1.104526325970171]
[0.9000000000000002, 0.7844509001255653, 3.9497506618499756, 2.988917589187622, 0.07583057334651723, 0.07000448646138444, -0.07404578274525783, -0.06585205362007623, 0.0, 0.027651424172057504, -0.1886886353027065, 0.4388100206851959, 0.4234662353992462, -0.19378503704019748, 0.6318307518959045, 0.9367284178733826, -3.485488244558377e-37, 62.104600032790444, 2.189937471830463]
[0.9500000000000003, 0.6574316566732354, 4.174063205718994, 3.194918155670166, 0.13883104368928315, 0.07652138239259555, -0.1445551618330838, -0.07225641814900752, 0.0, 0.023785540567688147, -0.1989070817389682, 0.4653685390949249, 0.3382953405380249, -0.19293882284577177, 0.6946693062782288, 0.8246159553527832, -1.08919587501372e-40, 76.17866906609089, 4.486076573684695]
[1.0000000000000002, 0.6972016326795635, 4.265831470489502, 3.3199071884155273, 0.10985606431571639, 0.07805173664704607, -0.11795820025828332, -0.07487946915810952, 0.0, 0.021485285728674825, -0.20561019165212002, 0.4739890396595001, 0.30012980103492737, -0.19270818109823545, 0.7169069647789001, 0.7760123610496521, -8.52675949780349e-48, 85.75203938180292, 6.504437580836623]
[1.0500000000000003, 0.5260551947100593, 4.515296459197998, 3.5260980129241943, 0.6395612602660348, 0.07573656678492531, -0.9513510753457189, -0.0754638191009224, 0.0, 0.018409915919558525, -0.20867398416482774, 0.4869762361049652, 0.2109883576631546, -0.1906466968299062, 0.764387845993042, 0.66379714012146, -2.6918053598718203e-52, 94.26692614191143, 9.311706268897764]
[1.1000000000000003, 0.42644624818436383, 4.615419864654541, 3.5839648246765137, -0.23263100832862446, 0.0850272261707843, 0.2614961044211202, -0.0860613940279266, 0.0, 0.016328791852033415, -0.20724177304348754, 0.4896593391895294, 0.17416518926620483, -0.18992199187188555, 0.7802101373672485, 0.6203663945198059, -9.302238895394926e-58, 100.013799589787, 14.88504295258926]
[1.1500000000000004, 0.37186786026187024, 4.731654644012451, 3.6416573524475098, -0.14683659895909268, 0.09389117656743931, 0.15990112800120204, -0.1067940615326987, 0.0, 0.013657282933109952, -0.20646951376996658, 0.49204400181770325, 0.12974746525287628, -0.19179093474658684, 0.7972738742828369, 0.5693013072013855, -2.756565731456354e-60, 103.30225910596275, 19.533461873852776]
[1.2000000000000004, 0.37053949795152075, 4.9791669845581055, 3.5663905143737793, -0.1460253830483434, 0.14228943624237, 0.14714930529672146, -0.26129339209382696, 0.0, 0.0011243284159795366, -0.19157815238388867, 0.4919131100177765, 0.00014077758532948792, -0.1921705677746336, 0.8287503123283386, 0.4715609550476074, -2.8362303774301117e-59, 93.15542386772722, 26.39080431447431]
[1.2500000000000004, 0.30107693435819594, 5.2288360595703125, 3.334700584411621, -0.09742684262828238, 0.23027073769869935, 0.08696257429975808, -0.335531231478896, 0.0, -0.00011176608667368337, -0.1688113025087739, 0.4807974100112915, -0.19239728152751923, -0.18996449994591869, 0.8548991680145264, 0.33857855200767517, -4.1166678637586735e-57, 81.525929465505, 31.55415224579967]
[1.3000000000000005, 0.30790748805643725, 5.3210530281066895, 3.2208504676818848, -0.09524507681306968, 0.27335232575898843, 0.06904725748919674, -0.29978420079591017, 0.0, 0.01619670110433341, -0.12953097039503117, 0.47297585010528564, -0.25435787439346313, -0.17936219120886204, 0.8623430728912354, 0.278117835521698, -5.828579312353561e-51, 52.441295884969435, 36.48046697046637]
[1.3500000000000005, 0.30137759921002294, 5.540820598602295, 2.8457136154174805, -0.08967679599191523, 0.27558692750309316, 0.06169868520104014, -0.17033080208042348, 0.0, 0.06744698785137539, -0.11944677915117445, 0.44808757305145264, -0.334530234336853, -0.17418893762186163, 0.8748091459274292, 0.14326873421669006, -2.284719417993664e-47, 45.33647185816171, 38.28887954607599]
[1.4000000000000006, 0.3412628325147262, 5.618418216705322, 2.6791439056396484, -0.09813346136930721, 0.20668220198686862, 0.07302887411853048, -0.08774531142204291, 0.0, 0.09300983592080247, -0.11441011159665315, 0.43744826316833496, -0.34491607546806335, -0.1543726193669415, 0.87744140625, 0.10823382437229156, -3.438715415424652e-39, 40.25938776771902, 35.991715169248636]
[1.4500000000000006, 0.3489783072179641, 5.722046375274658, 2.4396092891693115, -0.09711012100538213, 0.11689414757071591, 0.07728717324335709, -0.02351344402595624, 0.0, 0.10410776754476941, -0.11556964214364135, 0.42129722237586975, -0.35198816657066345, -0.14581476006860347, 0.8783852458000183, 0.07219505310058594, -7.606976568760668e-35, 40.517306005899556, 35.35133931989285]
[1.5000000000000007, 0.3743345596653843, 5.926072597503662, 1.9222489595413208, -0.101566818084224, -0.04599120566442128, 0.09756016019763564, 0.0641846116825261, 0.0, 0.09776178524256743, -0.12305767242506721, 0.38354620337486267, -0.3401808440685272, -0.12875798296252386, 0.8752720355987549, 0.043758999556303024, -1.1511412507248577e-29, 43.236863712674165, 34.715518467818654]
[1.5500000000000007, 0.362227336491137, 6.000107288360596, 1.7033579349517822, -0.0907800393388635, -0.061371330679050984, 0.09449112853542675, 0.07058800743942271, 0.0, 0.09420469434851882, -0.12979752318748858, 0.3680912256240845, -0.32985755801200867, -0.12522974858082137, 0.8741787672042847, 0.046760883182287216, -3.4457973715824145e-25, 48.70923334547904, 35.524222050078706]
[1.6000000000000008, 0.3626981517666108, 6.046704292297363, 1.555632472038269, -0.08607606393948909, -0.07906221666377837, 0.09913350830329623, 0.07763401793485822, 0.0, 0.08653685930500199, -0.13578151122103113, 0.3575887084007263, -0.32154473662376404, -0.11838278779453693, 0.8736069798469543, 0.05186299979686737, -6.646201402285145e-24, 52.00997656578797, 36.33950182861746]
[1.6500000000000008, 0.34442125132128143, 6.147296905517578, 1.1795274019241333, -0.07638993136499207, -0.085973404390876, 0.0913513247658913, 0.08128991642974942, 0.0, 0.07300995288749475, -0.14057752757149833, 0.33245038986206055, -0.2994093596935272, -0.11794710639598802, 0.8740143179893494, 0.06850551813840866, -1.0139124314782263e-22, 55.85306758808988, 37.24094453933671]
[1.7000000000000008, 0.3353232557093423, 6.210297584533691, 0.8608510494232178, -0.0713700295059247, -0.08036847442220449, 0.09286122519254239, 0.08202498571469796, 0.0, 0.05645861783709885, -0.15076702949244936, 0.3130829930305481, -0.28063830733299255, -0.11623862304415147, 0.8756964802742004, 0.07967519760131836, -5.086331911796917e-21, 63.110158300292106, 38.463165542740036]
[1.7500000000000009, 0.31793144902794024, 6.241427898406982, 0.6397167444229126, -0.06511328347740382, -0.07767739617078633, 0.08774021523591824, 0.08174206609673958, 0.0, 0.05137350288982646, -0.15658762471712862, 0.3009710907936096, -0.26879674196243286, -0.11651989322819875, 0.8774047493934631, 0.08574330061674118, -1.2451538472673949e-20, 67.77656054086718, 39.09582835354972]
[1.800000000000001, 0.2697342103809749, 6.257828235626221, 0.48262354731559753, -0.051742943397950596, -0.07345256980038142, 0.07501304640273626, 0.08062284898707182, 0.0, 0.04409096983867665, -0.16735181351749778, 0.2928031086921692, -0.2608518898487091, -0.11564848415033703, 0.878765344619751, 0.08904944360256195, -9.980524840230893e-21, 75.68431550263048, 39.782152692245305]
[1.850000000000001, 0.2916935957384923, 6.280412673950195, 0.05151674151420593, -0.05708167233157137, -0.06688799944428588, 0.08707673306390852, 0.07820641473606854, 0.0, 0.03294153831160886, -0.17662583711644442, 0.27075961232185364, -0.24460391700267792, -0.11605659146590111, 0.8827406167984009, 0.09211145341396332, -2.970226819268411e-21, 83.49907386204036, 40.03090281767723]
[1.900000000000001, 0.2444381036658932, 6.273919582366943, -0.34815940260887146, -0.04666020217994615, -0.055610350298870515, 0.07456536497230304, 0.07116563021055503, 0.0, 0.019718959688686418, -0.1838632242199428, 0.25289905071258545, -0.23576833307743073, -0.11524502828639557, 0.8863163590431213, 0.09173554927110672, -9.083381043940858e-24, 88.16844103899072, 40.296177416263134]
[1.950000000000001, 0.325420805684415, 6.256366729736328, -0.6079732179641724, -0.06674023687179592, -0.05353931549543018, 0.11144185339428836, 0.06986130401844065, 0.0, 0.01749408415080842, -0.19143449697010356, 0.24160252511501312, -0.22986213862895966, -0.11505471483546992, 0.8888674974441528, 0.09055940061807632, -1.148333555089957e-25, 95.28580825142701, 40.220235145871825]
[2.000000000000001, 0.3351396804134754, 6.2378129959106445, -0.7988373041152954, -0.06981608239414859, -0.050039389569792134, 0.12181990873167382, 0.06801009559696815, 0.0, 0.012462620028157631, -0.19840442590683421, 0.2338811755180359, -0.22682835161685944, -0.11417464863533518, 0.8906427621841431, 0.08855440467596054, -4.134935099765653e-31, 100.16045011847935, 40.338017158456054]
[2.0500000000000007, 0.3707135495596216, 6.165207862854004, -1.2613835334777832, -0.08693582140527152, -0.04734549744915489, 0.1570470571424574, 0.0673848674536048, 0.0, 0.006044548027357994, -0.20441644796038166, 0.21520161628723145, -0.21624694764614105, -0.11391149009963787, 0.8953958749771118, 0.08463113754987717, -2.600850909418982e-35, 105.79993397796646, 40.31793083450115]
[2.1000000000000005, 0.29614290521018305, 6.128457069396973, -1.4251881837844849, -0.05659551267717558, -0.04903091755246803, 0.10765126017100504, 0.07216702000256597, 0.0, 0.0024677750902838227, -0.214195827660492, 0.20823884010314941, -0.21122609078884125, -0.1129476170078412, 0.8972400426864624, 0.08388648182153702, -7.304385500751414e-42, 113.75662487500006, 40.253463222135636]
[2.1500000000000004, 0.41626550989002825, 6.01331090927124, -1.8186683654785156, -0.12542255144452477, -0.056258637663460453, 0.2509260796287903, 0.08690934720219991, 0.0, -0.0018552785144091356, -0.22268067869159175, 0.19171933829784393, -0.19252842664718628, -0.11307461390697233, 0.902309000492096, 0.08526292443275452, -1.5566165240986639e-46, 121.36430877062273, 40.40601233445877]
[2.2, 0.4123906349569855, 5.960904598236084, -1.9893958568572998, -0.12035018296307132, -0.06289430151816056, 0.2544261210220249, 0.10098874187572644, 0.0, -0.004146764683828363, -0.2352634121907749, 0.1857287734746933, -0.18514353036880493, -0.11304178858805244, 0.904365599155426, 0.08608607947826385, -1.1380191246280982e-54, 131.56932537088775, 40.53775931406562]
[2.25, 0.46682530417028667, 5.8046650886535645, -2.369675397872925, -0.23722219245788637, -0.06843217370726254, 0.551072951035146, 0.11857364609135393, 0.0, -0.006367461349838118, -0.24592091776924088, 0.1742628961801529, -0.15460646152496338, -0.11355467680060233, 0.91141676902771, 0.09199704974889755, -5.5806165872703164e-61, 140.91987811522438, 40.706528752678295]
[2.3, 0.3813957347589986, 5.737110614776611, -2.4926416873931885, -0.09270181258009792, -0.07800463190501819, 0.21902830878991442, 0.13999168890112676, 0.0, -0.007428520883178043, -0.2653171429896446, 0.17092178761959076, -0.1370345801115036, -0.11352142754944612, 0.9145790338516235, 0.09711496531963348, -3.5431068370284195e-68, 156.85396180690248, 41.1029671505337]
[2.3499999999999996, 0.48592303430823147, 5.549430847167969, -2.7316782474517822, -0.30414954255422105, -0.10526556359346222, 0.9223064904132683, 0.19749499892835753, 0.0, -0.009693602431852858, -0.2944552446837613, 0.16489197313785553, -0.06386414170265198, -0.11596806852247526, 0.9234304428100586, 0.12324591726064682, -8.907305573127509e-74, 182.14251413299527, 42.17576785113622]
[2.3999999999999995, 0.5152081970083956, 5.471986293792725, -2.8279972076416016, 0.351018669957037, -0.13997686465848835, -1.421579941519627, 0.26878209367858413, 0.0, -0.013249699946145773, -0.32108261905640256, 0.1642400175333023, -0.023990027606487274, -0.11889629235309293, 0.9275128245353699, 0.13852901756763458, -5.421994506356884e-76, 198.9314193281521, 43.082889987199806]
[2.4499999999999993, 0.5606988207636385, 5.262914657592773, -2.960172176361084, 0.2059502777640158, -0.1714925269828163, -0.6364258098946792, 0.35750994665507274, 0.0, -0.013449663415032191, -0.3472402774481508, 0.17028336226940155, 0.14871607720851898, -0.12205916936710899, 0.9432885050773621, 0.20964181423187256, -3.198555270927016e-78, 219.12131726131167, 44.66024979219263]
[2.499999999999999, 0.5918015572630644, 5.180532455444336, -2.9453296661376953, 0.15160329577818255, -0.21465791785856755, -0.4352527792105447, 0.4355170281774528, 0.0, -0.01528691644674014, -0.3525291149612967, 0.17711873352527618, 0.2668187916278839, -0.12773425653896325, 0.9516246914863586, 0.2602531611919403, -5.344132206464529e-77, 211.37933950093424, 45.31515345296852]
[2.549999999999999, 0.6025346417935388, 5.087025165557861, -2.9155213832855225, 0.1493099719544792, -0.2500773567804185, -0.3752096251875315, 0.419827207221385, 0.0, 0.00035304221225430417, -0.3377861540640517, 0.18908017873764038, 0.41666457056999207, -0.1386562027871856, 0.9627650380134583, 0.33404356241226196, -3.231051779834583e-75, 173.50947244714936, 44.62222062947838]
[2.5999999999999988, 0.5614171390529331, 4.890554428100586, -2.8753902912139893, 0.24934175946827944, -0.21659944281029864, -0.5273275925052897, 0.2335902847108619, 0.0, 0.06724362172454854, -0.27750139249606165, 0.22743657231330872, 0.6198384165763855, -0.14042047103554456, 0.9945433735847473, 0.49665558338165283, -2.971341378012386e-72, 100.48495678348573, 35.213697158400706]
[2.6499999999999986, 0.6295345464635627, 4.686386585235596, -2.8207404613494873, 0.12710587918987457, -0.03794459780130499, -0.24981679383187919, -0.00204219474405836, 0.0, 0.10788889149953164, -0.2826633838474682, 0.2757011950016022, 0.6437731385231018, -0.1461126890197148, 1.0359221696853638, 0.5471938252449036, -9.249976379651079e-71, 96.43758333324702, 29.56241274026533]
[2.6999999999999984, 0.6500376409999656, 4.607754230499268, -2.826807975769043, 0.11321324542216166, 0.03497556409601096, -0.22375532705551715, -0.12976048650631097, 0.0, 0.10676246132399371, -0.29535065393729465, 0.29396218061447144, 0.6115744113922119, -0.1513396919130044, 1.05211341381073, 0.5312227010726929, -2.034876562760559e-68, 112.61525031013744, 30.192422902460574]
[2.7499999999999982, 0.6839354790491846, 4.5173749923706055, -2.829317808151245, 0.0927071831899522, 0.08509945803990482, -0.1963228471687328, -0.2383136149765839, 0.0, 0.09559867563172933, -0.32060876972179014, 0.3132145404815674, 0.5485796928405762, -0.1528122053587088, 1.0696038007736206, 0.4977937340736389, -8.844457232147055e-68, 143.66658858160574, 31.656013532842085]
[2.799999999999998, 0.722898593030976, 4.328262805938721, -2.739079236984253, 0.07534032848850811, 0.11349895812699654, -0.1969972539537958, -0.27982495032633287, 0.0, 0.08100471278128996, -0.3938115455540513, 0.344717413187027, 0.33675771951675415, -0.15187672864415058, 1.1016850471496582, 0.3831072151660919, -1.343553183699453e-63, 235.9698821934556, 34.73655003823646]
[2.849999999999998, 0.756425853084723, 4.136089324951172, -2.604320764541626, 0.06474379727558707, 0.10265444065532683, -0.18061740163183274, -0.24137386265205518, 0.0, 0.07317777867493235, -0.4170525462608874, 0.3625810444355011, 0.13023625314235687, -0.1505222310454896, 1.129838228225708, 0.2651050090789795, -1.96100520803947e-61, 268.5484344940722, 35.445043030505445]
[2.8999999999999977, 0.779952463558893, 4.064540863037109, -2.5218052864074707, 0.05723684305090664, 0.09067535252250487, -0.16267242670314974, -0.21194715160838984, 0.0, 0.06588973828874208, -0.41062171220920907, 0.3657819926738739, 0.05754288285970688, -0.14527649570949291, 1.1390430927276611, 0.22216390073299408, -1.8136876071960968e-55, 272.5914248838268, 33.398279386981486]
[2.9499999999999975, 0.8282393961365386, 3.9858269691467285, -2.4008493423461914, 0.046457442003253434, 0.08106572214206884, -0.1287105268493393, -0.19527218431293397, 0.0, 0.05910052597132329, -0.38173464822916847, 0.3668990135192871, -0.023632021620869637, -0.13826593260856818, 1.147603988647461, 0.17490044236183167, -1.1093116254153748e-51, 256.8614420607553, 31.944303453140964]
[2.9999999999999973, 0.8578847473801906, 3.834348201751709, -2.0515193939208984, 0.04011368293325142, 0.06553075558756355, -0.0947473392203639, -0.17097750969998193, 0.0, 0.04818637853513745, -0.30640138706513903, 0.3608706295490265, -0.19183994829654694, -0.12998679843096736, 1.1608995199203491, 0.0836525484919548, -3.864232290990749e-42, 191.57905167290232, 27.5560387113944]
[3.049999999999997, 0.8504402913245138, 3.772268772125244, -1.8442898988723755, 0.03866181943840784, 0.057213502510216105, -0.08213151485171163, -0.1539026061890787, 0.0, 0.04105657978181776, -0.25972566996971747, 0.35406494140625, -0.26906272768974304, -0.12245940998797544, 1.1646851301193237, 0.04403498396277428, -4.035638772270122e-37, 158.14040218750617, 25.541429236952755]
[3.099999999999997, 0.8102087774143478, 3.664882183074951, -1.2674622535705566, 0.04005020055658118, 0.04692347414313366, -0.06495969035406354, -0.12606832441111535, 0.0, 0.03353822191233111, -0.18099427261435777, 0.3319052755832672, -0.42636579275131226, -0.11172834180429955, 1.1710453033447266, -0.031960345804691315, -5.622818543554951e-24, 94.438310722349, 21.111270022992095]
[3.149999999999997, 0.7736309193803361, 3.6288764476776123, -0.9697421193122864, 0.043854276374803075, 0.04088467284667771, -0.06357242893386322, -0.10223381891648652, 0.0, 0.028678657373544934, -0.15553809911689517, 0.31791380047798157, -0.48619240522384644, -0.10743629850846231, 1.171762466430664, -0.06310012936592102, -2.658096528035802e-18, 75.06145992061852, 19.42716781449021]
[3.1999999999999966, 0.7190623737357262, 3.58345890045166, -0.3671134412288666, 0.051233438466953496, 0.03675400267830332, -0.06169298836982923, -0.08067850976503078, 0.0, 0.02326205616930945, -0.11968760546524956, 0.28270283341407776, -0.5823489427566528, -0.099545726361577, 1.1700053215026855, -0.12154491245746613, -7.731779531456678e-10, 50.22900220234826, 16.334266024534212]
[3.2499999999999964, 0.6981559462858118, 3.5755043029785156, -0.11982094496488571, 0.055326665547878434, 0.035441075679857756, -0.06225523414476149, -0.06673234197273982, 0.0, 0.019514676392039243, -0.10870297219592463, 0.26403576135635376, -0.615666925907135, -0.09676628368442332, 1.1674379110336304, -0.1449986845254898, -1.5185588009532688e-07, 43.48325271147621, 15.237817564061046]
[3.2999999999999963, 0.6964133773053205, 3.581808567047119, 0.2937150299549103, 0.052718325772590016, 0.03639443208204419, -0.0535014714178556, -0.05298785934147074, 0.0, 0.015174048730527087, -0.09252167340701783, 0.22140240669250488, -0.6658408045768738, -0.09129545653118488, 1.1594961881637573, -0.18992620706558228, -2.9035703812912026e-05, 35.17250683492388, 13.256737160223697]
[3.349999999999996, 0.6966200138948155, 3.61360764503479, 0.5928735733032227, 0.05113240619607044, 0.040083262160441925, -0.049576781246983025, -0.046674027242430985, 0.0, 0.011681258222332166, -0.0858180387200432, 0.17300744354724884, -0.7008059024810791, -0.08862436380095423, 1.1470105648040771, -0.23537975549697876, -6.696508411340486e-05, 32.39990605727009, 12.266702166270631]
[3.399999999999996, 0.7734505867441197, 3.63136887550354, 0.6964483857154846, 0.03497962743554924, 0.042826723184899655, -0.03201715257462388, -0.04351545478948608, 0.0, 0.009391480940804471, -0.07820172527548154, 0.1535278856754303, -0.7127354145050049, -0.08548702254843515, 1.1412078142166138, -0.25305113196372986, -5.536110181237153e-05, 29.27160018798193, 10.86762949776452]
[3.4499999999999957, 0.7467022445309595, 3.6899611949920654, 0.9794337153434753, 0.03727371507137172, 0.043616751177575824, -0.03326469556782507, -0.03808447639295798, 0.0, 0.0068994995050673715, -0.07300156724349643, 0.10021902620792389, -0.7403209209442139, -0.08185262280188188, 1.12162446975708, -0.30203431844711304, -2.896267097909283e-05, 27.89913844958928, 10.152022118192779]
[3.4999999999999956, 0.7928767032046744, 3.719158172607422, 1.1442883014678955, 0.02963119133403874, 0.04210808416018301, -0.025460627276890805, -0.03358202154940945, 0.0, 0.00578922870862006, -0.06676458645054503, 0.07870481163263321, -0.7506422400474548, -0.07773206943843101, 1.1127036809921265, -0.3233127295970917, -7.153136256159162e-07, 25.260677667347622, 8.609198799464448]
[3.5499999999999954, 0.6798746283338144, 3.7582204341888428, 1.3233379125595093, 0.04619663433661514, 0.03759913761029485, -0.03898285635336777, -0.026621130142797857, 0.0, 0.004798041802293753, -0.061405641684071935, 0.05394481495022774, -0.7592096924781799, -0.07283901358980786, 1.101840853691101, -0.3448445498943329, -2.9527469015458832e-08, 24.469689452783975, 8.0097502006973]
[3.599999999999995, 0.5777966353166013, 3.860333204269409, 1.721887469291687, 0.1063728677400398, 0.03343612791323472, -0.08921531242119504, -0.01919024120416761, 0.0, 0.003469855958283554, -0.05620668195697767, 0.0006708112778142095, -0.769911527633667, -0.06735937774343528, 1.0766289234161377, -0.38489997386932373, -1.1708266225103253e-12, 23.843532090981586, 7.038598509264382]
[3.649999999999995, 0.5226762483646817, 3.9179539680480957, 1.8816555738449097, 0.46611485139296027, 0.031148890641319486, -0.4326083255262371, -0.015903438313092898, 0.0, 0.002633466023962343, -0.05425172285481818, -0.024490999057888985, -0.7720335721969604, -0.06510200999833868, 1.0638456344604492, -0.40224385261535645, -5.5520806658977576e-15, 23.819022600795112, 6.669367627876267]
[3.699999999999995, 0.5307618396627939, 4.051197528839111, 2.015364646911621, 0.29893322460655525, 0.03717335869264485, -0.2607255635611647, -0.01916738530953762, 0.0, 0.0013480598984990915, -0.05133758170054696, -0.07807547599077225, -0.774415910243988, -0.06137204846213977, 1.0350381135940552, -0.43193235993385315, -1.6289806452940338e-17, 24.02265293048165, 6.172048205839793]
[3.7499999999999947, 0.4772985148934079, 4.130960941314697, 2.005309820175171, -0.18234653601679404, 0.06604871774070147, 0.14958390164290816, -0.04144644200542001, 0.0, 0.0012583940314671235, -0.04567668101642394, -0.10965688526630402, -0.781426191329956, -0.05651700727641891, 1.0171089172363281, -0.45419687032699585, -1.0153763387846783e-17, 23.180996392705687, 5.731757357719653]
[3.7999999999999945, 0.5536770312092558, 4.248728275299072, 1.9633022546768188, 0.13245442473741362, 0.20512784065280995, -0.08317413157957636, -0.1532695837523229, 0.0, 5.277536570018629e-05, -0.03374663737814819, -0.15861132740974426, -0.8403143882751465, -0.05412024835765501, 0.9873291850090027, -0.5421401262283325, -1.224417088122857e-17, 16.3716158012668, 3.664469073416202]
[3.8499999999999943, 0.5121600501710709, 4.311303615570068, 1.9782512187957764, 1.0153952828163224, 0.271248847689525, -0.6890338039377383, -0.1828018484816191, 0.0, 0.005314937917646707, -0.01649019571408091, -0.18690621852874756, -0.9038994908332825, -0.04179518844532467, 0.9674116373062134, -0.630285918712616, -3.656093184450677e-18, 10.855071865165817, 2.155290949816477]
[3.899999999999994, 0.5339384712319359, 4.443746089935303, 1.9681390523910522, 0.10966857878264168, 0.27018758340647026, 0.0005198254575645314, -0.10655575247830676, 0.0, 0.04448522515809417, 0.00011532939681396619, -0.2532762587070465, -0.9940358996391296, -0.02442928346872224, 0.9103792309761047, -0.8426762819290161, -1.1270941477275595e-18, 5.814269858509457, 0.5013730663050673]
[3.949999999999994, 0.4651218950033291, 4.506690502166748, 1.993741512298584, -0.04177015788917034, 0.20735822539353937, -0.011888461089236847, -0.10308649240743639, 0.0, 0.053310124782945306, 0.004945003885653272, -0.2858751714229584, -1.0131890773773193, -0.017384813033464428, 0.8793356418609619, -0.9314529895782471, -2.200590238733813e-19, 5.022009711835131, 0.2565927584199824]
[3.999999999999994, 0.41271057211663326, 4.640232563018799, 1.974734902381897, -0.006424740919294736, 0.20458925951340096, -0.02048934838828244, -0.20439526635590755, 0.0, 0.04790865520070515, 0.018477388990392567, -0.3577467203140259, -1.095160722732544, -0.00579434616373743, 0.8060390949249268, -1.0710253715515137, -8.230360409445214e-20, 2.644723730812193, 0.08823854731286467]
[4.049999999999994, 0.37091549084214337, 4.718681335449219, 1.9479868412017822, 0.0014776797246195798, 0.21042833959398913, -0.021960673426704727, -0.20306677259388062, 0.0, 0.060699269434272354, 0.028312633342777664, -0.40354013442993164, -1.1677029132843018, 0.001905242014563767, 0.7587291598320007, -1.1568390130996704, -7.537969526677698e-20, 1.4350116181026167, 0.04365314181975633]
[4.099999999999993, 0.3646072042735682, 4.830389022827148, 1.7705267667770386, 0.005948207577260119, 0.13649496795860155, -0.027687825870887875, -0.136524375571894, 0.0, 0.08664285129204227, 0.03731889419290088, -0.4760984182357788, -1.2241640090942383, 0.0080183801150478, 0.6831722259521484, -1.2343580722808838, -4.659169231895111e-18, 0.8519067612025886, 0.024721314891476158]
[4.149999999999993, 0.3775625320294061, 4.884639739990234, 1.629610300064087, 0.007773316846721117, 0.07947514856823516, -0.03314493760522397, -0.09492121690548552, 0.0, 0.09407665046439269, 0.04069801030959525, -0.5157554745674133, -1.2378674745559692, 0.009546641425854084, 0.6417897343635559, -1.2526670694351196, -1.0832846970007619e-16, 0.7350301900919465, 0.02307584726203469]
[4.199999999999993, 0.4286655604567971, 4.984072685241699, 1.2903393507003784, 0.015883324528561487, 0.028571942324730672, -0.0608118180039357, -0.05177474369300083, 0.0, 0.09322484111248484, 0.045897000547936266, -0.6008561849594116, -1.2483679056167603, 0.011996151977413891, 0.5527957081794739, -1.2670834064483643, -4.069456999655912e-14, 0.6246555554959211, 0.02555077410341051]
[4.249999999999993, 0.46217170647919753, 5.022827625274658, 1.126222014427185, 0.030733694396844813, 0.015479639055610955, -0.10711480098396049, -0.035754881661480185, 0.0, 0.0880801936709387, 0.04766348881972545, -0.64104163646698, -1.2482439279556274, 0.013706251103522742, 0.5102388858795166, -1.2688937187194824, -2.8663304435346365e-13, 0.5990649913478495, 0.028081815598039312]
[4.299999999999993, 0.5453719689332702, 5.088486194610596, 0.8218565583229065, -0.05970484517718198, 0.013242168369946305, 0.14744901242679517, -0.031505004918197244, 0.0, 0.07619305536783215, 0.04869120869931366, -0.726584255695343, -1.245539665222168, 0.019811144037726287, 0.41634252667427063, -1.2718311548233032, -1.9410890262014354e-12, 0.5514032006583102, 0.03434194755279847]
[4.3499999999999925, 0.5675630167918768, 5.139162063598633, 0.6051124334335327, -0.043151893743072184, 0.020149462371783142, 0.09370616014311486, -0.049239823869728735, 0.0, 0.06374062011612941, 0.05013851673095955, -0.8168759346008301, -1.2505019903182983, 0.02313708522498003, 0.3185219466686249, -1.2743765115737915, -2.1843101806907184e-12, 0.5218712544487504, 0.03758489013323899]
[4.399999999999992, 0.5694190440038014, 5.156069278717041, 0.5938305258750916, -0.0474252850501423, 0.020694105196314795, 0.09591944238734776, -0.05023365504692748, 0.0, 0.05423726706813862, 0.052985021135928574, -0.8521969318389893, -1.2575995922088623, 0.02625719611549988, 0.2804781496524811, -1.2772589921951294, -1.348251945133706e-12, 0.40287545028096433, 0.04324397986517086]
[4.449999999999992, 0.5320405874412397, 5.17501974105835, 0.5818211436271667, -0.14367863476178003, 0.006221164162306092, 0.27699565970998424, -0.007746408786250081, 0.0, 0.04712513522841361, 0.0580754673746107, -0.892667293548584, -1.2587231397628784, 0.030724357559039392, 0.2374567687511444, -1.2767425775527954, -1.0169173364712977e-12, 0.3684272538246699, 0.04696944107194969]
[4.499999999999992, 0.4637338817434045, 5.2148756980896, 0.5654790997505188, 0.07496419937144415, -0.010619287697403583, -0.13571031012522045, 0.04499002334964523, 0.0, 0.03749271253477022, 0.058551715561869916, -0.9776363968849182, -1.2229595184326172, 0.03250342967340488, 0.14668624103069305, -1.2610344886779785, -5.584839896617643e-13, 0.4190740494696497, 0.06361665172505006]
[4.549999999999992, 0.4270744773941465, 5.237346649169922, 0.5403071641921997, 0.04616121901653095, -0.02050234855858216, -0.07632146568296333, 0.06873023780687446, 0.0, 0.03129902545917865, 0.058771306121762554, -1.0260376930236816, -1.1884158849716187, 0.035606250536034, 0.09436903893947601, -1.2468631267547607, -3.8766504149980516e-13, 0.4976401906053743, 0.078293121082593]
[4.599999999999992, 0.36133451258908356, 5.26887845993042, 0.497295081615448, 0.02467336451937537, -0.04327105844916722, -0.04173831684519333, 0.10854161613949716, 0.0, 0.02500180750513238, 0.05754179576639572, -1.0954962968826294, -1.1172183752059937, 0.034032284265561825, 0.01761571504175663, -1.2158589363098145, -2.2140227852630725e-13, 0.727129483180848, 0.11449526791382132]
[4.6499999999999915, 0.344671405006985, 5.297670364379883, 0.2745071053504944, 0.022653860301158086, -0.004959327298499544, -0.03659982355709174, 0.04029249821337468, 0.0, 0.02722782527844436, 0.05610569826825905, -1.1738091707229614, -1.0692665576934814, 0.034740931900657114, -0.07339692860841751, -1.1978116035461426, -1.3677057010481204e-13, 0.8205173952932397, 0.1330868839553012]
[4.699999999999991, 0.3215131573612505, 5.303272247314453, 0.14074867963790894, 0.01848941581387997, 0.02109796141935474, -0.03294234710867387, -0.008881303960270046, 0.0, 0.02713638664130433, 0.05756768191371295, -1.2036603689193726, -1.0654237270355225, 0.03232030405058378, -0.10882334411144257, -1.1988316774368286, -1.0746366782851411e-14, 0.7640037485566459, 0.14498389930611472]
[4.749999999999991, 0.39124325576434904, 5.305009365081787, -0.023205241188406944, 0.03153149701931386, 0.03591093030282507, -0.055972199431599826, -0.03930754832988375, 0.0, 0.025625009086366064, 0.06166951663002254, -1.2377188205718994, -1.0654751062393188, 0.03477070649515083, -0.148948073387146, -1.2018784284591675, -1.1379170380968022e-15, 0.6797244851302964, 0.1417583191097811]
[4.799999999999991, 0.4315816726838148, 5.290484428405762, -0.4084840714931488, 0.047028275703562605, 0.042059988168018266, -0.0901935034471666, -0.0550494293721533, 0.0, 0.022468155484505314, 0.06572925950734933, -1.310278058052063, -1.070967435836792, 0.03434407747916585, -0.2344595491886139, -1.2111735343933105, -5.487755000467e-19, 0.5058413058606916, 0.1312181727710518]
[4.849999999999991, 0.5621397245440907, 5.269978046417236, -0.6252221465110779, -0.08122004517611342, 0.04015613342007231, 0.14455696492277456, -0.05428636231410404, 0.0, 0.019980011085352512, 0.07034507965539172, -1.353177785873413, -1.0754921436309814, 0.039749162534035244, -0.2846870720386505, -1.2162069082260132, -1.760555383280847e-21, 0.4165654828719902, 0.12340285650691095]
[4.899999999999991, 0.5896008208765776, 5.224768161773682, -0.8905006647109985, -0.05350026998647783, 0.03785613111464049, 0.09827443345517738, -0.054042336723031215, 0.0, 0.015547603873590672, 0.07273532749727321, -1.417845368385315, -1.082101821899414, 0.03969855896909265, -0.3599977195262909, -1.222407579421997, -4.258417014958477e-25, 0.30811472222256203, 0.11296775411338522]
[4.94999999999999, 0.6660755400409151, 5.195178508758545, -0.9540539979934692, -0.029644290562355163, 0.036459685048386384, 0.053704833862926356, -0.05366884568747097, 0.0, 0.01252584698277257, 0.07775924982492025, -1.452523112297058, -1.0886273384094238, 0.042955202952400656, -0.4001138210296631, -1.2269842624664307, -5.879301724248706e-26, 0.25460360582774166, 0.1045939806840717]
[4.99999999999999, 0.6364720079543316, 5.131000518798828, -0.9437813758850098, -0.03573410070415276, -0.0037275300924052663, 0.06966650178245812, 0.012833584300136784, 0.0, 0.011126167256169479, 0.0817914380309082, -1.5266687870025635, -1.0868253707885742, 0.04200519117489561, -0.4855179786682129, -1.2258203029632568, -2.242351811544342e-25, 0.18762646346322623, 0.09841621890560637]
[5.04999999999999, 0.6337738271391387, 5.101840972900391, -0.8957942128181458, -0.03746142608648163, -0.02147932390685205, 0.07275788876891309, 0.04497805955423145, 0.0, 0.009947013992134513, 0.08361077027816975, -1.5612386465072632, -1.0652505159378052, 0.04310750673244425, -0.5249272584915161, -1.2128543853759766, -2.1158950930800505e-24, 0.18710447053707838, 0.10470149387887935]
[5.09999999999999, 0.5702490169365549, 5.0468316078186035, -0.7606567144393921, -0.07058460915086648, -0.024015738677892088, 0.1436278510472242, 0.056007758271567856, 0.0, 0.00790047601497751, 0.08075612266819285, -1.6323740482330322, -1.0021950006484985, 0.039889913790711384, -0.6055374145507812, -1.1749882698059082, -5.791960847679866e-22, 0.2048108979005957, 0.13066460113861322]
[5.14999999999999, 0.5429761602302847, 4.9965596199035645, -0.6674588918685913, -0.12719214880202312, -0.02665548933278583, 0.25422589449132393, 0.0608625880492217, 0.0, 0.005253792745643791, 0.07941560975688747, -1.7029393911361694, -0.9400113224983215, 0.04038178501678103, -0.6882767677307129, -1.1383739709854126, -3.833926874329729e-21, 0.20852365118213398, 0.1382722889125977]
[5.1999999999999895, 0.48342386028544887, 4.978166580200195, -0.6655833125114441, 0.15702405583526874, -0.03230220799297438, -0.3032617399729379, 0.07028640271174312, 0.0, 0.0028056345683056165, 0.07707304809146548, -1.7291617393493652, -0.9161401987075806, 0.04086189974131549, -0.7197244167327881, -1.1249021291732788, -3.4456357705942865e-20, 0.21183367914533288, 0.15658739922082246]
[5.249999999999989, 0.4823586809721341, 4.92938756942749, -0.7146555185317993, 0.1519631859234756, -0.050869196664614626, -0.2901074187484161, 0.1040456814777314, 0.0, -0.0010705517435274632, 0.07647728149028778, -1.7931872606277466, -0.8453612327575684, 0.04094324010514259, -0.7987717390060425, -1.0840243101119995, -3.0886544479808767e-20, 0.21990652946472494, 0.17807883120537096]
[5.299999999999989, 0.46703588540910596, 4.909615516662598, -0.6973052620887756, 0.0964745731985463, -0.0770715803052607, -0.17875950464023366, 0.1407589955165306, 0.0, -0.004304172198256118, 0.0719485081092228, -1.8164644241333008, -0.8014243841171265, 0.03915897108745967, -0.8285599946975708, -1.0591239929199219, -3.2065472739056385e-20, 0.23935175382001347, 0.19096158313359113]
[5.349999999999989, 0.46767339520609785, 4.861426830291748, -0.688737154006958, 0.09386285484723803, -0.084779937118425, -0.17360837530902834, 0.052022642861633855, 0.0, 0.00482069305614702, 0.06879617160199995, -1.8708544969558716, -0.7227653861045837, 0.037492913549329016, -0.9015477895736694, -0.988139271736145, -1.4679763266030562e-19, 0.26275986791734923, 0.214833820675645]
[5.399999999999989, 0.48539125575033254, 4.841588020324707, -0.7321264743804932, 0.15860364001629393, -0.022241993918143944, -0.28303990090432163, -0.06423025393420474, 0.0, 0.01412022910182502, 0.06633492975666579, -1.8912715911865234, -0.7281942963600159, 0.037991382414075237, -0.9287874102592468, -0.9752404093742371, -2.5580292491189867e-20, 0.21402255461160635, 0.23547588887562274]
[5.449999999999989, 0.5484714318954667, 4.817419528961182, -0.7926053404808044, -0.1167392737635686, 0.030268934736363204, 0.19592107264415667, -0.12366590773127949, 0.0, 0.015737734392647484, 0.07076404445269349, -1.9150961637496948, -0.7516574263572693, 0.042629438524267725, -0.9596639275550842, -0.9730449914932251, -4.4966426445456e-21, 0.16816757223365086, 0.1936947208427794]
[5.4999999999999885, 0.6284404189756682, 4.7588605880737305, -0.9551710486412048, -0.05172623218445202, 0.07951316356578042, 0.07249006112534839, -0.16428237567593942, 0.0, 0.014810932578036397, 0.07971243423772041, -1.9690351486206055, -0.8204691410064697, 0.05698052524933573, -1.025665521621704, -0.9968812465667725, -2.43326745701676e-23, 0.08853102671917477, 0.11137500992062746]
[5.549999999999988, 0.6584186367851665, 4.719776153564453, -0.9879568219184875, -0.047784227439164696, 0.0991458819855081, 0.06336679688741526, -0.1789172933747608, 0.0, 0.013950406983501723, 0.08728066466806784, -2.0031578540802, -0.8782495260238647, 0.06591166176973728, -1.0656356811523438, -1.0264822244644165, -1.1130192195157275e-23, 0.053414850846375636, 0.06305581749530285]
[5.599999999999988, 0.6287888917163091, 4.663376331329346, -0.89194256067276, -0.07407161773129592, 0.0608461457306732, 0.08539007116233485, -0.08714516038514997, 0.0, 0.025165488295997074, 0.0942381123107733, -2.058877468109131, -0.9562157392501831, 0.08199629331622714, -1.1282048225402832, -1.0738294124603271, -9.220011979718401e-22, 0.02416256546363105, 0.02554496135121426]
[5.649999999999988, 0.6081464870893073, 4.636317729949951, -0.8180271983146667, -0.09923470666682985, 0.014648686100897822, 0.11035695035186074, -0.015197874427615079, 0.0, 0.030006261891284962, 0.10079257573941706, -2.089766025543213, -0.9637162685394287, 0.09111779099050801, -1.1624401807785034, -1.0816192626953125, -1.9063793119185383e-20, 0.018886327650557973, 0.015036038124156645]
[5.699999999999988, 0.5641723006713233, 4.587189674377441, -0.6735119819641113, -0.1867526494557761, -0.010278270970264264, 0.2016963135186996, 0.02579725085754942, 0.0, 0.028800809361801905, 0.10266136922290328, -2.1546690464019775, -0.9344561696052551, 0.0968311027270113, -1.234965443611145, -1.0667256116867065, -4.545408701648555e-18, 0.01450858662124767, 0.0073208827222719566]
[5.749999999999988, 0.5667052544311274, 4.56162166595459, -0.6321936845779419, -0.18163319848033757, -0.025483760064791347, 0.19561470348934537, 0.04611899875116431, 0.0, 0.025452559535541684, 0.10413584948098159, -2.1915736198425293, -0.90765380859375, 0.0983966360896375, -1.2769763469696045, -1.0509579181671143, -2.269531434560008e-17, 0.013066525106653744, 0.0024801582548763176]
[5.799999999999987, 0.5846453790670204, 4.525369644165039, -0.612351655960083, -0.13312381444042823, -0.05876452083975503, 0.14979598599995395, 0.0801212181479256, 0.0, 0.018411288056516702, 0.1044130059582954, -2.2445456981658936, -0.8559451699256897, 0.0936939927468031, -1.3384758234024048, -1.0146372318267822, -6.473623631820986e-17, 0.011780013346135695, -0.0016605386465160864]
[5.849999999999987, 0.6271069580661257, 4.4800896644592285, -0.6437296867370605, -0.08322573007357077, -0.11165517832736484, 0.09389483299317217, 0.13223133846573323, 0.0, 0.009131789741531204, 0.10220904545466256, -2.302021026611328, -0.766793429851532, 0.09093852818413108, -1.4098578691482544, -0.9423563480377197, -5.546225771222724e-17, 0.01169724782158057, -0.005532060101921669]
[5.899999999999987, 0.6808763635873691, 4.461735248565674, -0.649169385433197, -0.05296520468375797, -0.13482538257737187, 0.06087889218736902, 0.15689068078561158, 0.0, 0.0038955058682185345, 0.0965321006271045, -2.3222453594207764, -0.7215874195098877, 0.08411439920755266, -1.4361974000930786, -0.9048589468002319, -4.4677055401101405e-17, 0.012075116952205032, -0.010376227816338231]
[5.949999999999987, 0.7240788940642869, 4.440710067749023, -0.6383457779884338, -0.03941291960424717, -0.13772001109268323, 0.044921062625591264, 0.1625008617087829, 0.0, 0.0013646785672686592, 0.08918712360041592, -2.368212938308716, -0.5881405472755432, 0.07831803282496985, -1.498302698135376, -0.7932018637657166, -8.013279933631824e-17, 0.012620564527775265, -0.015840136981565178]
[5.999999999999987, 0.7690285488723889, 4.4001617431640625, -0.5169920325279236, -0.02974653485233195, -0.11026704471326931, 0.03270645135937852, 0.1366485558198313, 0.0, 0.0020841618049310144, 0.07854562121247076, -2.383486270904541, -0.5359607338905334, 0.07147110374351652, -1.5202347040176392, -0.7502812147140503, -4.585839462480385e-15, 0.013318482887501037, -0.020314768754573644]
[6.0499999999999865, 0.7457199254319503, 4.3728742599487305, -0.18522769212722778, -0.030113235946861213, -0.0817053708385759, 0.03221821602602059, 0.10364229342983844, 0.0, 0.002609304145658334, 0.07040996258989746, -2.4167118072509766, -0.4149101674556732, 0.06584101077711874, -1.5712733268737793, -0.6506813764572144, -1.6749244116774593e-11, 0.012658779464428328, -0.022259322765410424]
[6.099999999999986, 0.659050505186852, 4.369961261749268, -0.009633168578147888, -0.043411206629248696, -0.06281467441864078, 0.04383746679663537, 0.07991060513775067, 0.0, 0.0020017449287017194, 0.06059590139367124, -2.4274377822875977, -0.37616655230522156, 0.06006364714710231, -1.5892826318740845, -0.618863582611084, -3.7016792861938004e-10, 0.01210800431231123, -0.028189983053159257]
[6.149999999999986, 0.5801914322629567, 4.384945869445801, 0.4018520712852478, -0.08800398743601529, -0.04785595928184497, 0.08878666360117, 0.05948417424265692, 0.0, 9.579885705539911e-05, 0.057911012916105196, -2.451075315475464, -0.304212749004364, 0.05762483723462689, -1.6319390535354614, -0.5563880205154419, -7.142057243394221e-09, 0.011187644464570769, -0.032102540145999774]
[6.199999999999986, 0.5355978568425825, 4.3976850509643555, 0.49594131112098694, -0.2250218353647471, -0.04286814853134131, 0.23410661318533227, 0.05156292159157209, 0.0, -0.001637641170325534, 0.05657705415759185, -2.4590907096862793, -0.2850550413131714, 0.05582690689127334, -1.6474777460098267, -0.5403053760528564, -2.4451789822874027e-08, 0.009817883633585968, -0.03366756598838324]
[6.249999999999986, 0.46844536220974126, 4.414806842803955, 0.5685949921607971, 0.13962278639200723, -0.042142654070668584, -0.14249519225290352, 0.04852232593275852, 0.0, -0.0033854051208688147, 0.055253421555211124, -2.4680707454681396, -0.2657567858695984, 0.054679055881621606, -1.6647813320159912, -0.5239256024360657, -2.2650074798481047e-08, 0.009127964327757079, -0.037273836257229985]
[6.299999999999986, 0.4744262617606993, 4.453988075256348, 0.58533775806427, 0.15762083101847985, -0.06966848019344188, -0.16927502253504884, 0.07138459290287719, 0.0, -0.006211090059185334, 0.05634877330504457, -2.486971855163574, -0.23058418929576874, 0.05316169410344103, -1.7003334760665894, -0.4902522563934326, -1.4446225932325257e-08, 0.007754798307021691, -0.0362269520375993]
[6.349999999999985, 0.47953878316819387, 4.495324611663818, 0.5619156956672668, 0.17614320281310933, -0.1136438420998211, -0.1926096686200639, 0.10386082284040231, 0.0, -0.005818034446032687, 0.05505907268934964, -2.5027918815612793, -0.16225144267082214, 0.051195246944513016, -1.7340646982192993, -0.421615332365036, -1.1533360449246643e-08, 0.007186814014916933, -0.036101112451243915]
[6.399999999999985, 0.5528069578369246, 4.529378414154053, 0.4355364441871643, -0.1152588657270282, -0.010017361288853496, 0.14097884634763658, -0.006315490809763966, 0.0, 0.01445727424338376, 0.056304741184614135, -2.514035940170288, -0.14301463961601257, 0.046391032672627064, -1.7618358135223389, -0.3915290832519531, -6.811786781020405e-09, 0.006157775022552564, -0.028876177175132453]
[6.449999999999985, 0.6035385655347728, 4.541978359222412, 0.36412808299064636, -0.05414584120871406, 0.03173102772239055, 0.06580119027357972, -0.043168178220248696, 0.0, 0.017441727396490875, 0.057126539431385015, -2.519226551055908, -0.1545230895280838, 0.04708769444604234, -1.7746435403823853, -0.40041083097457886, -4.18839699972826e-09, 0.005813457199118352, -0.02951868106440341]
[6.499999999999985, 0.6868305214117578, 4.551637172698975, 0.34420886635780334, -0.029445353423089154, 0.08029320899808831, 0.03631249451989269, -0.08772005293220075, 0.0, 0.018996472372028488, 0.059537457167748706, -2.5242626667022705, -0.17850518226623535, 0.048302761170966386, -1.7862401008605957, -0.42096272110939026, -1.9785588756353677e-09, 0.005503952856755715, -0.033380281133415735]
[6.549999999999985, 0.6837982922942661, 4.57980489730835, 0.4673072099685669, -0.03193458654791602, 0.061027581394335256, 0.0389338376362835, -0.05209563099899997, 0.0, 0.03078331933589911, 0.06274487549981458, -2.540733814239502, -0.24548925459384918, 0.05149555475633424, -1.819490909576416, -0.4901084005832672, -2.1848615478416897e-09, 0.005320361048137325, -0.03635409470479791]
[6.5999999999999845, 0.6281318995837828, 4.594337463378906, 0.5730527639389038, -0.05268020227781767, 0.02131972959072843, 0.05804405833644504, -0.01128554212563913, 0.0, 0.03611947354180715, 0.06362079553952549, -2.5480337142944336, -0.2522711157798767, 0.057827532783488775, -1.8334726095199585, -0.5020834803581238, -2.628165366582368e-09, 0.004651018473169652, -0.03492318872644008]
[6.649999999999984, 0.5805916786701052, 4.644533634185791, 0.8126688599586487, -0.08994907373954325, 0.005363198349837792, 0.09453080674220166, 0.010208162052013548, 0.0, 0.035727233251650815, 0.062031064229880674, -2.5672407150268555, -0.24366746842861176, 0.05927247408463414, -1.8705267906188965, -0.5076445937156677, -8.050545449757971e-10, 0.003935498322146544, -0.030769330102759493]
[6.699999999999984, 0.5199897674122498, 4.667788982391357, 0.8645452260971069, -0.5114918693365479, -0.0034919075282405557, 0.5625537846424866, 0.02079433616559415, 0.0, 0.03225786719327069, 0.05837613473144102, -2.5745291709899902, -0.23645465075969696, 0.06143760394449945, -1.8850136995315552, -0.5068066716194153, -4.4071156323033746e-10, 0.0036873439259498416, -0.029610322375254676]
[6.749999999999984, 0.442559011472155, 4.732840061187744, 0.9295014142990112, 0.1002434864960584, -0.02460450052026354, -0.0923913096734689, 0.03953570906788314, 0.0, 0.02436925807277228, 0.057913428754763095, -2.5917294025421143, -0.20968833565711975, 0.06313649785158038, -1.9215463399887085, -0.4926620125770569, -1.8864701697295623e-10, 0.00336745266488257, -0.027598109215484258]
[6.799999999999984, 0.4132002610536154, 4.758580684661865, 0.923582136631012, 0.07220344864958589, -0.050048274096905106, -0.0666427027366571, 0.06564530076655693, 0.0, 0.019166743911120512, 0.059876501461149645, -2.597792625427246, -0.19423909485340118, 0.06503376535101552, -1.9353437423706055, -0.48160529136657715, -8.88947627578101e-11, 0.002947846768903733, -0.024448101955838703]
[6.849999999999984, 0.3861255642450308, 4.823789596557617, 0.906675398349762, 0.05625972236659139, -0.1731600363491652, -0.051211612744781955, 0.16725438347112376, 0.0, 0.014998634586247048, 0.058845880317025194, -2.609506130218506, -0.09517534077167511, 0.06474311440741377, -1.967631459236145, -0.38850921392440796, -6.898113427625054e-11, 0.0027212626409406295, -0.023005749338437867]
[6.8999999999999835, 0.37724080066142285, 4.848372459411621, 0.8651620149612427, 0.051070251730954745, -0.25364069556458685, -0.045466401778195, 0.14580433067831394, 0.0, 0.026313128000437287, 0.0559809979809317, -2.611891746520996, -0.05553383380174637, 0.06295721232078613, -1.9778014421463013, -0.3310720920562744, -4.1715986955482796e-11, 0.0021884577479937845, -0.017538733106269327]
[6.949999999999983, 0.3871956082592806, 4.903608798980713, 0.6465393900871277, 0.05340428206266217, -0.20418243814067297, -0.04828159830216928, 0.07450032954747189, 0.0, 0.05004543312199082, 0.05499449377619215, -2.614549160003662, -0.013380001299083233, 0.06091097380361948, -1.9969995021820068, -0.21698004007339478, -4.6352000386210245e-11, 0.0019649628501337293, -0.011121438364116524]
[6.999999999999983, 0.467984345006263, 4.920022487640381, 0.5278276205062866, 0.15590986785256988, -0.11560757613149499, -0.14410418633378494, 0.03515276089550255, 0.0, 0.0568198434693694, 0.05650600473801663, -2.6151037216186523, -0.009988858364522457, 0.06184929689474395, -2.0028188228607178, -0.1982250213623047, -3.5685647511923304e-11, 0.0019408442539860923, -0.010113474801098652]
[7.049999999999983, 0.5159221315000877, 4.946350574493408, 0.21779143810272217, -0.6648365383420752, -0.011620001499885213, 0.8120727144588726, -0.008215805826610372, 0.0, 0.055141941731962664, 0.057895430903528985, -2.6169588565826416, -0.014654337428510189, 0.06253600165776885, -2.0181596279144287, -0.1918073445558548, -4.270526978697393e-12, 0.001928378249343966, -0.009459411427147332]
[7.099999999999983, 0.5721293444529127, 4.951089382171631, 0.13627026975154877, -0.11212240424354544, 0.02460725118594785, 0.10437036109618883, -0.02761115673029583, 0.0, 0.050328092997029235, 0.06031716920543602, -2.617974281311035, -0.02084728144109249, 0.0651883796531964, -2.024451494216919, -0.19875650107860565, -1.690231079428485e-12, 0.0019363303095968187, -0.009750642280646926]
[7.149999999999983, 0.5576020472478269, 4.961431980133057, 0.20022930204868317, -0.15022185008440903, 0.0764913547583012, 0.14014515587931872, -0.0064058658586497175, 0.0, 0.043671520491143145, 0.06223663843268835, -2.6216180324554443, -0.046829745173454285, 0.06743849587748824, -2.0421760082244873, -0.25554153323173523, -1.705530111668109e-12, 0.0019788086942475495, -0.010641041501143079]
[7.199999999999982, 0.5173776427529757, 4.967271327972412, 0.2273440808057785, -0.6351927341137992, 0.07781867765105066, 0.7222267641302113, 0.11440052472278861, 0.0, 0.04982552299784313, 0.06024029697341212, -2.6230692863464355, -0.022962184622883797, 0.06716971378080154, -2.0503480434417725, -0.2832680642604828, -3.5012516660844644e-12, 0.0018582208704029822, -0.012135014455552293]
[7.249999999999982, 0.4711814734817497, 4.975687026977539, 0.2988013029098511, 0.19154281193697742, 0.03790915651631852, -0.14165318733458568, 0.1733748827791141, 0.0, 0.049532501942289156, 0.05130620554061218, -2.623175621032715, 0.041693031787872314, 0.07047254304395928, -2.0604088306427, -0.3070041537284851, -5.683886799571418e-12, 0.0015942755194030692, -0.012335134613661529]
[7.299999999999982, 0.4239569103426616, 4.9991960525512695, 0.3983907997608185, 0.0818266442528063, -0.05088369784511647, -0.04959211464092155, 0.1802909132872941, 0.0, 0.03775045381866749, 0.03957955299281647, -2.616419792175293, 0.17562438547611237, 0.06547896913164168, -2.082590341567993, -0.30028027296066284, -7.660999562335424e-12, 0.0011110458416629292, -0.010957186155613556]
[7.349999999999982, 0.3701572320092821, 5.031310558319092, 0.4786228537559509, 0.04705034964939887, -0.11894752334953529, -0.021625213614674337, 0.21460021722388295, 0.0, 0.02664121637521085, 0.028032004197332774, -2.5985043048858643, 0.3385851979255676, 0.06103951657187149, -2.1026365756988525, -0.22292861342430115, -7.533005460073698e-12, 0.0006467502380228047, -0.008130017630306031]
[7.399999999999982, 0.3191369123317215, 5.044448375701904, 0.44460177421569824, 0.028547109217044862, -0.1190953789161536, -0.007433748662119822, 0.14584131279988471, 0.0, 0.03108484950277762, 0.013149942192618065, -2.588632822036743, 0.37486955523490906, 0.05051264423254007, -2.1087276935577393, -0.19330014288425446, -4.977265677713576e-12, 0.0005884138901893077, -0.007142902641242033]
[7.4499999999999815, 0.3319127690620974, 5.0686259269714355, 0.1961374133825302, 0.026794105556006587, -0.033523023153749415, -0.0030369733386280224, 0.022686704347142622, 0.0, 0.035360326313708286, 0.005012577735645458, -2.5620172023773193, 0.3886556327342987, 0.044234795169249636, -2.1240437030792236, -0.17055809497833252, -2.645647652325851e-12, 0.0006062157324049575, -0.006443941310506356]
[7.499999999999981, 0.3634669510153694, 5.072200298309326, 0.05437685176730156, 0.03014066294291691, 0.00945869768803916, -0.0008746130503474488, -0.014422927901195952, 0.0, 0.03204629618672663, 0.0011877845595492994, -2.5518674850463867, 0.3818311393260956, 0.040945494338637735, -2.1301820278167725, -0.17567512392997742, -1.0974774182965e-13, 0.0007916619167651775, -0.006055697566417098]
[7.549999999999981, 0.4616474690214354, 5.0619635581970215, -0.33993297815322876, 0.0978326653987306, 0.03745202485192648, -0.003398837260464691, -0.032294401302368644, 0.0, 0.025776504834031135, 0.001523131079364782, -2.5265166759490967, 0.35927483439445496, 0.04398254052758609, -2.1461288928985596, -0.1958635002374649, -7.035693680040808e-15, 0.0009203484764026124, -0.006061354879485244]
[7.599999999999981, 0.5154082289590538, 5.050217628479004, -0.4848957657814026, -0.8117021384835845, 0.04032090785075987, 0.09271924336815918, -0.029795216818262953, 0.0, 0.02183042898174885, 0.004660773505538652, -2.5170979499816895, 0.3504634201526642, 0.05306014687444043, -2.152714729309082, -0.20453865826129913, -2.5292008801903636e-18, 0.0012675625384328422, -0.0060427250988486]
[7.649999999999981, 0.6163765407980846, 5.004472255706787, -0.7407779097557068, -0.059867705223553024, 0.042546208433693875, 0.005639686905589493, -0.019926277579374842, 0.0, 0.016437510849698026, 0.005560213750411545, -2.493720293045044, 0.3277326822280884, 0.059094994840477866, -2.170361042022705, -0.2323024570941925, -6.109036412216765e-20, 0.0014640631184218151, -0.006043789242666281]
[7.699999999999981, 0.648217740803539, 4.983659744262695, -0.7259945869445801, -0.053277607474106765, 0.03459282224396953, 0.005391725159820629, -0.010576612913547279, 0.0, 0.013086041516078574, 0.00690687775993057, -2.4850311279296875, 0.31902003288269043, 0.06831436400794313, -2.1777963638305664, -0.24773171544075012, -4.5095808553815144e-21, 0.001956220629731969, -0.006002835267058501]
[7.7499999999999805, 0.6550183856822341, 4.934987545013428, -0.6063795685768127, -0.05322529898578282, -0.15545000563665343, 0.005606851725867251, 0.024033521363675755, 0.0, 0.010975173964556703, 0.007535858127350243, -2.463009834289551, 0.3184460699558258, 0.07160517457337034, -2.1957881450653076, -0.17924587428569794, -3.897638978995579e-19, 0.0023746759944805827, -0.004474850603485025]
