time, uz, alt, vel_alt, uthe, roll, uphi, pitch, upsi, yaw, ux, pos_x, vel_x, uy, pos_y, vel_y, Fz, Fx, Fy
[0.0, 0.5095279126523644, 2.9582180976867676, 0.014310378581285477, 0.7656380176514969, -0.01996026309753484, -1.467483545391298, 0.005126478822329112, 0.0, -0.16359039352381766, 0.04219930717025086, 2.9222538471221924, -0.02577333338558674, 0.04078113130175975, 2.720766305923462, 0.12310872972011566, 2.9092724645758234e-09, -1.9963116248684798e-11, -1.1501976368076323e-09]
[0.05, 0.5097591523739099, 2.9596521854400635, 0.012832436710596085, 0.7657960862287867, -0.02041938208012383, -1.518078406704045, 0.00474675477617203, 0.0, -0.16357969392453417, 0.04230264660324259, 2.9220082759857178, -0.025719521567225456, 0.04073247494385855, 2.7245030403137207, 0.1204119399189949, 5.565565896081883e-09, -4.013900710471908e-11, -2.098251647203436e-09]
[0.1, 0.5123872317253995, 2.9642109870910645, 0.11346014589071274, -0.7030549294344506, -0.01731219675616803, 1.0906605586351312, -0.07035345376274854, 0.0, -0.16151771888365737, 0.042483809338943176, 2.921264886856079, -0.03471551835536957, 0.040596172072212125, 2.7303528785705566, 0.121050626039505, -3.038989748862031e-08, -6.061390825457067e-11, -3.0127427690230056e-09]
[0.15000000000000002, 0.5302123534001949, 2.968687057495117, 0.0934324786067009, -0.20711861169617943, 0.05233579493557979, 0.22917706600654206, -0.22795708737932102, 0.0, -0.15301417676155712, 0.04369905034086451, 2.9194014072418213, -0.09293018281459808, 0.04042047251386405, 2.734553337097168, 0.12134245783090591, -9.060398357890001e-07, -6.30397470198716e-11, -3.7050392805702694e-09]
[0.2, 0.5945701505120113, 2.972412347793579, 0.127115860581398, -0.054366528220291574, 0.10524391137632924, 0.07653528763997651, -0.2974269217770207, 0.0, -0.14959148142372086, 0.060105468963787816, 2.9149973392486572, -0.21045202016830444, 0.042779541429732115, 2.737725257873535, 0.0964648574590683, -8.90293640615067e-06, -4.928397696669071e-11, -4.3251798467665015e-09]
[0.25, 0.6158293155611023, 2.9863717555999756, 0.2209993451833725, -0.05160896472639403, 0.392565239085746, 0.08052613440880772, -0.38993356505131455, 0.0, -0.11542131162564696, 0.07915329684651493, 2.888072967529297, -0.5879008769989014, 0.050829119333126074, 2.736574649810791, -0.1075945496559143, -4.196615133148836e-05, -2.5962561065139683e-11, -4.716641843537355e-09]
[0.3, 0.6703400174441808, 3.001497745513916, 0.22329065203666687, -0.05606051977891291, 0.43014913134811883, 0.07849749626894839, -0.2366541697795469, 0.0, -0.018748779712871484, 0.11688991999253859, 2.845390558242798, -0.7985542416572571, 0.08365266409883179, 2.7193973064422607, -0.4054247736930847, -0.0001451307016130737, -2.276126010310522e-12, -1.8058006530225015e-09]
[0.35, 0.735142059140464, 3.0123367309570312, 0.26800742745399475, -0.04671126230291681, 0.3014449481884792, 0.06040610280506664, -0.15296824174104395, 0.0, 0.022960019957043783, 0.1261979088559756, 2.8118269443511963, -0.8669703006744385, 0.09771767432131923, 2.6984853744506836, -0.5815643668174744, -0.0003813610317751938, -9.293461339346693e-13, -2.8988851955113793e-10]
[0.39999999999999997, 0.7510305286961688, 3.034034490585327, 0.42318639159202576, -0.05620695470878149, 0.14155960238743642, 0.061753820577949245, -0.06401898424868598, 0.0, 0.04306417821884771, 0.1381256922334441, 2.7577383518218994, -0.9180225729942322, 0.1259315188323754, 2.6571567058563232, -0.7387735843658447, -0.0011222020248409217, -8.397305644830742e-13, -1.5377211230768268e-10]
[0.44999999999999996, 0.8151109075073857, 3.0550994873046875, 0.6026178002357483, -0.047967673153640526, 0.09357514158103315, 0.05033336351756356, -0.026644933428476455, 0.0, 0.042528496704652446, 0.1424513872154066, 2.720691680908203, -0.9232127070426941, 0.1359177079797868, 2.6257505416870117, -0.8007994294166565, -0.003025581029324097, -8.926677371285262e-13, -1.0770164704772593e-10]
[0.49999999999999994, 0.8000488929303593, 3.0773608684539795, 0.7648319602012634, -0.05486349292549621, 0.07075785314063786, 0.05420085052565982, -0.012686221624572922, 0.0, 0.0398366213578062, 0.14584411549382081, 2.6911094188690186, -0.9164344668388367, 0.14784783624119538, 2.5992743968963623, -0.8342625498771667, -0.0032484358421290558, -1.6831831253173893e-12, -6.934336146234622e-11]
[0.5499999999999999, 0.8726195348681927, 3.144641399383545, 1.216441035270691, -0.04538795238366059, 0.018211061249471965, 0.043418937342985665, 0.010951854771835792, 0.0, 0.028945128191563228, 0.14601230034139429, 2.6293585300445557, -0.8857496380805969, 0.15278674416252291, 2.5409047603607178, -0.8656573295593262, -2.567821896408409e-05, -4.20824461371096e-12, -8.25902724784427e-11]
[0.6, 0.8291864162392224, 3.2301998138427734, 1.6293983459472656, -0.053245409396601, -0.004212276073562452, 0.049409093363004454, 0.018353532087009367, 0.0, 0.022167767445986933, 0.14628201040614625, 2.576869010925293, -0.8493471145629883, 0.15785328179608268, 2.488903284072876, -0.8642848134040833, -3.3843941282702443e-07, -6.94920661501242e-12, -1.0414909700308837e-10]
[0.65, 0.8541552850620834, 3.302056074142456, 1.9767918586730957, -0.04966710361904467, -0.013356002594899843, 0.04568741891272472, 0.020750919912934245, 0.0, 0.019704472139878814, 0.14582749397495978, 2.5486764907836914, -0.8170465230941772, 0.1587157535555056, 2.448819875717163, -0.8541578054428101, -5.1487544702170914e-14, -2.0791880892888758e-11, -2.0775190922995638e-10]
[0.7000000000000001, 0.7289775891071463, 3.36981463432312, 2.246748685836792, -0.07874172409561354, -0.016041900256949296, 0.07065247413333174, 0.020674661334080875, 0.0, 0.018557412567778275, 0.14362715095285425, 2.526366949081421, -0.7919340133666992, 0.16053670600088138, 2.4178626537323, -0.8424535393714905, -1.1608384796068439e-18, -3.820573289480754e-11, -3.1490130123891526e-10]
[0.7500000000000001, 0.7346860998377596, 3.5407540798187256, 2.783874988555908, -0.07672060692239516, -0.02585661577637459, 0.0682722773958094, 0.021632430245045933, 0.0, 0.015368859155141886, 0.14239086216324318, 2.481010913848877, -0.7415649890899658, 0.16045027256075164, 2.353908061981201, -0.8108841180801392, -1.9492509575574496e-23, -8.689967201595062e-11, -6.320165418887726e-10]
[0.8000000000000002, 0.6304238943257207, 3.7171335220336914, 3.0718705654144287, -0.14141982099439063, -0.03621484911036685, 0.12487810335994853, 0.027457667362493134, 0.0, 0.013667842079084268, 0.14010407865070418, 2.4423904418945312, -0.7014327645301819, 0.16014483869204316, 2.3007102012634277, -0.7807016372680664, -4.440098885991784e-35, -2.2965845542556194e-10, -1.2854072373061996e-09]
[0.8500000000000002, 0.6256218578242309, 3.842681407928467, 3.217822313308716, -0.14609792411999092, -0.04623568545903192, 0.1288321911042707, 0.034785795196870584, 0.0, 0.012609153783577132, 0.1388233366989009, 2.4175336360931396, -0.6726560592651367, 0.15899724901091108, 2.266824722290039, -0.7562481164932251, -7.1423559404602215e-43, -7.860509552402141e-10, -3.6860443641390035e-09]
[0.9000000000000002, 0.5592419463887418, 4.039474964141846, 3.3179001808166504, -0.3185813195770672, -0.06452014843528386, 0.2896883199843562, 0.04979523811680969, 0.0, 0.011071395849715372, 0.1360330491157239, 2.3818092346191406, -0.6291764378547668, 0.15706379742141996, 2.218613624572754, -0.7160888910293579, -1.7061224160052868e-45, -1.675410025163813e-09, -7.11714790809412e-09]
[0.9500000000000003, 0.5694932159885642, 4.172211170196533, 3.3328187465667725, -0.2666938129774894, -0.08330394705003, 0.23847875630722307, 0.06544015433632364, 0.0, 0.00993159401109637, 0.13404397063549675, 2.3591270446777344, -0.5962018966674805, 0.1550264340888386, 2.1882922649383545, -0.6835382580757141, -1.1975889413688969e-47, -5.923907419684916e-09, -2.4927161265251832e-08]
[1.0000000000000002, 0.5575973997025537, 4.370757579803467, 3.294384241104126, -0.31771562884190296, -0.14036025145147604, 0.2861448102672673, 0.11357832043095478, 0.0, 0.0072510898624573656, 0.12978966401364533, 2.3274149894714355, -0.5343301892280579, 0.1512178153369257, 2.146137237548828, -0.6210135817527771, -6.812949852724221e-48, -1.337257968465827e-08, -5.696504752183604e-08]
[1.0500000000000003, 0.59292640971376, 4.500998020172119, 3.2512600421905518, -0.18721538441429844, -0.18652194776832492, 0.1630127468355538, 0.15360640063464354, 0.0, 0.004493814691121794, 0.1264070638507004, 2.308694839477539, -0.47566691040992737, 0.14754765333402203, 2.116400957107544, -0.5613723993301392, -6.95146874720726e-47, -6.103470352451031e-08, -3.145938036468873e-07]
[1.1000000000000003, 0.5886045301716853, 4.692830562591553, 3.1674771308898926, -0.1858103483290492, -0.23424721108001015, 0.158826523617185, 0.20072158798088133, 0.0, 0.0019521508173152196, 0.11668904831002185, 2.2852232456207275, -0.36518627405166626, 0.13868936098953497, 2.0783133506774902, -0.44698643684387207, -3.681006012028247e-46, -1.6133020159876088e-07, -9.669901042861293e-07]
[1.1500000000000004, 0.5961948414717351, 4.8184404373168945, 3.138197422027588, -0.1637643977814289, -0.23803170479540764, 0.13909366490044717, 0.20785564230553408, 0.0, 0.004165527506517955, 0.11183767640548134, 2.2733919620513916, -0.2757902145385742, 0.13329334397429576, 2.057906150817871, -0.35401472449302673, -1.5266547366760966e-45, -4.242577688976052e-07, -3.1721030870022382e-06]
[1.2000000000000004, 0.5433277293974128, 4.917987823486328, 3.111945152282715, -0.3599444906642818, -0.23083510829432338, 0.3007531010089316, 0.20378246069984407, 0.0, 0.006976750915091483, 0.09580315000905679, 2.2662949562072754, -0.20757849514484406, 0.12170725680717871, 2.0447957515716553, -0.28233960270881653, -2.6428735259124318e-45, -1.7468540532052088e-06, -1.8550247410913565e-05]
[1.2500000000000004, 0.5310804283541752, 5.127137184143066, 3.0606398582458496, -0.49853227940403505, -0.19137937813643444, 0.4163889611411578, 0.17057354861719323, 0.0, 0.017934183607783438, 0.08640356293418301, 2.2576608657836914, -0.08201966434717178, 0.11629797556061508, 2.024322748184204, -0.15084075927734375, -3.367298107183032e-45, -4.959337841482329e-06, -7.756609679894407e-05]
[1.3000000000000005, 0.4640821724299166, 5.224441051483154, 3.0345346927642822, 0.24546848435244534, -0.18771381391187703, -0.15579110173709562, 0.16531931733434496, 0.0, 0.019293046940450424, 0.06684110322158404, 2.2561862468719482, -0.031073376536369324, 0.10792012408211589, 2.0182244777679443, -0.09681016206741333, -3.977399092681977e-45, -7.274854861061175e-06, -0.000153927353633136]
[1.3500000000000005, 0.42459587350146855, 5.426976203918457, 2.9242942333221436, 0.13073109220116666, -0.26920018404687257, -0.0755599637798721, 0.2152522111032511, 0.0, 0.013963363228397998, 0.05992171451454956, 2.258155584335327, 0.07909621298313141, 0.10436833284755888, 2.011415719985962, 0.028392605483531952, -1.2636120856913681e-43, -1.1147986840311603e-05, -0.00035904308499612876]
[1.4000000000000006, 0.3309922859444411, 5.600948333740234, 2.8731729984283447, 0.05724908397406024, -0.3577014526548191, -0.023705684696544063, 0.19268454345042188, 0.0, 0.03181237829455921, 0.03933613067679871, 2.2670304775238037, 0.20596495270729065, 0.09510934196623641, 2.0155653953552246, 0.21153968572616577, -1.4598843119128307e-43, -1.1694625219457324e-05, -0.0006674996264673624]
[1.4500000000000006, 0.2748140767659152, 5.71461296081543, 2.7950122356414795, 0.041406486629732044, -0.31700177251513306, -0.014093815020944301, 0.10977069578597784, 0.0, 0.06860669758467645, 0.030722367019305658, 2.2716267108917236, 0.24625436961650848, 0.09031443384949515, 2.024756669998169, 0.32984042167663574, -1.7350343603504683e-42, -9.22093791784468e-06, -0.0008290774042494466]
[1.5000000000000007, 0.18966996769215405, 5.875535488128662, 2.532900810241699, 0.028759454055975405, -0.15105270904179174, -0.006373006160108288, 0.02871148867332317, 0.0, 0.08972209266321421, 0.018920556269426674, 2.280754804611206, 0.2545992136001587, 0.08540688821630543, 2.045166254043579, 0.4022696018218994, -2.5931148704726235e-40, -4.9731031379066434e-06, -0.0008874531275624841]
[1.5500000000000007, 0.1574062486113173, 5.9725565910339355, 2.2963449954986572, 0.02652537671826635, -0.04798693066216572, -0.0052459450051803086, -0.005742907326739606, 0.0, 0.09113737265993553, 0.017143060350504113, 2.2872393131256104, 0.24882304668426514, 0.08670218567185947, 2.0602662563323975, 0.40590208768844604, -6.718406242632978e-34, -1.052108011283554e-06, -0.0008388125235737929]
[1.6000000000000008, 0.1499795642162018, 6.098759174346924, 1.8842434883117676, 0.028015753511041, 0.04616043667637487, -0.004404783536482706, -0.03403978642280221, 0.0, 0.0873230167949863, 0.014697401488410389, 2.296968698501587, 0.23657335340976715, 0.09350467895528915, 2.082777738571167, 0.3858702480792999, -7.224713052566702e-31, 2.3262332312582517e-06, -0.0008777286732381099]
[1.6500000000000008, 0.14134114900230077, 6.168313980102539, 1.567659854888916, 0.028076931000728566, 0.08074892115821236, -0.00413401623886447, -0.04035989036449066, 0.0, 0.08453934139781258, 0.01412489872432251, 2.3034093379974365, 0.23028169572353363, 0.09595733485212703, 2.097184419631958, 0.36800646781921387, -6.475419738202661e-25, 4.9173186276013166e-06, -0.0008378087558287673]
[1.7000000000000008, 0.19491236634639303, 6.248133659362793, 1.0724471807479858, 0.03480779490922533, 0.0964328817564564, -0.004040350438650785, -0.03839769900706946, 0.0, 0.0816653838549919, 0.011798825607693438, 2.3131039142608643, 0.22168724238872528, 0.10168874420220707, 2.1177687644958496, 0.3424975275993347, -6.527868225047722e-23, 6.9951054934232815e-06, -0.0008062272772637258]
[1.7500000000000009, 0.20067690949477052, 6.2846527099609375, 0.7341465353965759, 0.035961249571472766, 0.09434835552258561, -0.003821237794607621, -0.03310003444052615, 0.0, 0.07877867903323384, 0.010954802296420695, 2.319582223892212, 0.21679598093032837, 0.10313915729107913, 2.1308493614196777, 0.32654619216918945, -1.0713245821186457e-21, 9.462872386001949e-06, -0.0008764821535133054]
[1.800000000000001, 0.2885222577956097, 6.304165840148926, 0.4636242985725403, 0.05186279803536871, 0.09142613501330452, -0.004057076615116024, -0.030634690669389668, 0.0, 0.0775375827536323, 0.008327827190900623, 2.324895143508911, 0.21330685913562775, 0.10655289558515589, 2.1409552097320557, 0.3138962686061859, -4.739038276153317e-21, 1.0730778400171152e-05, -0.0008083675865533706]
[1.850000000000001, 0.28066360082819797, 6.3187575340271, -0.0683402344584465, 0.05066848175300307, 0.06800060714851996, -0.003361471912886995, -0.016391265748687083, 0.0, 0.06964361180063448, 0.00714480099832964, 2.3275036811828613, 0.20081865787506104, 0.10778820410816556, 2.164480447769165, 0.28688740730285645, -1.6978105855295802e-23, 1.2390256398140439e-05, -0.0007276281583973731]
[1.900000000000001, 0.35139019531351795, 6.304286956787109, -0.4649285674095154, 0.0746835295426196, 0.05222471320139485, -0.004247704874874504, -0.0064393485610627155, 0.0, 0.061097582116561265, 0.006244145327209328, 2.3260600566864014, 0.18778136372566223, 0.10999002608465838, 2.185275077819824, 0.26176804304122925, -2.952151800436021e-25, 1.431167234816784e-05, -0.0007069389789076418]
[1.950000000000001, 0.34727419543906846, 6.281322956085205, -0.7303099036216736, 0.07329659415307736, 0.04747994714736126, -0.003984515522749524, -0.002490250728321083, 0.0, 0.055534435382408785, 0.00600925002619054, 2.3258395195007324, 0.18085850775241852, 0.1107409907548348, 2.198068141937256, 0.24656443297863007, -2.2889669776647245e-30, 1.61267874023325e-05, -0.0006237296978638194]
[2.000000000000001, 0.37617609562676274, 6.2553300857543945, -0.9364594221115112, 0.09066291017691856, 0.04561751844864523, -0.0036277935721404616, -0.0005578094885247087, 0.0, 0.051665185298516825, 0.004499499353928541, 2.326368570327759, 0.17637117207050323, 0.11275724465503273, 2.207625389099121, 0.23488469421863556, -2.3260154078196833e-33, 1.7878251097427455e-05, -0.0006021048027084582]
[2.0500000000000007, 0.3591224205385882, 6.179945945739746, -1.317030668258667, 0.08096200787651057, 0.05013124317597008, -0.0029816544881135134, 0.002081496616598564, 0.0, 0.038518240452321335, 0.0041693594327911225, 2.327446222305298, 0.16832506656646729, 0.1134603970806749, 2.2265806198120117, 0.2057429701089859, -7.072760584986177e-40, 1.9369389166578758e-05, -0.0005307357461660973]
[2.1000000000000005, 0.41213531253149555, 6.0918145179748535, -1.6303257942199707, 0.12744971771679553, 0.06111297458435526, -0.003167887366072266, 0.0017395975120489177, 0.0, 0.02918934844245951, 0.0028733148891586335, 2.329738140106201, 0.16231371462345123, 0.1162287391151636, 2.24111008644104, 0.17710807919502258, -3.447026839063442e-43, 2.0889554590032636e-05, -0.0005092646329715143]
[2.1500000000000004, 0.38941305147042604, 6.022671222686768, -1.8456486463546753, 0.1047048145869867, 0.06871795804924345, -0.0022118475839587445, 0.0013155966166568868, 0.0, 0.023473172942951415, 0.002471964534836844, 2.331723213195801, 0.15806405246257782, 0.11744788173502048, 2.249626636505127, 0.156805157661438, -3.2043068997522747e-46, 2.2399705809730476e-05, -0.0004913276966373738]
[2.2, 0.4168581985923099, 5.90342903137207, -2.1283178329467773, 0.13915738756702437, 0.081125567992249, -0.0013565559224547458, 0.000797728018670657, 0.0, 0.01643215382072434, 0.0011710316319812326, 2.335277557373047, 0.15255914628505707, 0.12090754412134254, 2.2605044841766357, 0.1208307296037674, -6.527701579750475e-55, 2.3133600848924512e-05, -0.00042878110970757965]
[2.25, 0.40534533829024294, 5.815075874328613, -2.3202342987060547, 0.12551531980401406, 0.09380382778963625, -0.0008339402032511117, 0.0005099021402675002, 0.0, 0.011854059875293227, 0.0008088716518301139, 2.3323781490325928, 0.14606942236423492, 0.12238566474111531, 2.2728402614593506, 0.09896399825811386, -2.597039385453659e-63, 2.4621544441663035e-05, -0.0003597238824209024]
[2.3, 0.4782888922425864, 5.738734722137451, -2.4728875160217285, 0.4052108651838201, 0.09729285333316286, -0.0007055263384883183, 0.000491136039398642, 0.0, 0.010435166196359605, 0.0002073531999418184, 2.330981492996216, 0.14114898443222046, 0.1260675677129942, 2.281097888946533, 0.07987924665212631, -1.5290947211363052e-67, 2.6260392952485586e-05, -0.0003317961412599142]
[2.3499999999999996, 0.4674148402833507, 5.560440540313721, -2.7875523567199707, 0.3129348608520989, 0.11400652850929228, -0.001716874228190711, 0.001597412203192625, 0.0, 0.004212229484726129, 0.0006776153161239728, 2.32812762260437, 0.13057976961135864, 0.1277052009484825, 2.2960851192474365, 0.03643988072872162, -1.0268036749596617e-75, 2.7878670678439075e-05, -0.0002724311408933435]
[2.3999999999999995, 0.5431953946094241, 5.46980619430542, -2.8926610946655273, -0.4113110800612428, 0.1219232062863849, 0.001637124511897056, 0.0018140600578711954, 0.0, 0.0030865122506446457, 0.0005036698561943106, 2.327777624130249, 0.1268077790737152, 0.13419643751867516, 2.3009493350982666, 0.008355707861483097, -3.866805679690503e-78, 2.9252763930870287e-05, -0.00024720617040587683]
[2.4499999999999993, 0.5746653183585979, 5.26725959777832, -3.0994131565093994, -0.22628189940388738, 0.2384847945868772, 0.0013629946220066647, 0.0017359052333279707, 0.0, 1.6793154631769916e-05, 0.0008168679491738174, 2.323105812072754, 0.11683228611946106, 0.13797804442791256, 2.3128888607025146, -0.07155758142471313, -5.3358114368741756e-83, 3.12163373110412e-05, -0.00017730144771983946]
[2.499999999999999, 0.663293945843874, 5.081846714019775, -3.0856897830963135, -0.10565019068493196, 0.1714855645302547, 0.0012407067077866581, 0.002940316618025516, 0.0, -0.0008354536209915603, 0.0017627080239225959, 2.318361520767212, 0.10791231691837311, 0.15066130649253417, 2.3176541328430176, -0.20943595468997955, -1.705053829337332e-82, 3.288613065092423e-05, -0.0001312415270792285]
[2.549999999999999, 0.6757181224485487, 4.959084510803223, -3.0675392150878906, -0.10296055397508053, 0.0076272868166879755, 0.004494089322734088, 0.005647705493016994, 0.0, -0.0011534446516419153, 0.006902408419096243, 2.3159875869750977, 0.10358717292547226, 0.15869736904133902, 2.315908670425415, -0.24851246178150177, -3.389368233427389e-79, 3.467694543323505e-05, -8.160103902580607e-05]
[2.5999999999999988, 0.698429470354491, 4.778443336486816, -3.013106346130371, -0.09246060733436795, -0.04305989432084158, 0.00619800315590891, 0.006534101297896967, 0.0, -0.0013981554212915148, 0.010824110240389664, 2.313525915145874, 0.10148382186889648, 0.1619347294626407, 2.3117361068725586, -0.23844613134860992, -1.4371993751434876e-76, 3.573233905977059e-05, -8.816100877262302e-05]
[2.6499999999999986, 0.683629491710951, 4.662919044494629, -2.837505578994751, -0.09970186995090051, -0.08399079865625188, 0.00880186835236146, 0.005424836116273718, 0.0, -0.0018618312241348732, 0.014164315871250941, 2.312506914138794, 0.09564189612865448, 0.16098003685967505, 2.309997797012329, -0.17031586170196533, -2.4070097719434995e-69, 3.66202470514795e-05, -0.00012577073157108196]
[2.6999999999999984, 0.6492315248373927, 4.497372150421143, -2.6751742362976074, -0.11739182254614604, -0.07857822606064897, 0.013717483146547345, 0.006030188813016557, 0.0, -0.0019859781987843347, 0.01770212003843233, 2.311790704727173, 0.09180951118469238, 0.1521961730737987, 2.308898687362671, -0.1231907457113266, -4.3369750640450864e-66, 3.701193884130515e-05, -0.0001427550616791122]
[2.7499999999999982, 0.6382927978512126, 4.392321586608887, -2.5739197731018066, -0.12381629566875596, -0.08171711480491099, 0.015845021688165897, 0.007406888827295517, 0.0, -0.0021389179489767437, 0.018841587305172377, 2.3118324279785156, 0.09108110517263412, 0.14799529722154037, 2.309028148651123, -0.09267350286245346, -3.6348918432115674e-63, 3.740181118437259e-05, -0.00015756308929440712]
[2.799999999999998, 0.6417021849793918, 4.2418951988220215, -2.458378553390503, -0.1121679628905756, -0.08486469415671291, 0.01571347954195941, 0.009749098365887518, 0.0, -0.002444308603429552, 0.0191817009595857, 2.31266450881958, 0.09028955549001694, 0.13750807531101003, 2.3105359077453613, -0.04971005395054817, -6.771897377631517e-57, 3.753624102184733e-05, -0.00019431037202005433]
[2.849999999999998, 0.6634691039049965, 4.145316123962402, -2.40913462638855, -0.09323016919247444, -0.09078774002883458, 0.013769177670010983, 0.011853834864695979, 0.0, -0.002747591348201226, 0.01958585042457405, 2.3122000694274902, 0.08976863324642181, 0.13300423191467575, 2.3168563842773438, -0.018802490085363388, -3.613595353554889e-53, 3.781218703996466e-05, -0.0002197323208142828]
[2.8999999999999977, 0.7407548207670199, 4.0693559646606445, -2.3695294857025146, -0.05812162908759733, -0.09529399870354624, 0.009215023502415173, 0.013184016296586082, 0.0, -0.0029750798567209826, 0.01970813589671672, 2.3123652935028076, 0.0905134528875351, 0.12444643086407793, 2.321866989135742, 0.007839280180633068, -1.3444812100982783e-51, 3.812333523073036e-05, -0.00023136500729658023]
[2.9499999999999975, 0.7853749036382487, 3.9126055240631104, -2.250138521194458, -0.046778437073419166, -0.09684315353649738, 0.006919706510250952, 0.01557710551317437, 0.0, -0.00333837882947053, 0.017660581120335632, 2.3132262229919434, 0.09433387219905853, 0.11947675751116942, 2.334866523742676, 0.06838071346282959, -3.4455804427038648e-50, 3.860793155542646e-05, -0.00024806302856484003]
[2.9999999999999973, 0.86527132437064, 3.842820882797241, -2.120041847229004, -0.033597167106247126, -0.09133374758274798, 0.0051003343336530746, 0.01545402805094299, 0.0, -0.003295655759757855, 0.016793785101474425, 2.3143410682678223, 0.09811106324195862, 0.11066694913602107, 2.341402769088745, 0.09976295381784439, -6.502436572477058e-44, 3.9034782747226945e-05, -0.0002549931653710358]
[3.049999999999997, 0.8937173729877714, 3.7106075286865234, -1.72177255153656, -0.02982418187829071, -0.06407081599507768, 0.00402300676805082, 0.012562116350267197, 0.0, -0.003015302741610026, 0.014307066435387556, 2.3153414726257324, 0.10391970723867416, 0.1060958346384975, 2.361151695251465, 0.16281799972057343, -2.73962294615917e-40, 3.955287652201573e-05, -0.0002570762696589621]
[3.099999999999997, 0.8820152672954196, 3.6594748497009277, -1.4337544441223145, -0.02813505288902597, -0.05968067487531492, 0.003300667129619407, 0.011937506724079752, 0.0, -0.0029604407243074417, 0.011380205222466598, 2.3154876232147217, 0.10658536851406097, 0.09703122279633225, 2.372438669204712, 0.19051405787467957, -2.3325277436399922e-27, 4.06866282128393e-05, -0.00023738507570108706]
[3.149999999999997, 0.8553276208957619, 3.5841779708862305, -0.7185410261154175, -0.029259740455305716, -0.03994311321425903, 0.003207770656682609, 0.008975591295993802, 0.0, -0.0027987517872488247, 0.010266493621529831, 2.3164303302764893, 0.11144053936004639, 0.09367290917625658, 2.3983991146087646, 0.23632051050662994, -1.3516202324234055e-21, 4.15860993720626e-05, -0.00022508045665903194]
[3.1999999999999966, 0.7308672117972717, 3.5663506984710693, -0.36093175411224365, -0.04216817392673749, -0.03622830887781682, 0.004075673154083628, 0.008342132890298183, 0.0, -0.0027101373583524185, 0.008342938214483725, 2.317671298980713, 0.11340887099504471, 0.08637005507923286, 2.4104201793670654, 0.2523306906223297, -1.2653373832685965e-09, 4.222994757934224e-05, -0.0001900640837528103]
[3.2499999999999964, 0.6831259324901556, 3.566006660461426, 0.36254963278770447, -0.05199615581119008, -0.028556728570250454, 0.004761663129332953, 0.006653449077354045, 0.0, -0.0024892059991924336, 0.007640294524242041, 2.3207578659057617, 0.11592700332403183, 0.083505665984798, 2.4369962215423584, 0.2770700752735138, -6.875192296568211e-07, 4.289824807573915e-05, -0.00017623310141443537]
[3.2999999999999963, 0.5732520983801869, 3.581308364868164, 0.5991606712341309, -0.1322282961951874, -0.027498674286941197, 0.011721543123487303, 0.006369964093290277, 0.0, -0.0024522627395665536, 0.006871722973976463, 2.3227577209472656, 0.1159333884716034, 0.07797523502127163, 2.4491117000579834, 0.2827240526676178, -0.00011489053585030589, 4.2579974798377794e-05, -0.00014375761977657042]
[3.349999999999996, 0.5803117131135699, 3.6327290534973145, 0.9049279689788818, -0.11521099655734629, -0.03232667279596459, 0.010221675467072892, 0.006059623026145259, 0.0, -0.002488929787244599, 0.006661176152366503, 2.3272006511688232, 0.11452727764844894, 0.07541501930778405, 2.475062847137451, 0.2936840057373047, -7.406309574271984e-05, 4.1879874364007755e-05, -0.00011778300186457748]
[3.399999999999996, 0.5933816417818915, 3.6627566814422607, 0.973027765750885, -0.09173060358798457, -0.03485601790915237, 0.0083302009633666, 0.006115288413293409, 0.0, -0.0024822728127743454, 0.006437570403967026, 2.329632520675659, 0.11343824863433838, 0.07108963892858929, 2.486887216567993, 0.29827144742012024, -1.0096895700058986e-05, 4.177197443930213e-05, -0.00010744732325937613]
[3.4499999999999957, 0.6468220142305254, 3.7293756008148193, 0.9962177872657776, -0.05379949637266286, -0.06999170138120843, 0.004803335497279779, 0.008287009931405223, 0.0, -0.0027019228396369535, 0.006090995329937215, 2.330054521560669, 0.10810258984565735, 0.06828801887147536, 2.5138487815856934, 0.3168538808822632, -4.500927563997413e-06, 4.1913667446583676e-05, -8.689277280766985e-05]
[3.4999999999999956, 0.7213817047890597, 3.7612125873565674, 1.0088789463043213, -0.031575668725639064, -0.07809841099100949, 0.003444011421878492, 0.008871561151355992, 0.0, -0.0027099190170140077, 0.006747139996992903, 2.329397201538086, 0.10528453439474106, 0.061880372788245264, 2.526980400085449, 0.3339170813560486, -2.9769257711034623e-06, 4.2536152046274646e-05, -7.818215567303308e-05]
[3.5499999999999954, 0.7718274229976991, 3.8312084674835205, 1.1147208213806152, -0.023806690446623195, -0.07700535041494586, 0.00254046670681052, 0.008698563286786457, 0.0, -0.0025131841586034935, 0.006164751833966169, 2.3282525539398193, 0.10230819880962372, 0.05778081194678259, 2.556635618209839, 0.37891343235969543, -1.8098912979397302e-06, 4.330770095361935e-05, -6.065884543616345e-05]
[3.599999999999995, 0.7647538442530859, 3.904552698135376, 1.3706682920455933, -0.020756694033050124, -0.056795067285990666, 0.002504517603807163, 0.006810142792575306, 0.0, -0.0022685079502667233, 0.00591332526278968, 2.328536033630371, 0.10047145187854767, 0.04901496466065383, 2.5844178199768066, 0.417662650346756, -5.064243574318785e-08, 4.3807832458289567e-05, -5.315805411768835e-05]
[3.649999999999995, 0.7406372052684265, 3.963724374771118, 1.6010267734527588, -0.021298622615216953, -0.046249204587396654, 0.002731970403908527, 0.005825845485751495, 0.0, -0.002141648606628688, 0.0058397258951369095, 2.3291845321655273, 0.09896282851696014, 0.04553383274767482, 2.603696346282959, 0.4365302622318268, -1.289810053345089e-11, 4.399166969617565e-05, -3.9328075287761824e-05]
[3.699999999999995, 0.5982232326163733, 4.017836570739746, 1.783633828163147, -0.04909433574860655, -0.042615390428384754, 0.008144809847844763, 0.005523511325971407, 0.0, -0.002118968694755887, 0.006659774819898187, 2.3300771713256836, 0.0976111963391304, 0.040175741583423734, 2.6192963123321533, 0.44698795676231384, -5.136012780973691e-14, 4.414231819067901e-05, -3.409417164580441e-05]
[3.7499999999999947, 0.5569396584600944, 4.151273250579834, 2.1136462688446045, -0.0854877874076259, -0.028793375959646178, 0.01539953593947255, 0.0042839119685463695, 0.0, -0.0020318311776562617, 0.006699893762967813, 2.332096576690674, 0.09435496479272842, 0.03728561384199479, 2.6529717445373535, 0.4573393762111664, -2.59888573967296e-16, 4.4340588821641855e-05, -3.007768014732785e-05]
[3.7999999999999945, 0.45706318206863256, 4.220004081726074, 2.1632118225097656, 0.0609269261473168, -0.027376641992885274, -0.016119559986659853, 0.00420688077970263, 0.0, -0.002031009414604423, 0.007909238248104212, 2.3334453105926514, 0.09227369725704193, 0.029932803666989853, 2.6686267852783203, 0.45692333579063416, -1.3511046216097967e-20, 4.352725112389085e-05, -2.2060077244265457e-05]
[3.8499999999999943, 0.4604529436536529, 4.366779327392578, 2.136899948120117, 0.05045308060288591, -0.04085825451073066, -0.012716554130073434, 0.007520926023274371, 0.0, -0.0020468915915415405, 0.005839783381604643, 2.3310482501983643, 0.08507154136896133, 0.02318971479614837, 2.7020089626312256, 0.4556232988834381, -7.266672825807774e-21, 4.4126129654751254e-05, -1.6487442084381462e-05]
[3.899999999999994, 0.4583684509555276, 4.433922290802002, 2.060734748840332, 0.02214596974048731, -0.044635837391548534, -0.010012768092113718, 0.008253594359624654, 0.0, -0.002051484022208277, 0.004791481893405149, 2.3289945125579834, 0.0806417465209961, 0.010599580070833295, 2.717590093612671, 0.4566408097743988, -5.78653627662466e-20, 4.490102844084955e-05, -1.434133444022897e-05]
[3.949999999999994, 0.4864674900676034, 4.5665130615234375, 1.8469513654708862, 0.02369874517876732, -0.009314987026722388, -0.02293528118974383, 0.001313773066758622, 0.0, -0.0013153831504292594, 0.005003046096629908, 2.324692487716675, 0.0714028999209404, 0.005171007615417396, 2.750448226928711, 0.4507945775985718, -6.21407330516792e-19, 4.574530620127166e-05, -1.2692898669331747e-05]
[3.999999999999994, 0.5197836665632296, 4.671853542327881, 1.656805157661438, 0.04186651037423708, 0.019169199888172037, 0.043376971473935336, -0.005464627115302384, 0.0, -0.0008462954266111497, 0.003935676545736931, 2.3219597339630127, 0.061036884784698486, -0.0038020426476136062, 2.7781460285186768, 0.4290529489517212, -1.7649931729786372e-16, 4.631197676653028e-05, -9.492622300162777e-06]
[4.049999999999994, 0.5278907508730735, 4.736320972442627, 1.5478463172912598, 0.048785779149965146, 0.025206364273263927, 0.01484183990315308, -0.009979558910798776, 0.0, -0.0006490409315752816, 0.00246112814204649, 2.320385217666626, 0.05297460779547691, -0.008096557660787734, 2.795572519302368, 0.4089867174625397, -1.0498338506941548e-15, 4.6882462938693344e-05, -8.539468619021818e-06]
[4.099999999999993, 0.5218512382918172, 4.82618522644043, 1.4276363849639893, 0.12751372152787288, 0.029380799174924112, 0.013625491324954865, -0.007931877395798044, 0.0, -0.0006611317502030474, 0.001496679480615633, 2.3181982040405273, 0.03996262699365616, -0.014083474223842363, 2.819990873336792, 0.37777644395828247, -1.9362155161052428e-14, 4.664486310932561e-05, -6.61111857904694e-06]
[4.149999999999993, 0.5081651066556884, 4.882734775543213, 1.3686800003051758, -0.7794409438041446, 0.03548412929798703, -0.06479632355031498, 0.0020267323134936554, 0.0, -0.0007092274482400599, 0.001103457513836724, 2.3168246746063232, 0.03305969387292862, -0.016839713485272963, 2.835050344467163, 0.3546634614467621, -3.122176208898506e-14, 4.693529237960719e-05, -6.0039438460735515e-06]
[4.199999999999993, 0.4649732654868829, 4.9261345863342285, 1.3203448057174683, -0.04828179107053863, 0.0382138893943982, 0.00040281084055215574, 0.005167448668143177, 0.0, -0.0007972935196629896, -0.0001680961048966081, 2.3159546852111816, 0.03092099167406559, -0.020164039238707666, 2.846346139907837, 0.3346112370491028, -6.453654062140115e-14, 4.7216451706609776e-05, -4.739148969299132e-06]
[4.249999999999993, 0.4432705642674367, 5.016034126281738, 1.3272292613983154, -0.03314604287182237, -0.021020166033966184, 0.0021961270990517204, 0.002347706623726485, 0.0, -0.003368794815278614, -0.0013581934968891405, 2.309199333190918, 0.026286540552973747, -0.020506677464189858, 2.8692944049835205, 0.2922450006008148, -5.914860401535067e-14, 4.817051317787375e-05, -4.335698760905537e-06]
[4.299999999999993, 0.36815581756478855, 5.058638572692871, 1.3215254545211792, -0.017559146600882865, -0.08940138085852042, 0.0035216191406245803, -0.005102329150124871, 0.0, -0.0049059392022093706, -0.0046295815073938455, 2.3051822185516357, 0.019356902688741684, -0.02308597861219049, 2.8798880577087402, 0.3098243772983551, -9.923755866083068e-15, 5.1047751435177104e-05, -3.442281492114589e-06]
[4.3499999999999925, 0.34183363501592107, 5.146255016326904, 1.2008205652236938, -0.01741219662958934, -0.13774251458683656, 0.003219744835516466, -0.01383975706312456, 0.0, -0.012833651888386253, -0.005018201753747537, 2.2962841987609863, 0.0002450469764880836, -0.027140939028012685, 2.905601978302002, 0.37924665212631226, -2.0650466870239184e-14, 5.243743665431988e-05, -2.666366177987112e-06]
[4.399999999999992, 0.34495811633943313, 5.211300849914551, 0.9344015121459961, -0.023169458849174828, -0.07451289616363484, 0.0027073935710913164, -0.007994623575263045, 0.0, -0.017518421790894398, -0.00414126146523218, 2.2891716957092285, -0.01267146598547697, -0.035446666717194604, 2.9304888248443604, 0.3979838788509369, -7.005076393815473e-14, 5.34573004692323e-05, -2.332366418866832e-06]
[4.449999999999992, 0.35904156115919317, 5.24473237991333, 0.7222465872764587, -0.027638566989234583, -0.04468429318732222, 0.0034302708074345554, -0.003366228510403405, 0.0, -0.018980140517586154, -0.004799251748254991, 2.2847025394439697, -0.019010866060853004, -0.03867872077282295, 2.947201728820801, 0.3973020911216736, -1.7859007912142863e-13, 5.4804614278169854e-05, -2.074430133110254e-06]
[4.499999999999992, 0.42011658316038547, 5.265206336975098, 0.5468837022781372, -0.05030084529796796, -0.034662491813482826, 0.005801092813709249, -0.0015154051490826562, 0.0, -0.0192653552652561, -0.0048325937091852865, 2.281451940536499, -0.023043029010295868, -0.04193867315504211, 2.960353374481201, 0.3932105302810669, -3.1150358159792354e-13, 5.698199526830932e-05, -1.552447447703635e-06]
[4.549999999999992, 0.4506268109515782, 5.290502071380615, 0.19355511665344238, -0.07915849533065238, -0.018126600505488876, 0.00871992459516005, 0.003486154150437059, 0.0, -0.018428979991675573, -0.0047984407717561696, 2.274527072906494, -0.02965768240392208, -0.04365147045955746, 2.9875967502593994, 0.380672425031662, -1.5773015428058292e-13, 5.854910373463252e-05, -1.3909048030857325e-06]
[4.599999999999992, 0.5095673698343802, 5.294832706451416, 0.062472932040691376, -1.451591496571255, -0.018476533025271427, 0.7887713658160528, 0.004137332085953926, 0.0, -0.017832558040393118, -0.004036758529197337, 2.271711587905884, -0.03155512362718582, -0.04750397561644916, 2.999969959259033, 0.37486791610717773, -5.5679818064695176e-15, 6.123090899208426e-05, -1.0564386425787973e-06]
[4.6499999999999915, 0.5241891860674438, 5.292458534240723, -0.174484983086586, 0.3627207911696541, -0.035465244500622224, -0.0260468802189316, 0.005973537422292456, 0.0, -0.01448914483396033, -0.00342607962063603, 2.262730121612549, -0.037819117307662964, -0.04992484430114562, 3.025813341140747, 0.3662621080875397, -1.184913617689148e-16, 6.483963779698278e-05, -8.169299956977643e-07]
[4.699999999999991, 0.5393838873145443, 5.286693096160889, -0.24126678705215454, 0.20787253261361055, -0.05104641562106912, -0.007838829347202337, 0.01177560858182398, 0.0, -0.012672513923730023, -0.0021347910843635856, 2.258174180984497, -0.03858998045325279, -0.057441398430409144, 3.0378150939941406, 0.3678462505340576, -3.355811193681707e-17, 6.764455092183602e-05, -7.229128376516613e-07]
[4.749999999999991, 0.5180475148258118, 5.269680500030518, -0.28003212809562683, 0.7028325288068575, -0.24563441762540375, -0.04091990169691482, 0.10401453815859636, 0.0, 0.009130633243315311, -0.0030536895776406684, 2.250032424926758, 0.006240035407245159, -0.06323648848757925, 3.065154552459717, 0.44902023673057556, -1.4360587949768126e-17, 8.111542619737151e-05, -6.128024914369564e-07]
[4.799999999999991, 0.46020648338347614, 5.262109756469727, -0.23669590055942535, -0.18368153786767885, -0.26685856125333873, 0.021133101691918385, 0.1058225862573481, 0.0, 0.022043685955835488, -0.009754089288929306, 2.2485156059265137, 0.04479452595114708, -0.08575201700182837, 3.0809834003448486, 0.5345642566680908, -5.35331112650343e-17, 9.609810431998729e-05, -3.879217387780638e-07]
[4.849999999999991, 0.4026841752361675, 5.249479293823242, -0.21437031030654907, -0.09552267240845036, -0.030814037213943452, 0.013969707526606772, 0.07063447649943899, 0.0, 0.07179412033697634, -0.013895217816222601, 2.248887777328491, 0.09756612032651901, -0.09530646753559897, 3.1219427585601807, 0.6298243403434753, -1.026149229284372e-16, 0.00011179863303094017, -2.0426622036217735e-07]
[4.899999999999991, 0.3631634836141334, 5.2432427406311035, -0.20673581957817078, -0.07534923308631701, 0.06285260143583192, 0.014178510905731374, 0.054782759201114015, 0.0, 0.07938487153523777, -0.019296556825050507, 2.2506933212280273, 0.1160450354218483, -0.10274615594281274, 3.1418616771698, 0.6061640381813049, -1.314957231361022e-16, 0.00011902511993368376, -1.7599744717045325e-07]
[4.94999999999999, 0.33057191161410693, 5.228100776672363, -0.3240016996860504, -0.06192064307434416, 0.07687501106492324, 0.012843343952318228, 0.030953463399639784, 0.0, 0.09833883496514977, -0.021358878673678937, 2.2561492919921875, 0.13349220156669617, -0.10311059254324782, 3.1799581050872803, 0.5232712626457214, -1.2425027412103658e-16, 0.0001261249843258791, -1.7591964751120343e-07]
[4.99999999999999, 0.38599188264943324, 5.215981483459473, -0.45894134044647217, -0.09091303225758597, 0.047071829543763676, 0.01970463956923453, 0.026359832549663488, 0.0, 0.10103174908025069, -0.022649616239101455, 2.2593600749969482, 0.13540039956569672, -0.10479617237137283, 3.19628643989563, 0.5038788914680481, -5.510082669452373e-19, 0.00012525680736672843, -1.2083326906794393e-07]
[5.04999999999999, 0.4282807255084524, 5.1733551025390625, -0.8078420758247375, -0.14105177400829888, -0.029750473039593984, 0.030360453710483234, 0.02135131087350381, 0.0, 0.10141309417243209, -0.023001293069648737, 2.261509895324707, 0.13044537603855133, -0.10759272259345516, 3.2328872680664062, 0.48819634318351746, -1.525425059554561e-20, 0.00012708358763816106, -1.0559096778065663e-07]
[5.09999999999999, 0.5686035238947907, 5.144896507263184, -0.9629795551300049, 0.20734491442869143, -0.03937064582259527, -0.045048621283739966, 0.02206448690949598, 0.0, 0.09895782307785331, -0.024484158497113724, 2.261643409729004, 0.12753397226333618, -0.11437494073656572, 3.250588893890381, 0.4865038990974426, -1.0505027670686985e-25, 0.0001302769370279631, -6.857144397564691e-08]
[5.14999999999999, 0.6170781862126068, 5.068946838378906, -1.2445178031921387, 0.11744502194711072, -0.06746790586300398, -0.025006934813217734, 0.02742456476656279, 0.0, 0.08520928326388175, -0.024822072208569277, 2.26229190826416, 0.12398721277713776, -0.11712799044135312, 3.2879528999328613, 0.4884164333343506, -1.0056933683324856e-27, 0.00013423030160508527, -5.778571539428643e-08]
[5.1999999999999895, 0.684885207403694, 4.992708683013916, -1.2538981437683105, 0.07585460920016154, -0.016003700312754287, -0.016263820962583882, 0.014590431316971806, 0.0, 0.07439855783932245, -0.026363312686880677, 2.264385938644409, 0.12664508819580078, -0.1232005376002021, 3.3207805156707764, 0.5028170943260193, -1.2221748515188095e-30, 0.0001368774972827174, -3.6674006784401164e-08]
[5.249999999999989, 0.6853152216662864, 4.9433674812316895, -1.1943997144699097, 0.07719390250277096, 0.05016206065801816, -0.016250389988050784, -0.004366528077674166, 0.0, 0.06818505157098859, -0.026406307077651958, 2.2663395404815674, 0.12335768342018127, -0.1256926357498931, 3.3423068523406982, 0.4817579686641693, -1.107899569868348e-28, 0.00013754392240331975, -2.471934929787269e-08]
[5.299999999999989, 0.6461523978781947, 4.8749470710754395, -1.0454742908477783, 0.09873861053660192, 0.08625891542548911, -0.020528009432345264, -0.018382836664577434, 0.0, 0.05660966891633116, -0.025907121858763305, 2.2694575786590576, 0.10767371952533722, -0.12502717552417295, 3.3712525367736816, 0.4041663408279419, -2.9110557238596194e-27, 0.0001376487489621086, -2.151948398685788e-08]
[5.349999999999989, 0.6350823396171636, 4.835448741912842, -0.9112905263900757, 0.1053408992806283, 0.08330431287541443, -0.02148851741239238, -0.017598422859563825, 0.0, 0.05045636702917711, -0.024914680772080033, 2.2713794708251953, 0.0949828177690506, -0.12259984029692313, 3.3875012397766113, 0.34676358103752136, -5.758783602752616e-23, 0.000132076992600678, -1.6273047977937583e-08]
[5.399999999999989, 0.5807966412980725, 4.785763740539551, -0.7479755282402039, 0.1710720859879867, 0.08591896272259049, -0.03811584847530283, -0.016863149051297703, 0.0, 0.04042308036276804, -0.02502157595480347, 2.2739675045013428, 0.07743698358535767, -0.1134381646520408, 3.407442808151245, 0.26700323820114136, -2.967714953860952e-21, 0.00013079965973235725, -1.4254245662198095e-08]
[5.449999999999989, 0.5568843110889699, 4.757139205932617, -0.671576201915741, 0.24473455074894818, 0.09410765687851332, -0.0601246830199511, -0.018284408752435522, 0.0, 0.03398057239184414, -0.026157132196250578, 2.2721376419067383, 0.06425490975379944, -0.10871469489190086, 3.420969009399414, 0.21637912094593048, -6.763376804230713e-19, 0.00012810808720018654, -1.0399991337000706e-08]
[5.4999999999999885, 0.5171349847590713, 4.736255168914795, -0.6333655118942261, 0.9259740300132383, 0.0993181162795391, -0.3705926153019322, -0.019257887919079546, 0.0, 0.030400698777807607, -0.025693335926596117, 2.270953416824341, 0.05448115989565849, -0.09433098628224741, 3.4298255443573, 0.17572931945323944, -2.934170908279474e-18, 0.00012869245190791736, -8.92270961031785e-09]
[5.549999999999988, 0.5125973975438147, 4.693099498748779, -0.6369268298149109, 1.1930265122538788, 0.14781688503656884, -0.8138747200263042, -0.031423540910692695, 0.0, 0.01916827404428822, -0.025484273419836806, 2.267874240875244, 0.03154568001627922, -0.08834098949388225, 3.443958282470703, 0.08414102345705032, -4.57933958828459e-18, 0.00012634799842742856, -6.401949959782392e-09]
[5.599999999999988, 0.5200774187767492, 4.672414302825928, -0.6466156244277954, 0.6109001015272751, 0.17818203574265656, -0.2375952310085911, -0.04169450800414898, 0.0, 0.016550473149703752, -0.022618022129492352, 2.266516923904419, 0.015929941087961197, -0.06729297428790568, 3.4477035999298096, 0.027653254568576813, -4.410324446024042e-18, 0.00012414212662923015, -5.326275997017698e-09]
[5.649999999999988, 0.5306365407817146, 4.626172065734863, -0.7109697461128235, 0.29734885657231186, 0.4806209003416872, -0.11089146493045066, -0.1754511223551595, 0.0, -0.0060827122138469225, -0.021296406725791046, 2.2610414028167725, -0.06979599595069885, -0.058970568773675534, 3.447160243988037, -0.1846286654472351, -1.0093062885422972e-18, 9.943023021020797e-05, -2.4551383582544243e-09]
[5.699999999999988, 0.5833122955702236, 4.6023359298706055, -0.7608956098556519, 0.03547691477166959, 0.5812161097984204, -0.010311368184494824, -0.22807811296290031, 0.0, -0.017804402790315293, -0.00700639358641555, 2.2562716007232666, -0.1419612467288971, -0.02411648630986142, 3.440145969390869, -0.3500191867351532, -2.5630048876114653e-19, 7.799746443943058e-05, -1.0974393394659433e-09]
[5.749999999999988, 0.6241987947194829, 4.545571327209473, -0.8797866106033325, 0.006891520940435879, 0.659146099218911, 0.0018286047694573864, -0.28753032723155164, 0.0, 0.013206273877607788, 0.0019353872588581463, 2.2377798557281494, -0.3187469244003296, -0.0072940750416318695, 3.404500961303711, -0.7900827527046204, -5.737802800902113e-20, 5.8109431801054794e-05, -3.7748222545710694e-10]
[5.799999999999987, 0.7337118349318547, 4.49003791809082, -0.937628448009491, -0.017985356546404464, 0.47997168221160086, 0.010578716230987058, -0.2535413795808372, 0.0, 0.07486862671823116, 0.021934318914215024, 2.212890148162842, -0.4547000825405121, 0.03729625016451675, 3.3482930660247803, -1.1401374340057373, -1.8965856999755827e-21, 2.585430914847964e-05, -7.92906304409894e-12]
[5.849999999999987, 0.7665712989161227, 4.452494144439697, -0.9149126410484314, -0.022001378137324272, 0.35015442368158495, 0.012306254180979692, -0.1979929823502569, 0.0, 0.10453883340581287, 0.029264553581760833, 2.194202184677124, -0.5362182259559631, 0.0523295442759993, 3.301673173904419, -1.3212698698043823, -6.200805977014872e-21, 1.1528445773811482e-05, -2.1886855929510665e-13]
[5.899999999999987, 0.8159408696988146, 4.400763511657715, -0.7459723949432373, -0.029254114262210685, 0.20838529890957216, 0.015030977230444303, -0.1145616419242558, 0.0, 0.11764324136979502, 0.04262294438897625, 2.161038398742676, -0.6243687272071838, 0.08298191487789161, 3.219893455505371, -1.5196146965026855, -6.536909733541575e-20, 8.668312874258034e-06, -6.448805308476586e-14]
[5.949999999999987, 0.8010302992529101, 4.374966621398926, -0.5305883288383484, -0.03454780187861964, 0.14856150543415683, 0.0175623383852335, -0.07608141349980244, 0.0, 0.1102989624693152, 0.047375218455048204, 2.1364686489105225, -0.6613923907279968, 0.09323617815971377, 3.1592586040496826, -1.6143207550048828, -5.0615842031974715e-15, 6.075648664904756e-06, -9.949933781718007e-15]
[5.999999999999987, 0.7069132280596762, 4.361186981201172, -0.3217427432537079, -0.062190068078478745, 0.12544180019496162, 0.028112595671991678, -0.061242187859792865, 0.0, 0.10430388265500311, 0.05131877660949925, 2.1159136295318604, -0.6788339018821716, 0.11368783235549929, 3.108144760131836, -1.6704078912734985, -1.2580714020196623e-12, 5.95847865314409e-06, -6.5029756387181434e-15]
[6.0499999999999865, 0.653794597697349, 4.355531692504883, 0.1325540840625763, -0.09006858511003861, 0.06036021971078479, 0.040301444605288686, -0.021047644966269197, 0.0, 0.07662334829631547, 0.05373836218181068, 2.071321725845337, -0.6904241442680359, 0.12045680344104767, 2.9948911666870117, -1.7355881929397583, -3.580317509558679e-09, 7.163854291682702e-06, -6.65273753374825e-15]
[6.099999999999986, 0.5532617959600516, 4.361989974975586, 0.268294095993042, -0.3170362310013292, 0.04988272476857919, 0.1385699332376141, -0.015398467389425614, 0.0, 0.07136423683442618, 0.05591802442984874, 2.050163507461548, -0.6874677538871765, 0.13282635703682902, 2.9402379989624023, -1.7439130544662476, -1.2902111635407977e-08, 8.395144401157749e-06, -9.9873868655114e-15]
[6.149999999999986, 0.5287938281570265, 4.3887176513671875, 0.4843543469905853, -0.6376109888564891, 0.0017098381477245901, 0.3188988431951589, 0.007132666722895918, 0.0, 0.04870121370809621, 0.05750901744473331, 2.0059266090393066, -0.6718723773956299, 0.13589136302471166, 2.8238143920898438, -1.7322114706039429, -3.176423228917822e-08, 1.265895016183717e-05, -3.901634787587597e-14]
[6.199999999999986, 0.4771811973840044, 4.404725074768066, 0.50534987449646, 0.42903483030437306, -0.012754220444710838, -0.19356483708738514, 0.01348170845195363, 0.0, 0.04416015330072007, 0.05962207697990123, 1.9854246377944946, -0.6619399189949036, 0.14178909525275238, 2.769237518310547, -1.7172290086746216, -2.7879292240557967e-08, 1.5565131277319243e-05, -8.605325243706371e-14]
[6.249999999999986, 0.4948146304114725, 4.43686580657959, 0.46363601088523865, 0.749522374684986, -0.1901790024318438, -0.40882789954462406, 0.09337166822015441, 0.0, 0.027241270535563814, 0.060973108009024904, 1.9535571336746216, -0.6124963760375977, 0.14274991631507972, 2.6534039974212646, -1.6402475833892822, -1.698095013665544e-08, 2.84159934065044e-05, -9.665319440199873e-13]
[6.299999999999986, 0.5164106427612434, 4.46319055557251, 0.46538394689559937, -1.0283751296169559, -0.3783616884657888, 0.7637117143259938, 0.1155209263015617, 0.0, 0.026640087325134166, 0.056891198401988495, 1.93373703956604, -0.5245499610900879, 0.13647906109691318, 2.5575671195983887, -1.451011300086975, -1.4370887580455551e-08, 4.296964312588047e-05, -6.519030541586431e-12]
[6.349999999999985, 0.5305723450795675, 4.480339527130127, 0.4446690082550049, -0.57773863095156, -0.45578279965746077, 0.28094553237184167, 0.03827005491310668, 0.0, 0.06590992785807658, 0.05502163952089726, 1.922098159790039, -0.4850633144378662, 0.12937432170030455, 2.5014405250549316, -1.2700562477111816, -9.473029314307456e-09, 8.786223948924787e-05, -1.162109220579325e-09]
[6.399999999999985, 0.5951151233475143, 4.507124423980713, 0.5043126344680786, -0.12844456713312713, -0.3425023714699321, 0.07625678506286204, -0.0947471944738557, 0.0, 0.13350655290303207, 0.06027180744316419, 1.9032467603683472, -0.5366684198379517, 0.10218097054889363, 2.4321134090423584, -0.9783937335014343, -8.481430949495892e-09, 8.242223421775297e-05, -1.421136702619901e-08]
[6.449999999999985, 0.594319501354898, 4.5279221534729, 0.5589303374290466, -0.1157765152019083, -0.22847622578803917, 0.08324127466862777, -0.07240570694899251, 0.0, 0.12751893106948756, 0.06520148587027774, 1.8870600461959839, -0.5978777408599854, 0.09119844954514057, 2.3943161964416504, -0.8537461161613464, -7.079361346556992e-09, 4.250010265331382e-05, -4.475668224042148e-07]
[6.499999999999985, 0.5858254131872445, 4.563229084014893, 0.6590936779975891, -0.10286661422539312, -0.22990674656286791, 0.10443434988915735, 0.057541482161474776, 0.0, 0.09915360429698783, 0.07365921582605102, 1.859107255935669, -0.6042638421058655, 0.07294298400758115, 2.3451507091522217, -0.7108281850814819, -5.802734047498217e-09, 3.848646424346673e-05, -1.1327704438716e-06]
[6.549999999999985, 0.5728292776057649, 4.590495586395264, 0.7244996428489685, -0.11204548114809768, -0.227104678218185, 0.12353908782410017, 0.07870243062231641, 0.0, 0.09294611623432093, 0.07230523979957086, 1.8407948017120361, -0.5658851265907288, 0.0660218561901204, 2.317647933959961, -0.5992711782455444, -4.501889733754467e-09, 6.0436177433969395e-05, -6.993716171174496e-06]
[6.5999999999999845, 0.5411960506863506, 4.613595485687256, 0.74811190366745, -0.16737154061934337, -0.2100087998261257, 0.2176106146217996, 0.07802503407177783, 0.0, 0.09195913524986331, 0.06392897424362352, 1.8266832828521729, -0.5363450050354004, 0.05002814202180772, 2.298759698867798, -0.5236128568649292, -1.918520783023578e-09, 8.645393201325717e-05, -1.7905446576817716e-05]
[6.649999999999984, 0.5367029066097828, 4.66332483291626, 0.7601410746574402, -0.17740172296398635, -0.13369257887280434, 0.23894059770452242, 0.07705988286803005, 0.0, 0.08181878525321264, 0.0602852979472699, 1.8026669025421143, -0.4765804708003998, 0.0456677269544185, 2.2622287273406982, -0.41520601511001587, -9.812581723644297e-10, 0.00014154400207584325, -5.021502384369371e-05]
[6.699999999999984, 0.5140518010244095, 4.705695152282715, 0.7163108587265015, -0.555202333770931, -0.13263991414985438, 0.9446222265067227, 0.10926935654922244, 0.0, 0.06608891617230024, 0.051919792703928686, 1.784995436668396, -0.42146366834640503, 0.03974588877336396, 2.2340548038482666, -0.34905168414115906, -7.874544430195195e-10, 0.000165887532505689, -7.080660475871969e-05]
[6.749999999999984, 0.5224892212025091, 4.73227071762085, 0.6730474829673767, -0.28884174748685487, -0.14237927672103512, 0.4083721587823537, 0.14067617526016576, 0.0, 0.054895248887168825, 0.050084747836050554, 1.7744463682174683, -0.3741212487220764, 0.037477157942575785, 2.217890739440918, -0.30357205867767334, -5.236381861104571e-10, 0.0002573280958686092, -0.00013598017153420284]
[6.799999999999984, 0.5148932951459948, 4.769109725952148, 0.6005039811134338, -0.4713411237624812, -0.19964654209195523, 0.779385236550109, 0.24093094295274012, 0.0, 0.036604088946506935, 0.04480892747371065, 1.7617647647857666, -0.27298691868782043, 0.032492439491965536, 2.1978259086608887, -0.2240608036518097, -4.2331616819980486e-10, 0.0002890852226054222, -0.00018288037991328617]
[6.849999999999984, 0.5258088386833245, 4.792006492614746, 0.5914102792739868, -0.1969702135575099, -0.2778080549562162, 0.28254352109537156, 0.35132403229433734, 0.0, 0.020012218291917776, 0.04253517918597531, 1.7572723627090454, -0.14444690942764282, 0.03044564352426979, 2.1882286071777344, -0.12735821306705475, -3.46709810664562e-10, 0.0002942203395346452, -0.00023813043090911728]
[6.8999999999999835, 0.5294877138907105, 4.825016498565674, 0.5351328253746033, -0.11748192918368011, -0.32229646340551144, 0.13957149537775101, 0.4331813409338303, 0.0, 0.013233932784589848, 0.025373278627827296, 1.7605857849121094, 0.0812438577413559, 0.021526150466801425, 2.18243145942688, 0.04187668487429619, -1.9960056224809508e-10, 0.00065066413627762, -0.0005596745031101173]
[6.949999999999983, 0.5346722189201573, 4.845605850219727, 0.5231708288192749, -0.07547342501341973, -0.3323412823438542, 0.07027696239808372, 0.4637675809048538, 0.0, 0.016553615738857986, 0.016096187178593756, 1.7705907821655273, 0.26982295513153076, 0.017333543253779046, 2.184995651245117, 0.18116241693496704, -1.1706239648390898e-10, 0.0011529209197759934, -0.0009173431392832212]
[6.999999999999983, 0.5289647200401789, 4.874757766723633, 0.4654425382614136, 0.004919877981914299, -0.25381703308725406, -0.0875780865480723, 0.3885910585162002, 0.0, 0.06289531938092519, -0.015432640502656442, 1.7985020875930786, 0.5135291814804077, -0.000868076366717168, 2.1990420818328857, 0.3557993471622467, -8.921508212441938e-11, 0.00309517836068272, -0.0009511584693700043]
[7.049999999999983, 0.5223330072138158, 4.891048908233643, 0.4144454896450043, 0.06609069660759868, -0.19865029088063013, -0.21978705335868728, 0.3153184254717852, 0.0, 0.08488867435604554, -0.02553466040354278, 1.8210067749023438, 0.6277030110359192, -0.00775181611446833, 2.212073564529419, 0.434744268655777, -4.4426750487960855e-11, 0.0026263267924990503, -0.0007824096253025205]
[7.099999999999983, 0.5142408506428471, 4.9123077392578125, 0.3471011221408844, 0.34187235420487355, -0.12258523654056433, -0.8621299411835128, 0.18246066582640477, 0.0, 0.10139637498467771, -0.04585118196327103, 1.8617571592330933, 0.7374728322029114, -0.02149006154860434, 2.2369091510772705, 0.5095950365066528, -3.1555637714053195e-11, 0.0025786029161313983, -0.0006695417029001395]
[7.149999999999983, 0.5111062170936904, 4.924318790435791, 0.29731717705726624, 0.4618822784339805, -0.07580108648958515, -1.3744987986774617, 0.0703949326472553, 0.0, 0.10239740240333131, -0.05155641059664543, 1.8915852308273315, 0.7670892477035522, -0.02616706520955535, 2.2556474208831787, 0.5329583883285522, -1.3811735523772481e-11, 0.0017705866461532613, -0.0004908378842342577]
[7.199999999999982, 0.51271211740091, 4.939416408538818, 0.255530446767807, 0.4971899776565575, 0.0010419753749833862, -1.1807752180867357, -0.10005759360514457, 0.0, 0.09662580183810934, -0.06114607642502189, 1.9366676807403564, 0.7375025749206543, -0.03587572344205597, 2.2850818634033203, 0.535094678401947, -1.0026460442572411e-11, 0.001779600089790961, -0.00042817928573834644]
[7.249999999999982, 0.5190195187376345, 4.947897911071777, 0.20518045127391815, 0.3673951639031539, 0.10698753344073801, -0.6246271129911206, -0.28304510558104, 0.0, 0.08763658976520343, -0.06026359292828777, 1.964339256286621, 0.6561267971992493, -0.0396611189878563, 2.3042397499084473, 0.4988842308521271, -4.473258765652916e-12, 0.0021907981608217655, -0.0003583692928334024]
[7.299999999999982, 0.5414802497883962, 4.955441951751709, 0.09234891831874847, 0.12780099716620408, 0.2562359743863702, -0.1584860495039612, -0.5301777886911825, 0.0, 0.05608745024890135, -0.04663080100665794, 1.9972366094589233, 0.4311116933822632, -0.03796725524438868, 2.3287248611450195, 0.36991146206855774, -1.634248095489213e-12, 0.0028458679746152732, -0.00034155474652522693]
[7.349999999999982, 0.5569491556693379, 4.957525253295898, 0.04090946167707443, 0.07966458308430212, 0.316101098467607, -0.0828682409645242, -0.6176436842003312, 0.0, 0.03819157395804671, -0.03614079060238626, 2.0094363689422607, 0.19329608976840973, -0.03485716768638906, 2.3395321369171143, 0.22780470550060272, -5.523400054806131e-13, 0.002917071998378452, -0.0002958522576445929]
[7.399999999999982, 0.5792931750092579, 4.957196235656738, -0.01117507740855217, 0.02379361624877191, 0.33649724661533476, 0.003225985060237392, -0.6427795646429263, 0.0, 0.03417938358262666, 0.0020717642974392657, 2.0123085975646973, -0.008755438029766083, -0.015283441761804408, 2.3440608978271484, 0.09994007647037506, -2.589497776031077e-13, 0.0018622208102457324, -0.0002364122144521215]
[7.4499999999999815, 0.5741919955664487, 4.953264236450195, -0.06422271579504013, 0.00829932958208472, 0.27713278510043143, 0.03336978143337105, -0.5033586143823322, 0.0, 0.10092317650471806, 0.019860103519227436, 1.9900503158569336, -0.42157816886901855, -0.004940395672643695, 2.3428001403808594, -0.18946219980716705, -1.8582854221884882e-13, 0.0010072276330696313, -0.00017119494625660034]
[7.499999999999981, 0.5750296575178071, 4.95045280456543, -0.08250831067562103, -0.030419328433289712, 0.24464144472588661, 0.09217423369195517, -0.4535650069088731, 0.0, 0.11573184451331067, 0.05571080149819991, 1.9700134992599487, -0.555590808391571, 0.018417412680758864, 2.3370509147644043, -0.2911582291126251, -8.968145004239717e-14, 0.00011621305803028734, -5.696453037661911e-05]
[7.549999999999981, 0.5509250195272102, 4.944132328033447, -0.0838741883635521, -0.06914129193475575, 0.11367067817970954, 0.17490473436989706, -0.2290151253404358, 0.0, 0.13992287540978354, 0.06702502258470172, 1.9166841506958008, -0.7427632808685303, 0.02667363959871014, 2.316115379333496, -0.4314844012260437, -8.811713143253197e-14, 3.032038097891138e-05, -2.8196198540258553e-05]
[7.599999999999981, 0.5112104455976634, 4.939212322235107, -0.08109209686517715, -0.484268236526588, 0.0662247354799999, 1.4446729667989828, -0.10910961327779099, 0.0, 0.12481978346365115, 0.08847577873784102, 1.8638412952423096, -0.8158872127532959, 0.04691515771347209, 2.2911791801452637, -0.4972579777240753, -1.0500310779577825e-13, 2.201479875516741e-05, -2.3521959026748586e-05]
[7.649999999999981, 0.47488902224031687, 4.9356231689453125, -0.10133884102106094, 0.15625166279224545, 0.03727849916412977, -0.27948542960521555, -0.03997223648013702, 0.0, 0.10970688829900457, 0.09339136939676376, 1.8276243209838867, -0.8298361897468567, 0.05333294962666558, 2.2726399898529053, -0.5201920866966248, -7.94349360159799e-14, 2.045003800128675e-05, -2.061150597762562e-05]
