time, uz, alt, vel_alt, uthe, roll, uphi, pitch, upsi, yaw, ux, pos_x, vel_x, uy, pos_y, vel_y, Fz, Fx, Fy
[0.0, 0.5024368350887154, 2.958678960800171, 0.018166448920965195, -0.3391359130935243, -0.06578248575247213, 0.9159333284461828, 0.01966063725396435, 0.0, 0.05977102788884436, -0.0912812038082583, 1.4098175764083862, -0.49376675486564636, -0.040599592473491035, 0.26768022775650024, -0.12081806361675262, -1.339213144979531e-09, 0.00014829821421514914, 0.9025857189138801]
[0.05, 0.5029438916977846, 2.959671974182129, 0.01765352487564087, -0.3623483476045116, -0.06415655620046805, 0.9485321157282494, 0.01833134609763594, 0.0, 0.05913884233880029, -0.09116551809295145, 1.4023325443267822, -0.48841461539268494, -0.04253170773859884, 0.26168134808540344, -0.1112963855266571, -5.650027414284595e-09, 0.00033758862940583864, 1.9929192262497117]
[0.1, 0.5208812771865721, 2.962939977645874, 0.04481115937232971, 0.31737779959580836, -0.060532257904326765, -0.7332703196845282, 0.028095402013414005, 0.0, 0.05790922958389682, -0.09084603620938718, 1.3750349283218384, -0.47014209628105164, -0.04458558322711548, 0.24355864524841309, -0.07521963864564896, -2.466242039082992e-07, 0.000714941543947035, 3.4172327242668525]
[0.15000000000000002, 0.5746232583702376, 2.965634822845459, 0.10165304690599442, 0.07736564986547131, -0.05913171841269716, -0.15059052873746173, 0.05244857362128544, 0.0, 0.05615075468193676, -0.09088096362184458, 1.3664085865020752, -0.4569058120250702, -0.046960621102532296, 0.23522081971168518, -0.06063396856188774, -4.3207612223262605e-06, 0.0011878890889444914, 5.0011568877901205]
[0.2, 0.5990209632248256, 2.981858253479004, 0.2439965456724167, 0.05951478758429246, -0.09626910644669331, -0.11366072648244173, 0.22583178351682362, 0.0, 0.046818556475009654, -0.09418127857574674, 1.3530715703964233, -0.31795117259025574, -0.04947977533619761, 0.21004532277584076, -0.010186586529016495, -0.00010399340452285592, 0.0049146307394247486, 7.061851379088158]
[0.25, 0.6250813492843346, 2.9912960529327393, 0.32323986291885376, 0.05337803826625496, -0.14138963851122152, -0.1052305066013832, 0.253355135946874, 0.0, 0.047252665717740686, -0.11265224054563991, 1.351539134979248, -0.2147054225206375, -0.057302733785686594, 0.2020646035671234, 0.031422656029462814, -0.0005112347330147775, 0.01992486525528936, 9.845948643264872]
[0.3, 0.6332737869397995, 3.022806406021118, 0.47364938259124756, 0.059632212142981714, -0.11981835053089317, -0.10729844619672542, 0.12880017259721077, 0.0, 0.06834313112820958, -0.1230612603433875, 1.3552968502044678, -0.04550521448254585, -0.06860530716760609, 0.19208011031150818, 0.14914445579051971, -0.001952512512266483, 0.08422041763343942, 13.430072305934162]
[0.35, 0.645927206772908, 3.0627243518829346, 0.631813645362854, 0.061808151977469084, -0.027291641747417668, -0.10335556064353069, 0.026693672957039317, 0.0, 0.07233403205175556, -0.13067020204730093, 1.3636466264724731, -0.015461433678865433, -0.07838184763430357, 0.18968512117862701, 0.1739259958267212, -0.003296928854442962, 0.15157536484062903, 17.729809719461205]
[0.39999999999999997, 0.6687421384188273, 3.0846476554870605, 0.698284387588501, 0.053276268853399804, -0.0048524769752895, -0.0900487885231717, -0.011190535153970449, 0.0, 0.06710452784792376, -0.13284102524649136, 1.3667367696762085, -0.0230083204805851, -0.07877463607984464, 0.19002768397331238, 0.16848687827587128, -0.002967053367597108, 0.2086437774800484, 21.739785593756096]
[0.44999999999999996, 0.726231366688618, 3.1379127502441406, 0.8484606146812439, 0.04404615794784814, 0.016262484230297584, -0.06440973224327669, -0.048051486117668636, 0.0, 0.056129964442996935, -0.1292579808624458, 1.3713575601577759, -0.06275990605354309, -0.08851058558283385, 0.1901874840259552, 0.14025349915027618, -0.002635602750018988, 0.2515918740999647, 26.474156386237716]
[0.49999999999999994, 0.769562464090752, 3.1665682792663574, 0.9355891346931458, 0.03835761575243494, 0.027634301498200054, -0.052647295694778, -0.061070862326293815, 0.0, 0.048439638987873804, -0.1267667894255422, 1.3716577291488647, -0.08902117609977722, -0.0924474077306315, 0.1905059814453125, 0.12124355137348175, -0.0006206304270376766, 0.248507820447531, 31.37772295694795]
[0.5499999999999999, 0.8543636410073208, 3.1944820880889893, 1.026997685432434, 0.02956210904944696, 0.03281720862014916, -0.0382638269362083, -0.06638949774365545, 0.0, 0.04127918897771735, -0.12218101969238007, 1.3741283416748047, -0.1124168336391449, -0.09444593634791841, 0.18540354073047638, 0.09930343925952911, -0.00022019290012923254, 0.2549487004765326, 35.731061439590356]
[0.6, 0.886613147542969, 3.282747745513916, 1.4034953117370605, 0.02728638912310303, 0.034998935750336385, -0.034004025354284255, -0.061559764545387634, 0.0, 0.03175657922756781, -0.11873513941835655, 1.3772175312042236, -0.18014457821846008, -0.09532054207349122, 0.16887417435646057, 0.0362788662314415, -3.6456300232081364e-07, 0.21110351380003942, 39.32809553170502]
[0.65, 0.8420962010631998, 3.3463938236236572, 1.7359530925750732, 0.03014724682539666, 0.03410875236408047, -0.03645817359986908, -0.054143115294621645, 0.0, 0.02661509823388593, -0.11226317538667878, 1.3759077787399292, -0.2179766446352005, -0.09287907542107626, 0.1591484397649765, -0.0021193150896579027, -7.26629920028895e-11, 0.19102996934612437, 41.7729833294265]
[0.7000000000000001, 0.819857077829067, 3.468217611312866, 2.296888589859009, 0.0320633829015925, 0.03058791355956832, -0.03825032759797524, -0.04225058643021787, 0.0, 0.020374700582265634, -0.1098991873353057, 1.3700517416000366, -0.265593945980072, -0.09217718329422453, 0.14393778145313263, -0.054139282554388046, -6.786323413951125e-20, 0.16429614790607353, 42.97196369760015]
[0.7500000000000001, 0.7272481887650273, 3.644542694091797, 2.854994773864746, 0.04386042276677366, 0.02856090515532616, -0.05259609236152664, -0.034328821475279034, 0.0, 0.015587663189582452, -0.10599768919856051, 1.359071135520935, -0.30440226197242737, -0.0884900824269976, 0.12551099061965942, -0.10384634882211685, -5.573888114346588e-25, 0.14669297248818858, 43.00059373590607]
[0.8000000000000002, 0.6302429079217133, 3.739412784576416, 3.0768210887908936, 0.0773573726511124, 0.028449415124978807, -0.09316448723250453, -0.03140308340751012, 0.0, 0.013062662492630961, -0.10412498421307927, 1.3522108793258667, -0.31962984800338745, -0.08675653603719242, 0.11707862466573715, -0.12485625594854355, -1.4771543513185126e-38, 0.1433123209727542, 43.70531109021672]
[0.8500000000000002, 0.5412695278913542, 3.827741861343384, 3.2414138317108154, 0.26556917475847847, 0.02889851936329763, -0.33852581354694017, -0.030154958640437088, 0.0, 0.010695916332312379, -0.10203462737179378, 1.345953106880188, -0.33142518997192383, -0.08356831188323827, 0.1089724525809288, -0.14267350733280182, -1.7613834026539876e-43, 0.1415238020477787, 44.0464747977528]
[0.9000000000000002, 0.4827062999970655, 4.068289279937744, 3.419886350631714, -0.28529173914976497, 0.035629813643111324, 0.3784864733889617, -0.03667608330154455, 0.0, 0.00783259267579483, -0.10059097937838479, 1.3267844915390015, -0.35868266224861145, -0.07984144572954521, 0.08860486000776291, -0.18212541937828064, -8.5445333000238e-50, 0.13502571330710844, 42.637419894746394]
[0.9500000000000003, 0.49329916054903045, 4.2998881340026855, 3.3854973316192627, -0.3771905344577201, 0.07638838640412501, 0.5648645952678802, -0.08071492834128692, 0.0, 0.0060085767298663825, -0.0980935059845356, 1.3099499940872192, -0.39921602606773376, -0.07259572367391572, 0.05604205280542374, -0.2396974116563797, -7.912023969047857e-50, 0.11733911781588596, 39.19553498945222]
[1.0000000000000002, 0.4885639998415806, 4.408046722412109, 3.404852867126465, -0.28584233730243114, 0.13441502899411994, 0.44534748095403437, -0.1279408673695087, 0.0, 0.005043406833316391, -0.09483055095166976, 1.29990816116333, -0.44463658332824707, -0.064697398427615, 0.04004770517349243, -0.29251712560653687, -5.952563601513787e-51, 0.09483733193094815, 35.199336070308526]
[1.0500000000000003, 0.481178535454017, 4.503050327301025, 3.414870262145996, -0.1735733291456976, 0.18904310816223807, 0.3114094936183187, -0.08877513256833128, 0.0, 0.01512485923824976, -0.08598034951800579, 1.2900127172470093, -0.48240435123443604, -0.04920224095076986, 0.024178460240364075, -0.35161325335502625, -9.579015020656935e-52, 0.078694317136962, 29.815837166614013]
[1.1000000000000003, 0.46875971091940943, 4.74582576751709, 3.3575329780578613, -0.08154955371239278, 0.1619674329920667, 0.20866345208303308, 0.10008054207992387, 0.0, 0.0605753584012583, -0.0809323346239246, 1.2608778476715088, -0.46668416261672974, -0.03193137707036986, -0.02066514641046524, -0.5008218884468079, -5.806091099237487e-52, 0.07645880772838372, 21.714513467970033]
[1.1500000000000004, 0.4525703845355446, 4.968619346618652, 3.244797945022583, -0.033024217311068686, -0.002735270160172326, 0.15699093679763768, 0.25230071397090476, 0.0, 0.08116728404432305, -0.08425294148801252, 1.2386693954467773, -0.3164539933204651, -0.017802719992459637, -0.06719215959310532, -0.5216437578201294, -1.4341134039470768e-50, 0.1380669611542062, 15.431507226885179]
[1.2000000000000004, 0.44906877565136954, 5.070333957672119, 3.1667163372039795, -0.030573713697482924, -0.07199831921937287, 0.15619604139925228, 0.2924626680344696, 0.0, 0.08078197863137956, -0.088929951335433, 1.2316027879714966, -0.23514990508556366, -0.017483522693285646, -0.0875585749745369, -0.4992336332798004, -9.822331888064698e-48, 0.37474845083343056, 16.224290976891222]
[1.2500000000000004, 0.44650462344951247, 5.275301456451416, 2.932285785675049, -0.042184637394017635, -0.08944004643162774, 0.1636272675087245, 0.2797020197187732, 0.0, 0.0798623878359034, -0.09715924250713173, 1.2240831851959229, -0.09338676184415817, -0.025175620059736087, -0.1275261640548706, -0.4466787278652191, -7.103429811044329e-46, 0.6998053873572307, 18.63437343693526]
[1.3000000000000005, 0.4465869875760957, 5.365768909454346, 2.8086202144622803, -0.04982763401433256, -0.07232283684221671, 0.1708208086885467, 0.2447572057071523, 0.0, 0.07906566071263817, -0.10138142323579263, 1.2231099605560303, -0.042106952518224716, -0.029741417558893896, -0.14432625472545624, -0.4284125566482544, -2.3293128193370702e-40, 0.8962651195851843, 18.99638751338456]
[1.3500000000000005, 0.44062823509213017, 5.4406819343566895, 2.541379928588867, -0.05863877600464192, -0.051858097293925445, 0.16469929186423746, 0.20643436523392586, 0.0, 0.0756329472942088, -0.10685932250510746, 1.223662257194519, 0.04367860034108162, -0.038262114663899956, -0.16165435314178467, -0.4080592691898346, -2.6921304893578503e-38, 1.1031038808062301, 19.399215718091547]
[1.4000000000000006, 0.44132325158610036, 5.637557029724121, 2.3839874267578125, -0.0634039686661481, -0.037454435613720846, 0.1709618588290651, 0.172283586612525, 0.0, 0.0668628698353034, -0.10988926195518178, 1.2296425104141235, 0.08461055159568787, -0.041008381907251784, -0.21009060740470886, -0.4016319215297699, -4.8039919991028536e-33, 1.471413848708096, 20.044748548773246]
[1.4500000000000006, 0.4196757448151753, 5.683036804199219, 2.3050763607025146, -0.052259668193217854, -0.036472858920178756, 0.13659554749013195, 0.1617495794938128, 0.0, 0.059509695007911534, -0.11506410154581401, 1.2320064306259155, 0.10359324514865875, -0.0441994584119628, -0.22143283486366272, -0.39898133277893066, -7.039458083887286e-32, 1.716314005408036, 20.397009304792697]
[1.5000000000000007, 0.39960977434713263, 5.8343682289123535, 2.0184731483459473, -0.04403638166850186, -0.0415347763426666, 0.11525999488621667, 0.15605816864390448, 0.0, 0.04873724749170658, -0.11844709326163093, 1.2430174350738525, 0.16692116856575012, -0.04538374297033876, -0.2599087953567505, -0.3880559206008911, -3.8712342051996124e-28, 2.0450379571334505, 20.995185595861376]
[1.5500000000000007, 0.3585252681603502, 5.887777328491211, 1.7310535907745361, -0.03422870209650902, -0.04680642737900129, 0.0874096845798625, 0.15478693949074482, 0.0, 0.04130258374968867, -0.12302512514562532, 1.248389482498169, 0.22034457325935364, -0.04825557809952142, -0.27439168095588684, -0.3748263120651245, -7.530818550817747e-27, 2.3313619119040627, 21.72834169748666]
[1.6000000000000008, 0.3342586341444974, 6.009657859802246, 1.5837805271148682, -0.031255359224782404, -0.05086820417500194, 0.07702053223826719, 0.14667945954472691, 0.0, 0.03141172614241151, -0.12569745860866313, 1.2645291090011597, 0.24237994849681854, -0.05107582592739953, -0.3087047040462494, -0.36915409564971924, -8.131094607557146e-24, 2.567574231541194, 22.859690127514735]
[1.6500000000000008, 0.30553409547809907, 6.0506486892700195, 1.4439754486083984, -0.028871847967522495, -0.050072721066183976, 0.06802726135724357, 0.13426122654379707, 0.0, 0.025273098460256473, -0.12911020313438498, 1.2716573476791382, 0.2591207027435303, -0.0548539457343932, -0.3216172158718109, -0.36509034037590027, -9.434562731831016e-23, 2.813483449188097, 24.00093710650166]
[1.7000000000000008, 0.2864329738307215, 6.137524604797363, 1.0434386730194092, -0.027483101064103784, -0.045589703981979174, 0.06311637554489691, 0.11251320843673264, 0.0, 0.01865982505768767, -0.13095227859094036, 1.2914685010910034, 0.28833505511283875, -0.05707349820389412, -0.35269004106521606, -0.3569864332675934, -1.2043183044830212e-20, 2.912657662474063, 25.12649072661064]
[1.7500000000000009, 0.2596785180394795, 6.163963794708252, 0.8742705583572388, -0.025843520094480953, -0.04170971469711448, 0.057362374893864684, 0.09620059710803873, 0.0, 0.014537312502238086, -0.13322568939521412, 1.299787163734436, 0.2959626019001007, -0.06006858731943861, -0.36589500308036804, -0.3562886118888855, -3.3590717221546993e-20, 3.093939698184518, 26.323846088235523]
[1.800000000000001, 0.2641977066094885, 6.212084770202637, 0.41784682869911194, -0.026397428019996023, -0.03653004452657502, 0.058960834278583736, 0.07436145453157195, 0.0, 0.008233971147174737, -0.13447428442343698, 1.3225311040878296, 0.3081948161125183, -0.0602545415192776, -0.40377241373062134, -0.35947027802467346, -2.3045788956880014e-20, 3.087350537922263, 26.64551246463588]
[1.850000000000001, 0.26782547626012504, 6.22172737121582, 0.229794442653656, -0.02729067109064153, -0.03405892463537195, 0.06056675658532707, 0.06418165996532693, 0.0, 0.0046735963869335454, -0.13610694849696583, 1.3314651250839233, 0.3104795813560486, -0.061380947376652374, -0.4182536005973816, -0.36169490218162537, -5.243967287984576e-21, 3.2108261978311194, 27.573390151425013]
[1.900000000000001, 0.2789994162790249, 6.221164703369141, -0.268969863653183, -0.028746201761067996, -0.03150950851712255, 0.06391787077845748, 0.0541394061476487, 0.0, 0.00034137402325372065, -0.1370292883175593, 1.354276418685913, 0.31193244457244873, -0.06168605248401928, -0.4530806839466095, -0.3673204779624939, -1.4310067629689278e-22, 3.272114451525746, 28.10113686095047]
[1.950000000000001, 0.3025897459686446, 6.211105823516846, -0.4626104235649109, -0.032207603265552644, -0.030422506669231325, 0.071785373406086, 0.049967991869035444, 0.0, -0.0023192127208776056, -0.13822898020891877, 1.363101601600647, 0.3123517632484436, -0.062093310399239765, -0.466465026140213, -0.36897116899490356, -2.6359978926240806e-26, 3.2365128949139024, 28.54487624604057]
[2.000000000000001, 0.32080234198669033, 6.160126209259033, -0.9513692855834961, -0.03516292814894384, -0.029876844911534656, 0.07904125524460531, 0.047765335451935696, 0.0, -0.005702104655350494, -0.1388869215489845, 1.385609745979309, 0.3122336268424988, -0.06187623848785452, -0.49919378757476807, -0.37320706248283386, -7.947212481347573e-33, 3.133984500310858, 28.588983468905013]
[2.0500000000000007, 0.35562155060280387, 6.130682468414307, -1.1323219537734985, -0.043548564761816705, -0.03034759813121469, 0.0977140941427543, 0.048880534566646226, 0.0, -0.007422852336172054, -0.14025398788901575, 1.3943116664886475, 0.3127685785293579, -0.06264664968975954, -0.5117798447608948, -0.3745598793029785, -8.16798250210755e-36, 3.1810625449062195, 29.37009772786074]
[2.1000000000000005, 0.3420151697627213, 6.019047260284424, -1.6327784061431885, -0.03970789503191188, -0.032190102657582625, 0.09064236039506122, 0.05436101422968712, 0.0, -0.009389713621641866, -0.1415073424859115, 1.4191054105758667, 0.31439653038978577, -0.062108040925677406, -0.5464078783988953, -0.3769405484199524, -1.0640746129119716e-45, 3.019461436397732, 29.245906349833593]
[2.1500000000000004, 0.389239160643089, 5.985440254211426, -1.7468911409378052, -0.05629242858292238, -0.03375979895386906, 0.12677135257571803, 0.059095065633006254, 0.0, -0.010039367166362903, -0.14264893970164008, 1.4256336688995361, 0.31579822301864624, -0.06357997677546103, -0.5552629232406616, -0.376891553401947, -2.837365391690852e-48, 3.064456048333107, 30.139793001824206]
[2.2, 0.43298037199609796, 5.847041130065918, -2.1543757915496826, -0.08662928302299311, -0.03811665019190358, 0.19866725655835765, 0.07018969136332928, 0.0, -0.010763079266040023, -0.1437078934376716, 1.4501712322235107, 0.32303017377853394, -0.0632365208978616, -0.5874888300895691, -0.37627625465393066, -1.7278316488982817e-58, 2.8825078373431854, 30.104714410644053]
[2.25, 0.4695642752260497, 5.785145282745361, -2.3007147312164307, -0.15755214001207077, -0.04140699850016592, 0.3720777260909755, 0.07887947291651051, 0.0, -0.01088524315344073, -0.14625144454308575, 1.4597938060760498, 0.3276096284389496, -0.06391055903958, -0.5997717380523682, -0.3760327994823456, -1.6965182733401007e-62, 2.8689106798989057, 30.755516147258056]
[2.3, 0.5197757463420214, 5.607875823974609, -2.6221797466278076, 0.3540661230054468, -0.05010853038029977, -1.0213493233989284, 0.09867074751667629, 0.0, -0.010900322152916015, -0.14795854569647723, 1.4848544597625732, 0.34613046050071716, -0.06413112271183745, -0.6298959255218506, -0.3684159815311432, -2.5297422744442623e-71, 2.6609042403500642, 30.983670815617003]
[2.3499999999999996, 0.5511987992829169, 5.53322172164917, -2.7121989727020264, 0.16005607526388044, -0.0641390577161532, -0.37938393558361216, 0.12849050136593607, 0.0, -0.011311863606780602, -0.15223525604508845, 1.4950062036514282, 0.3595675230026245, -0.06636024457351239, -0.641230583190918, -0.3622041642665863, -2.015115823275547e-73, 2.6165275117012654, 31.958470493042178]
[2.3999999999999995, 0.5918162185393586, 5.332663536071777, -2.7671403884887695, 0.0894745868659259, -0.10523695623440706, -0.20338984567547821, 0.185500513334856, 0.0, -0.0119214775080231, -0.15638738889043266, 1.5238487720489502, 0.4497729241847992, -0.06945950619156989, -0.668018102645874, -0.31600433588027954, -2.298765789147859e-75, 2.4785306656830928, 33.302141309041104]
[2.4499999999999993, 0.5783769159240871, 5.222741603851318, -2.7233846187591553, 0.1267383301352173, -0.1258604656609923, -0.25709999873150147, 0.11664178258797897, 0.0, -0.0005118757877132402, -0.16661611716983535, 1.543178677558899, 0.5018282532691956, -0.08349338410498006, -0.6804966330528259, -0.26869162917137146, -6.0943590009194935e-71, 1.938099002220422, 37.02258763910634]
[2.499999999999999, 0.542195190983082, 5.061439037322998, -2.645334005355835, 0.25883240060017143, -0.05138859646089044, -0.5228978675158683, -0.05341849965013178, 0.0, 0.022731914113307737, -0.17199393619078593, 1.573312520980835, 0.481978178024292, -0.0911889809911989, -0.6957164406776428, -0.22253943979740143, -3.2041497123017006e-67, 1.7952104308028476, 39.43175351078736]
[2.549999999999999, 0.5308517003532726, 4.987138271331787, -2.633326292037964, 0.3656365459321202, 0.016895490026826557, -0.7329030315793694, -0.11380672566992453, 0.0, 0.026133357476525117, -0.17395896229016705, 1.587572455406189, 0.4480491280555725, -0.09954782415907384, -0.7020392417907715, -0.2233208268880844, -3.1024068248235596e-66, 1.8031499819747945, 41.650991335320484]
[2.5999999999999988, 0.5230470181314092, 4.79585075378418, -2.663388967514038, 0.4391797099853586, 0.07443794514394564, -0.9665692914006908, -0.1777928305566936, 0.0, 0.023561719445576446, -0.17515457028684617, 1.6197984218597412, 0.3409361243247986, -0.09998755533701482, -0.7191042304039001, -0.2626519501209259, -1.3435289520728752e-65, 1.7806028032064434, 43.22875906235281]
[2.6499999999999986, 0.5589706442846941, 4.72052001953125, -2.6971867084503174, 0.20975829332765455, 0.13201519591234478, -0.3620865265300721, -0.2667961268783159, 0.0, 0.017239898317319077, -0.17191618331158276, 1.629884123802185, 0.28626132011413574, -0.1033215294313177, -0.7266702651977539, -0.2902752757072449, -7.233846599961042e-66, 1.6704712846290888, 43.35511277434673]
[2.6999999999999984, 0.6169864085330807, 4.52051305770874, -2.856271982192993, 0.09904024657587329, 0.2510413768372427, -0.164637976993288, -0.4559626803177097, 0.0, -0.008191212732435069, -0.16473793202668485, 1.6462557315826416, 0.08348247408866882, -0.0998762675004361, -0.7506000995635986, -0.40003103017807007, -4.5576603047429096e-69, 1.2480992975836962, 38.744677491700436]
[2.7499999999999982, 0.7276557019204994, 4.32295560836792, -2.925384759902954, 0.0467708136508113, 0.3731076006531183, -0.07342921961146495, -0.5981456100201215, 0.0, -0.03650067907735291, -0.14839064426072415, 1.6416975259780884, -0.2908226549625397, -0.09467159942414782, -0.7839338183403015, -0.6214024424552917, -2.417597637131648e-69, 0.8664479041891835, 34.404398060107454]
[2.799999999999998, 0.8056674832578975, 4.228140830993652, -2.9738240242004395, 0.024335846767781583, 0.40548655671540124, -0.04723626908095297, -0.567797008767716, 0.0, -0.006423944734046925, -0.12953536541153834, 1.630395531654358, -0.4570874869823456, -0.06677386144127044, -0.8052863478660583, -0.7418936491012573, -1.4402856872639886e-70, 0.1327044605199989, 14.23125902141722]
[2.849999999999998, 0.9322992668551364, 4.144664287567139, -2.9560739994049072, 0.011487193785801209, 0.3501088661863428, -0.02613119465323479, -0.49026376714319997, 0.0, 0.04091652597210652, -0.10229737378476707, 1.6161531209945679, -0.606415331363678, -0.044976711319422824, -0.8273069262504578, -0.8671852350234985, -2.1725600642026712e-69, 0.04870608268824787, 7.637100862002478]
[2.8999999999999977, 0.9739357420461904, 3.9399819374084473, -2.6687705516815186, 0.006294124700388996, 0.18872674984537627, -0.019640115563054596, -0.32112822074066316, 0.0, 0.09511009548265162, -0.08445857351170673, 1.5609066486358643, -0.9443712830543518, -0.02706878121648361, -0.8990664482116699, -1.1380252838134766, -3.533471020644847e-59, 0.002934313284293562, 1.2048831180148272]
[2.9499999999999975, 0.96193934051041, 3.867814064025879, -2.4547958374023438, 0.003376351152913494, 0.14294982863708702, -0.014519624037933507, -0.24432218040517856, 0.0, 0.10045243588421757, -0.06082079107442335, 1.5343681573867798, -1.0465847253799438, -0.014143640595518375, -0.9306061863899231, -1.2140023708343506, -9.849311171171103e-53, 0.0011092660708779223, 0.6264846502173229]
[2.9999999999999973, 0.8989624703069365, 3.7172434329986572, -1.6821860074996948, 0.002270426917389865, 0.0891885283445673, -0.013128726493700924, -0.15079478188592985, 0.0, 0.08779600157452903, -0.04733052032899852, 1.4552464485168457, -1.234226107597351, -0.008185390957687855, -1.019845724105835, -1.3631279468536377, -2.7070133148986346e-33, 0.0001774252652793885, 0.14057671377515502]
[3.049999999999997, 0.7588129815254738, 3.674241781234741, -1.3635092973709106, -0.0006938171570792561, 0.06807372686118975, -0.014723379025266402, -0.11503653952195532, 0.0, 0.0761964864639624, -0.03395454664712557, 1.4213624000549316, -1.277922511100769, 0.0016001151595168852, -1.0568922758102417, -1.3977241516113281, -6.406964444137454e-26, 0.00012044792780666921, 0.09273077362244282]
[3.099999999999997, 0.665559428162402, 3.6051082611083984, -0.5452655553817749, -0.0036661118067497314, 0.04384213777361661, -0.018611306443130474, -0.07330739682778016, 0.0, 0.05688776707413506, -0.02683548019372969, 1.3289916515350342, -1.347475290298462, 0.00528646345684793, -1.1560810804367065, -1.448899507522583, -7.2290782437772365e-12, 7.563375979319041e-05, 0.04337128748629491]
[3.149999999999997, 0.569525823502844, 3.5926055908203125, -0.3092564344406128, -0.019055935150679534, 0.03331697849782501, -0.034941592878984254, -0.05898762996559493, 0.0, 0.04848712690412562, -0.01928461320538878, 1.2918930053710938, -1.3605053424835205, 0.010520574318292703, -1.195331335067749, -1.4559338092803955, -3.4427535093520943e-09, 7.5472787616247e-05, 0.03617404210272733]
[3.1999999999999966, 0.5600096951902105, 3.582629680633545, 0.013224472291767597, -0.02901329751016353, 0.019422976004841254, -0.03294776658076665, -0.04318128706872328, 0.0, 0.03692906984357028, -0.015276483778697949, 1.1947753429412842, -1.3736915588378906, 0.013458447815355976, -1.297218918800354, -1.4566926956176758, -1.5563683143976405e-06, 9.704087446260127e-05, 0.026262639584822115]
[3.2499999999999964, 0.6579141006020615, 3.582270622253418, 0.02997429296374321, -0.013360996147917291, 0.011877810845976739, -0.0074816237102108924, -0.0391381302577817, 0.0, 0.03135464524528783, -0.010256509036373488, 1.156708002090454, -1.3747378587722778, 0.01831776317410123, -1.336760401725769, -1.4535738229751587, -1.9887807785295996e-06, 0.0001122062915537011, 0.023752486184720728]
[3.2999999999999963, 0.7364369436853061, 3.580836057662964, 0.005142520181834698, -0.00987795720195688, -0.0006965291692062393, -0.0032216393214925926, -0.04044898297972693, 0.0, 0.024620772721247432, -0.006761012352624467, 1.0581881999969482, -1.3776887655258179, 0.020730836624422683, -1.4383490085601807, -1.4387080669403076, -1.4021443480105443e-06, 0.00015956870609519375, 0.01911050625740852]
[3.349999999999996, 0.856981577132377, 3.581887722015381, 0.04894527047872543, -0.007180923942973916, -0.007200824785522767, -0.00029889435601348124, -0.03916921788174958, 0.0, 0.020287693995096064, -0.0009611920478255212, 1.017726182937622, -1.381790280342102, 0.023092994551547973, -1.4753639698028564, -1.4271970987319946, -2.6033904458979933e-06, 0.00017607831068224662, 0.01856132279971607]
[3.399999999999996, 0.9140740648209994, 3.5938169956207275, 0.284748375415802, -0.006052781539575613, -0.008063177229064059, 0.0010325892584435786, -0.02950614239777793, 0.0, 0.014482391955728815, 0.0038670052253727883, 0.9119606018066406, -1.3878138065338135, 0.022667704172679666, -1.56825852394104, -1.3908411264419556, -3.0370798894749713e-05, 0.000236663865582542, 0.018007807186361476]
[3.4499999999999957, 0.9087521224837023, 3.6331546306610107, 0.8667163252830505, -0.005508964409734341, -0.0073535722694181875, 0.002879608595427945, -0.021524950992474017, 0.0, 0.010018393385277158, 0.010642010779739211, 0.8123846054077148, -1.385166049003601, 0.020359410246476303, -1.6541948318481445, -1.3491514921188354, -8.561822523328317e-05, 0.00027084195536399415, 0.018172065153946003]
[3.4999999999999956, 0.8175953037733844, 3.666687488555908, 1.2083616256713867, -0.006567963853750206, -0.006573351525667729, 0.005158823312414373, -0.01761795220141493, 0.0, 0.007898766577941696, 0.014706869274975703, 0.7660755515098572, -1.3800747394561768, 0.0187244255903395, -1.6942920684814453, -1.3293904066085815, -5.574380717665648e-07, 0.0004128174465492142, 0.0179238554803579]
[3.5499999999999954, 0.6261228051737096, 3.7049474716186523, 1.5068037509918213, -0.013952801602515696, -0.005982833974846341, 0.018912429958176567, -0.014786908991090046, 0.0, 0.006439642849623472, 0.020356478932001223, 0.7255544066429138, -1.3744995594024658, 0.01502003071073797, -1.7286994457244873, -1.3127142190933228, -1.3999426038801314e-09, 0.0004963402966409822, 0.017584588486886175]
[3.599999999999995, 0.4963021635242614, 3.8387231826782227, 2.138921022415161, 0.10532018082925688, -0.00504674860686708, -0.18583654400475208, -0.01076366045455261, 0.0, 0.004532910985353954, 0.023867629653252388, 0.6230769753456116, -1.3559467792510986, 0.0136553344884923, -1.816408395767212, -1.2745743989944458, -1.6808003363071972e-18, 0.0008140146362620313, 0.015616639513681892]
[3.649999999999995, 0.3848097829215219, 3.8997442722320557, 2.2197704315185547, 0.012296789074266512, -0.005474470166331076, -0.025600416667898192, -0.007421646141375404, 0.0, 0.003494855424253383, 0.029709705179527368, 0.5835960507392883, -1.3484355211257935, 0.014272904564584878, -1.849882960319519, -1.2633368968963623, -3.872397845227506e-20, 0.0009756628722286942, 0.014345775400017007]
[3.699999999999995, 0.39690556529837023, 4.077789306640625, 2.18220853805542, 0.013085956091767655, -1.8136215955775232e-05, -0.03350041872728021, -0.01084398773279401, 0.0, 0.002855421490812048, 0.03512691449518519, 0.4726685583591461, -1.3298853635787964, 0.013724649239486828, -1.9451600313186646, -1.2415226697921753, -2.9590722297197254e-20, 0.0015274048297053205, 0.010051738315450712]
[3.7499999999999947, 0.4085661805499254, 4.198446750640869, 1.943421721458435, 0.022716418851228073, 0.03412382120599006, -0.04819813827431025, -0.06115412980007474, 0.0, 0.004110434762078451, 0.04534564119213332, 0.38494059443473816, -1.3396902084350586, 0.0213839547251466, -2.013772487640381, -1.2412364482879639, -2.6039755887993003e-19, 0.0015804505993042592, 0.008881398558310624]
[3.7999999999999945, 0.4562886741179872, 4.2563934326171875, 1.7953482866287231, 0.04113392646650524, 0.04122533515022083, -0.11265554579336848, -0.07756458109257876, 0.0, 0.0056604764086041655, 0.05631799491311552, 0.33798378705978394, -1.3493794202804565, 0.020618583614071595, -2.0506768226623535, -1.2434483766555786, -2.998515082051933e-15, 0.0014710221147475524, 0.005228465358037063]
[3.8499999999999943, 0.5480795344511058, 4.302997589111328, 1.6654846668243408, -0.07580827756703722, 0.03740431592538296, 0.1890893982966995, -0.07651353014657487, 0.0, 0.0076674343413256525, 0.06754053466049205, 0.2964317798614502, -1.3578706979751587, 0.027292173247753817, -2.082878351211548, -1.2451359033584595, -7.009773763399324e-14, 0.001371279086959628, 0.00420715290384104]
[3.899999999999994, 0.6086475521617437, 4.40736722946167, 1.3816485404968262, -0.029884764749326942, 0.029677455694378723, 0.08280978483675412, -0.06864710264352038, 0.0, 0.009831898489121693, 0.0758836662147395, 0.1905582845211029, -1.3755102157592773, 0.027424724888132773, -2.1672232151031494, -1.2477680444717407, -1.493554762760201e-11, 0.0011975195058210168, 0.002369988633432778]
[3.949999999999994, 0.6396514945090943, 4.443731307983398, 1.3600367307662964, -0.026072109284062485, 0.02130588685458135, 0.07042140775710368, -0.05178267483951317, 0.0, 0.011231935918218125, 0.08475922966040768, 0.14909052848815918, -1.3856548070907593, 0.031413469324738194, -2.200122117996216, -1.2490246295928955, -1.480022480202317e-11, 0.0010409053405438557, 0.0018766420777536002]
[3.999999999999994, 0.6359292641889281, 4.537282466888428, 1.3745243549346924, -0.02868215532494085, -0.012548172316373365, 0.07751779975646997, 0.02985129917606058, 0.0, 0.013445972195714195, 0.09065363920808908, 0.04361747205257416, -1.369758129119873, 0.0335853392004376, -2.2854580879211426, -1.2333120107650757, -3.6609614422953266e-12, 0.0012084138286417498, 0.0011740506286055839]
[4.049999999999994, 0.5635540237708897, 4.574792861938477, 1.4105654954910278, -0.07283416475393314, -0.02093764775869692, 0.18405194641387013, 0.05496794860120353, 0.0, 0.013837461365643141, 0.0923977949858838, 0.0034439139999449253, -1.3431837558746338, 0.03683663721615659, -2.3181865215301514, -1.2193831205368042, -1.1331960508925971e-12, 0.001448363325632178, 0.0010367161573296535]
[4.099999999999993, 0.5150349587901836, 4.6766886711120605, 1.5043065547943115, -0.34922946098303653, -0.02091284177788225, 1.1035632083978884, 0.062030439262670406, 0.0, 0.013790426919299737, 0.09249737793643274, -0.09487652778625488, -1.2650306224822998, 0.037727099288751495, -2.4012651443481445, -1.182133436203003, -4.2496425326898855e-14, 0.0023232021530578155, 0.000746618459804283]
[4.149999999999993, 0.43386176346137795, 4.718236923217773, 1.518162727355957, 0.05981022482456178, -0.02319841078981085, -0.12834169447137814, 0.06649278778564263, 0.0, 0.012884473244827058, 0.0910647546737456, -0.1334814727306366, -1.2385735511779785, 0.04260584580612279, -2.4313573837280273, -1.1678695678710938, -1.821640130073723e-14, 0.0009751827454867318, 0.0006602435102384405]
[4.199999999999993, 0.3894203107822074, 4.8261237144470215, 1.5065770149230957, 0.04089507530860898, -0.047790963251168904, -0.08066427891494052, 0.13069856233075433, 0.0, 0.01033527472630814, 0.09034098447923314, -0.22925207018852234, -1.1569815874099731, 0.04587624361843955, -2.5066537857055664, -1.1267560720443726, -5.780727366458707e-15, -0.006631777330740232, 0.000492873479017131]
[4.249999999999993, 0.3345669243657099, 4.867485523223877, 1.47953462600708, 0.03221616921625737, -0.11083492075029311, -0.0524968083914246, 0.2510548698419418, 0.0, 0.007975082600357933, 0.085433779496072, -0.264295756816864, -1.0974377393722534, 0.052471127901973294, -2.5350966453552246, -1.1001509428024292, -6.077070384863579e-15, -0.030230718968573822, 0.0004722729305783261]
[4.299999999999993, 0.30527401864483844, 4.970219612121582, 1.3550173044204712, 0.027335418342618233, -0.20580119775657957, -0.04190958694408127, 0.2763619750722585, 0.0, 0.016576130493827616, 0.0795658557997605, -0.3431604504585266, -0.9075650572776794, 0.0519247500037118, -2.6049036979675293, -0.990386426448822, -1.898716223135933e-14, -0.3018006072899405, 0.0005373174981049732]
[4.3499999999999925, 0.3190405198015975, 5.006562232971191, 1.2427754402160645, 0.02838479373953884, -0.23436875503379803, -0.04197285484807224, 0.22144592905290936, 0.0, 0.036461215593577775, 0.07432773495574714, -0.37051090598106384, -0.8614374995231628, 0.05029355273632682, -2.629875421524048, -0.9458394050598145, -8.126728705195759e-14, -0.7301471616816664, 0.0005619129689895426]
[4.399999999999992, 0.3615829509853862, 5.082648754119873, 0.8649368286132812, 0.03421952776762333, -0.17626060813301475, -0.05471543904976362, 0.11682364806952057, 0.0, 0.06693407781469385, 0.07533788133746559, -0.43537551164627075, -0.803848385810852, 0.04715891529659228, -2.6902832984924316, -0.8647324442863464, -2.010446136947315e-12, -1.582266579927748, 0.0005075629572372447]
[4.449999999999992, 0.4735575381004473, 5.126981735229492, 0.48150724172592163, 0.1307991410151888, -0.07643235300224412, -0.23058461596310584, 0.040656113152939315, 0.0, 0.07612374164496828, 0.07928993172989546, -0.4939388334751129, -0.7868626713752747, 0.04563884048374143, -2.7442662715911865, -0.8337553143501282, -3.1158853762916645e-12, -2.3254582290476455, 0.000451294465393987]
[4.499999999999992, 0.5333205367341985, 5.139294147491455, 0.31657838821411133, -0.19686042425556183, -0.023894657634507627, 0.36277138978359846, 0.0037987984593271153, 0.0, 0.07457839844207345, 0.08203830473179008, -0.52080899477005, -0.7845325469970703, 0.046107488257809706, -2.769519090652466, -0.828372061252594, -7.815105962893007e-13, -3.16917706334974, 0.0002958048142784743]
[4.549999999999992, 0.6013414180465579, 5.146282196044922, 0.2050022929906845, -0.05746205174478278, 0.005411774249159994, 0.10037006049362493, -0.022301984966618973, 0.0, 0.07020673529232087, 0.08525498472814812, -0.544870138168335, -0.7846179604530334, 0.04894457096365778, -2.7911977767944336, -0.8266124129295349, -2.7401054785001024e-13, -3.8778971853609225, 0.0002444336048008316]
[4.599999999999992, 0.5965987609359943, 5.16078519821167, 0.2300502061843872, -0.06273702272599095, 0.03257583443397721, 0.10914346680682341, -0.02490010500092199, 0.0, 0.06317175171992612, 0.08794775109724562, -0.6082087755203247, -0.8036004304885864, 0.050720530932275444, -2.8468470573425293, -0.8391775488853455, -2.816789675411865e-13, -4.078658111257941, 0.00013742831550085728]
[4.6499999999999915, 0.5067030435137776, 5.182804584503174, 0.38597285747528076, 0.5177895612060582, -0.003709616393397733, -1.2488801071926183, 0.09220125586181871, 0.0, 0.05933433125866178, 0.0916179823088772, -0.6662583947181702, -0.7357409596443176, 0.05501443513221169, -2.9007351398468018, -0.8364124894142151, -4.119593119337286e-13, -4.906530450595104, 0.00010877364253382971]
[4.699999999999991, 0.43017578534599177, 5.19624662399292, 0.43033578991889954, 0.07293281673139432, -0.03235573517178594, -0.1257429678423472, 0.10846018500523594, 0.0, 0.053797004668168766, 0.09351941631694428, -0.6909107565879822, -0.6885383129119873, 0.05448251170085023, -2.9259955883026123, -0.8202923536300659, -6.454499051584761e-13, -8.146673157411744, 7.010086228368271e-05]
[4.749999999999991, 0.3042410713527862, 5.230459690093994, 0.5080282092094421, 0.027816547245678364, -0.04234120250476976, -0.048511462390555524, 0.04113101871227865, 0.0, 0.048776860509604524, 0.09258272367141847, -0.7385861873626709, -0.6229972243309021, 0.05312160607650101, -2.9777140617370605, -0.7793849110603333, -6.593443677513552e-13, -10.531718158942498, 6.139055669222442e-05]
[4.799999999999991, 0.2550986434334153, 5.246706008911133, 0.4881666600704193, 0.022308341398281733, -0.01132997429834657, -0.03954575773802446, -0.08507233929343767, 0.0, 0.05158544946929208, 0.09347264862261986, -0.7601042985916138, -0.6420403718948364, 0.052751787981846376, -3.0015556812286377, -0.7733266353607178, -3.7327090787822476e-13, -11.508946480381256, 4.0487489652808236e-05]
[4.849999999999991, 0.19852505874073195, 5.260256290435791, 0.43909528851509094, 0.018620641645702124, 0.0331029305924089, -0.03511927179403469, -0.15173388475224533, 0.0, 0.050507151069263144, 0.10142224952199447, -0.7797836661338806, -0.6743881106376648, 0.053792515605383555, -3.0223426818847656, -0.777684211730957, -2.5762887668848837e-13, -11.287429701471206, 3.2257593232490156e-05]
[4.899999999999991, 0.23051297888050448, 5.27942419052124, -0.010890713892877102, 0.021246092429560284, 0.06366012878501848, -0.04066579519171905, -0.14683369579631758, 0.0, 0.04971995873280523, 0.1053941316483665, -0.8390424847602844, -0.7275500297546387, 0.05508727460669088, -3.0833656787872314, -0.8001210689544678, -2.512585102276653e-15, -9.357971358125246, 1.5725030432778004e-05]
[4.94999999999999, 0.34018408201869627, 5.266561985015869, -0.4628838896751404, 0.03536109228396217, 0.06381619710194014, -0.0724651366903396, -0.1095353622485244, 0.0, 0.04960432595937477, 0.11424959239267014, -0.8869149684906006, -0.7433030009269714, 0.055822906355492655, -3.1288466453552246, -0.8121144771575928, -2.0977376549455792e-16, -9.603522314654818, 1.3177164009484305e-05]
[4.99999999999999, 0.4485332189063008, 5.248305320739746, -0.70278000831604, 0.0970427431701902, 0.054346666196698264, -0.20587656974966748, -0.08283690852615178, 0.0, 0.04851729016961892, 0.11896815204138772, -0.9123803973197937, -0.7484960556030273, 0.05665332967925939, -3.153639554977417, -0.8173543214797974, -2.604693362533513e-22, -8.79758709187524, 6.975157826234231e-06]
[5.04999999999999, 0.6141779767908397, 5.2262282371521, -0.8825145959854126, -0.057873672740632695, 0.04161297686222351, 0.1323970977847947, -0.059992512218183906, 0.0, 0.04582050792811414, 0.12858444096189692, -0.9348456859588623, -0.753413200378418, 0.05643464298296483, -3.1754062175750732, -0.8215173482894897, -6.940610994798697e-25, -8.795969948589358, 5.42652098648198e-06]
[5.09999999999999, 0.7037205822037812, 5.149888038635254, -1.2132428884506226, -0.032092578647545236, 0.033082681461017005, 0.07310886876838239, -0.05598238658672601, 0.0, 0.03993863103142887, 0.1314941934738866, -0.9923128485679626, -0.766016960144043, 0.05779326175651419, -3.232550859451294, -0.833824872970581, -2.5899991047577147e-30, -7.856281796526078, 2.7629090524927242e-06]
[5.14999999999999, 0.7569971676324532, 5.069538116455078, -1.1126657724380493, -0.02611630974904851, 0.030848369363545798, 0.059956929936791505, -0.05910871380371932, 0.0, 0.03464181568966579, 0.13741629266216646, -1.0477690696716309, -0.8029012084007263, 0.059905905858732726, -3.287828207015991, -0.85291987657547, -1.1298695503712942e-29, -7.022707099460463, 1.8392429057751565e-06]
[5.1999999999999895, 0.7284862770175542, 5.036502361297607, -0.9766319394111633, -0.030329368117341014, 0.007956886223563674, 0.06825681884206873, -0.014620207225510311, 0.0, 0.033250312440594135, 0.13843038471652558, -1.0743408203125, -0.8050320148468018, 0.061577098249748864, -3.314394950866699, -0.8537523746490479, -2.9871739693480327e-25, -5.996825939550878, 1.0139192011993408e-06]
[5.249999999999989, 0.6224947817001716, 5.011377811431885, -0.8382489681243896, -0.06140075140548611, -0.010290019341893646, 0.13030270649355968, 0.021923780215683215, 0.0, 0.030517572248075466, 0.13662795109334563, -1.09744393825531, -0.7923830151557922, 0.06464511600828461, -3.3375110626220703, -0.8470627665519714, -7.833002904978752e-23, -6.177117355495434, 8.051962406632004e-07]
[5.299999999999989, 0.5317218411042096, 4.962245464324951, -0.4324698746204376, -0.2722462991666951, -0.016157070691548998, 0.5897558731383922, 0.03948182490989789, 0.0, 0.024326440476367776, 0.1347224507113485, -1.1599719524383545, -0.7312464714050293, 0.0676274259506121, -3.4024555683135986, -0.8179137110710144, -4.306854368413401e-17, -6.909940578558905, 4.3526742454621315e-07]
[5.349999999999989, 0.39494261731078106, 4.955350875854492, -0.38124069571495056, 0.06912486009054755, -0.02319511186101023, -0.12212752214142027, 0.05054642530994493, 0.0, 0.020429565168166946, 0.1308822625186715, -1.2054051160812378, -0.7168020009994507, 0.07438307671950406, -3.445727586746216, -0.8100130558013916, -1.720257011714607e-16, -7.182065775660012, 3.8041525649878494e-07]
[5.399999999999989, 0.35081576766834544, 4.935017108917236, -0.29250970482826233, 0.05350522403710452, -0.06748832766231032, -0.08754711533107369, 0.12265355787897678, 0.0, 0.013363265181270727, 0.12949096024926704, -1.2279839515686035, -0.6456238627433777, 0.07931647872350422, -3.4685347080230713, -0.7702516317367554, -1.819197231617967e-15, -8.008351036868529, 2.4416241877221074e-07]
[5.449999999999989, 0.31693553471081637, 4.927610397338867, -0.31766438484191895, 0.04650701515768489, -0.14073552307158055, -0.0697366610631173, 0.22743905674054074, 0.0, 0.006070411438834202, 0.12498397764638791, -1.2465696334838867, -0.5985743999481201, 0.08347895369674774, -3.4877126216888428, -0.742450475692749, -1.139772856438293e-15, -8.847677827633714, 2.161064625857898e-07]
[5.4999999999999885, 0.34653367155769754, 4.901670932769775, -0.4863227903842926, 0.05678236637884883, -0.2608560834527463, -0.07898197019028373, 0.26661972358701896, 0.0, 0.004649979186076281, 0.11990759102428189, -1.2864564657211304, -0.4507234990596771, 0.08638750609808406, -3.5332915782928467, -0.6314387321472168, -2.376136284884201e-17, -10.561598369719903, 1.7828503762768248e-07]
[5.549999999999988, 0.45669573387170487, 4.879604339599609, -0.6662830710411072, 0.16153435561855667, -0.31708635681113184, -0.2263141802970105, 0.2234590334322823, 0.0, 0.020716586537752546, 0.11375336386522913, -1.3044712543487549, -0.3993074893951416, 0.08260980426157592, -3.555251359939575, -0.5654226541519165, -1.6123414369044207e-19, -10.72717540225649, 1.6008736141449106e-07]
[5.599999999999988, 0.5242377808072674, 4.832786560058594, -0.9319539666175842, -0.4433403644798378, -0.2894439213034435, 0.7066399504481435, 0.12530513298325485, 0.0, 0.057160485828612585, 0.11265102826714728, -1.3283476829528809, -0.3555413484573364, 0.08238998585962191, -3.5834641456604004, -0.4655519723892212, -5.443499834808285e-21, -10.36854796767446, 1.3388261622104232e-07]
[5.649999999999988, 0.6606372902785131, 4.805601596832275, -1.0269484519958496, -0.0556111635412182, -0.1960584147199253, 0.08068841925792988, 0.062325222089677404, 0.0, 0.07180242352571402, 0.11289473038281211, -1.3387510776519775, -0.34359291195869446, 0.0779729248112261, -3.5947728157043457, -0.42383357882499695, -9.385046896087042e-25, -10.252358877313238, 1.2161138137311208e-07]
[5.699999999999988, 0.7084763170006039, 4.729936122894287, -0.9914987087249756, -0.04061695304284091, -0.02360182704782598, 0.061528297873242266, 0.005304767626964021, 0.0, 0.07287378147901101, 0.11332302105864253, -1.3645578622817993, -0.3432023823261261, 0.07489685034521738, -3.620352268218994, -0.36169490218162537, -1.050413111048831e-23, -9.542260591590082, 9.170851333529375e-08]
[5.749999999999988, 0.7046575326879618, 4.667691707611084, -0.8363893032073975, -0.04177019745239952, 0.06814260796353402, 0.06295738565067381, 0.11517134472008732, 0.0, 0.06054632114387904, 0.1137308410007926, -1.3865900039672852, -0.27429085969924927, 0.07555056384991535, -3.6433355808258057, -0.40139248967170715, -2.3388571088140316e-22, -9.403155018803693, 8.154979339855659e-08]
[5.799999999999987, 0.7045607898371792, 4.643152236938477, -0.692366898059845, -0.04339185227364056, 0.03731436741540114, 0.060435643989405485, 0.12715369183195505, 0.0, 0.048001453888444526, 0.10910978495943915, -1.3943642377853394, -0.20957496762275696, 0.07843607121977192, -3.655535936355591, -0.4214606285095215, -1.5304343504150085e-18, -8.44819724429021, 5.689282491912885e-08]
[5.849999999999987, 0.6430081263720269, 4.625635147094727, -0.557843029499054, -0.06499008597929778, 0.004478699684758967, 0.07979327918639652, 0.10705102337557454, 0.0, 0.03643958804505095, 0.09857200691498325, -1.3995355367660522, -0.1603366881608963, 0.08048360104405934, -3.6665377616882324, -0.4273573160171509, -1.173624664606694e-16, -7.918335292706939, 4.9232900541864105e-08]
[5.899999999999987, 0.5952090350069905, 4.597097396850586, -0.238159641623497, -0.10024323657122872, -0.017175569104583004, 0.11603304846356317, 0.08996484551509941, 0.0, 0.021709438982338302, 0.09204677699285119, -1.407541275024414, -0.06693827360868454, 0.07996778276089513, -3.6951799392700195, -0.41451913118362427, -4.872760841422901e-13, -6.562035364681179, 3.453410900820255e-08]
[5.949999999999987, 0.5179513601920166, 4.590150833129883, -0.12091553956270218, -0.6197009898867459, -0.029113321912403737, 0.8388702969587284, 0.08685598392915829, 0.0, 0.014115018665359682, 0.08202789077505535, -1.4093300104141235, -0.025815797969698906, 0.07867230293276913, -3.710646629333496, -0.40143612027168274, -5.216852200330235e-12, -5.946800354570811, 2.8580358644664425e-08]
[5.999999999999987, 0.5019087057910938, 4.5862040519714355, -0.024348532781004906, 0.6215281750142053, -0.05047842189526004, -0.8049919663426994, 0.08951080313294725, 0.0, 0.007297733428365856, 0.07798791983843949, -1.4091241359710693, 0.029241520911455154, 0.0774895293792751, -3.732794761657715, -0.37391453981399536, -2.778635611156577e-11, -5.12637538117524, 2.178882250262722e-08]
[6.0499999999999865, 0.4772008743325623, 4.5894455909729, 0.053621068596839905, 0.23467562970563238, -0.08534938213696106, -0.21985761945388677, 0.18930578267633769, 0.0, -0.0035886569555629534, 0.06793090131535706, -1.4039589166641235, 0.06247635930776596, 0.07446889756175686, -3.755394458770752, -0.35363322496414185, -8.648830844668607e-11, -4.648265283848615, 1.934360746486679e-08]
[6.099999999999986, 0.4759531259448465, 4.592921733856201, 0.13648587465286255, 0.22269674365641765, -0.17460729687743118, -0.18318805771044733, 0.32612686736718594, 0.0, -0.016444101613057087, 0.05845973298443471, -1.39776611328125, 0.25498485565185547, 0.07267230881808465, -3.7644495964050293, -0.26613709330558777, -2.2782961979339023e-10, -2.159749274384133, 1.4322346116273164e-08]
[6.149999999999986, 0.4507755297989865, 4.5986480712890625, 0.18084238469600677, 0.1143088511885972, -0.26608926814655354, -0.06565989363933836, 0.33722033233615883, 0.0, -0.015923028841012443, 0.03609209785970994, -1.388679027557373, 0.37531381845474243, 0.06315405963607652, -3.7704851627349854, -0.1945754736661911, -3.4620981136262757e-10, -1.1383443585331052, 1.2437277041235201e-08]
[6.199999999999986, 0.4478482020711432, 4.61831521987915, 0.21155951917171478, 0.09167651630864103, -0.3083731015613769, -0.03940795836689811, 0.19558008023531462, 0.0, 0.030056106524565234, 0.022711643192549383, -1.3476333618164062, 0.5841462016105652, 0.05299735768977942, -3.7748043537139893, 0.0599643774330616, -3.6968076520181155e-10, -0.2915577847558638, 6.515354915079352e-09]
[6.249999999999986, 0.4668371276765841, 4.623003005981445, 0.19079136848449707, 0.09436986761416234, -0.19435612065424, -0.032822338090180314, 0.08721382118546166, 0.0, 0.057971711160891254, 0.013134751861076243, -1.3355944156646729, 0.5971692800521851, 0.03788397997040828, -3.7729647159576416, 0.10020669549703598, -2.8344176415518385e-10, -0.271542464475525, 5.768929318115995e-09]
[6.299999999999986, 0.49542086589964845, 4.63572883605957, 0.05253012850880623, 0.23998470216304243, -0.03095210618652158, -0.08507965064208003, 0.005771066167894168, 0.0, 0.06295380762448904, 0.011523731059630003, -1.2871849536895752, 0.5858327746391296, 0.0331838157343314, -3.761713743209839, 0.13962435722351074, -4.626395515327714e-11, -0.3474343821896053, 5.717490581782037e-09]
[6.349999999999985, 0.575134138547271, 4.636809825897217, -0.028229612857103348, -0.05168972453261249, 0.0177506663550426, 0.018469519816266985, -0.008020691350277737, 0.0, 0.058050048938609336, 0.011150637304297354, -1.2683783769607544, 0.5760793089866638, 0.031236331456522964, -3.757234573364258, 0.12885551154613495, -1.3927861373083159e-11, -0.3984806666883627, 6.337137497031355e-09]
[6.399999999999985, 0.6118057207316975, 4.632231712341309, -0.1569092869758606, -0.03031040870950462, 0.04914556591190769, 0.012983151370080761, -0.011396581295708239, 0.0, 0.05073217073420726, 0.012250751523225993, -1.2339404821395874, 0.5590589046478271, 0.02861011683152107, -3.750197649002075, 0.09643037617206573, -1.5893861526786269e-12, -0.5059133152658647, 7.887805077472765e-09]
[6.449999999999985, 0.6611115194925233, 4.623144149780273, -0.11965654790401459, -0.020590203704888992, 0.07198278748580426, 0.009248057718096262, -0.013261788301319747, 0.0, 0.043902829196036865, 0.012952288542782946, -1.1962449550628662, 0.5356717705726624, 0.02884192167818097, -3.7456111907958984, 0.0319601409137249, -1.7338875356662143e-12, -0.5717597947475196, 8.94518968745105e-09]
[6.499999999999985, 0.6628436023011014, 4.620405673980713, -0.07055705785751343, -0.021654998391955213, 0.02816982340172306, 0.00963014418470645, 0.004250595346760592, 0.0, 0.04133962890614286, 0.013642045861744598, -1.1789817810058594, 0.5292184352874756, 0.03068170412326685, -3.744861364364624, 0.012754705734550953, -3.5417345405856736e-12, -0.6761065187689889, 1.048216146046868e-08]
[6.549999999999985, 0.6505970151263691, 4.622530937194824, -0.014561845920979977, -0.022962465412361483, -0.01013124868757355, 0.012837846120949112, 0.025781312867720618, 0.0, 0.035735148634470894, 0.01672931471436082, -1.1422010660171509, 0.5285811424255371, 0.02992903887082615, -3.7458114624023438, 0.006119292229413986, -2.1278104785586802e-11, -0.7756320533043001, 1.142939915961477e-08]
[6.5999999999999845, 0.617954164157408, 4.627640247344971, 0.18830624222755432, -0.028361620967162163, -0.016117563139618856, 0.017517231771814325, 0.029691353768126285, 0.0, 0.0313952969718083, 0.017528119494210438, -1.1247421503067017, 0.5372567772865295, 0.028388312466289003, -3.746297836303711, 0.003732862416654825, -2.6075483620758974e-10, -0.7885886328327245, 1.132944952564117e-08]
[6.649999999999984, 0.5489533119737655, 4.6345062255859375, 0.26208168268203735, -0.06966815621569651, -0.02242773512153694, 0.05295820927026657, 0.031926358695704274, 0.0, 0.027316815735959742, 0.019136828945235423, -1.1092984676361084, 0.5418329834938049, 0.02522768827898024, -3.746711492538452, 0.005839894991368055, -4.776270113055927e-10, -0.7825033527175724, 1.1198531517154797e-08]
[6.699999999999984, 0.5078922679283043, 4.659868240356445, 0.40938884019851685, 0.695664795594531, -0.031185197986773182, -0.7838095144893639, 0.03540452537216827, 0.0, 0.020433676655965672, 0.019472492434615157, -1.0690536499023438, 0.55406254529953, 0.023028432269039792, -3.7470290660858154, 0.01693672500550747, -9.185554359937962e-10, -0.7567287465276937, 1.0785419154348163e-08]
[6.749999999999984, 0.4605864854419932, 4.688520908355713, 0.43667665123939514, 0.04293845766572164, -0.041066069518982055, -0.04527234489907021, 0.042356230218469106, 0.0, 0.01397907296188319, 0.020747301055248222, -1.0303397178649902, 0.5657974481582642, 0.019696562726566492, -3.746450901031494, 0.030355123803019524, -8.294768512119544e-10, -0.7486433518485669, 1.0659991839657523e-08]
[6.799999999999984, 0.44184176150982124, 4.703741073608398, 0.5047414898872375, 0.027721117524319237, -0.053801577950522435, -0.033700655989499506, 0.01223322113177863, 0.0, 0.01180386890681914, 0.021296449042308485, -1.011864423751831, 0.5682611465454102, 0.017525606294335014, -3.745619535446167, 0.044203873723745346, -7.388932465591215e-10, -0.7155144581677059, 1.0072101790437083e-08]
[6.849999999999984, 0.39550814492014436, 4.723470687866211, 0.5184324383735657, 0.013286789397433172, -0.04327088059535025, -0.0229432713379989, -0.10006274042455697, 0.0, 0.01679336154056358, 0.024349619061907864, -0.9893935322761536, 0.5289326310157776, 0.014103293408988535, -3.7440412044525146, 0.055604469031095505, -5.909645677300908e-10, -1.0558717560378121, 9.895742011412548e-09]
[6.8999999999999835, 0.38500234407065026, 4.7577409744262695, 0.46120592951774597, 0.011278059996047881, -0.0026949281282669306, -0.026420720313646253, -0.14545882585632705, 0.0, 0.019776674330668303, 0.03061495446398085, -0.9570109844207764, 0.41744837164878845, 0.013070503164713495, -3.7409849166870117, 0.048572469502687454, -3.2374122506902397e-10, -2.7136536760551317, 1.0545136737771833e-08]
[6.949999999999983, 0.42627306149924704, 4.777388572692871, 0.2256958931684494, 0.01701247455926416, 0.01207136965569997, -0.04855890219070183, -0.08549806096962773, 0.0, 0.019755530197541397, 0.03771044305230974, -0.9361239671707153, 0.37014228105545044, 0.01321821628921182, -3.7409584522247314, 0.030975228175520897, -2.1281677135507834e-10, -3.1637403991401163, 1.0798856612588255e-08]
[6.999999999999983, 0.4791214753267171, 4.781725883483887, 0.08239256590604782, 0.04769007561923339, 0.009728970901114187, -0.14403353388146709, -0.04639485580109105, 0.0, 0.018744363642795255, 0.04150725837095802, -0.925921618938446, 0.3554334342479706, 0.01380131675650196, -3.741320848464966, 0.02226828783750534, -1.0570601604012156e-11, -4.3878717277867105, 1.1429020614982702e-08]
[7.049999999999983, 0.5885314920831745, 4.781168460845947, -0.07545728981494904, -0.019916252805285826, 0.005836450770564956, 0.06140715232123495, -0.0248602156205116, 0.0, 0.017101791791112618, 0.04475022237041164, -0.913665235042572, 0.3419193923473358, 0.01452493755843032, -3.7420966625213623, 0.012312786653637886, -1.0113475870277636e-12, -4.906251088167909, 1.1664736423584996e-08]
[7.099999999999983, 0.6247958414245701, 4.77020263671875, -0.23527386784553528, -0.0138103560531222, 0.006372611569245926, 0.044492869816571766, -0.023206331224427064, 0.0, 0.014143249630599482, 0.047368464935740345, -0.8957949280738831, 0.3240754306316376, 0.014708713132157563, -3.7437233924865723, -0.0017792218131944537, -5.709799267331646e-14, -5.675783474167691, 1.19063841031069e-08]
[7.149999999999983, 0.6563970197963687, 4.763108253479004, -0.22148457169532776, -0.011307076968174009, 0.010138762862438401, 0.037021278883450005, -0.034224054040626624, 0.0, 0.012190541644573985, 0.05025371271784617, -0.8878344297409058, 0.31010138988494873, 0.015352701383700743, -3.7447452545166016, -0.010615643113851547, -8.334525817776598e-14, -6.310556415870925, 1.2049300894736937e-08]
[7.199999999999982, 0.6441993952662541, 4.748432636260986, -0.0884375050663948, -0.012889796143281163, -0.004653571854675989, 0.042484266832084554, 0.005849231776799565, 0.0, 0.010460508377660943, 0.05287204515744209, -0.8664465546607971, 0.28591954708099365, 0.016047180431954078, -3.748342990875244, -0.02768566831946373, -1.2430124905042602e-12, -7.580233184585571, 1.2048072720906154e-08]
[7.249999999999982, 0.5873789226066715, 4.746921539306641, -0.03548503294587135, -0.022192653691883918, -0.012224159668118068, 0.07380770797355936, 0.02871240385693329, 0.0, 0.009187409168214795, 0.0530273646537125, -0.8611299991607666, 0.28950753808021545, 0.015961483332504727, -3.7493231296539307, -0.028821580111980438, -3.044796861050921e-12, -7.574764308696977, 1.1930966020768925e-08]
[7.299999999999982, 0.5362265236358168, 4.7509260177612305, 0.15453346073627472, -0.06046960107289454, -0.014249430485472107, 0.21311243186865894, 0.03962266773267211, 0.0, 0.00706339061598629, 0.052599411610898615, -0.8408180475234985, 0.31182849407196045, 0.015056754748985667, -3.752718210220337, -0.030304931104183197, -3.767320268216085e-11, -6.912056733307482, 1.145849792845271e-08]
[7.349999999999982, 0.46612564689619046, 4.755452632904053, 0.19497372210025787, 0.033831511774291126, -0.01702400122642977, -0.127674363010916, 0.04719114021824104, 0.0, 0.005327622838151254, 0.052199848439252315, -0.8323948383331299, 0.320946604013443, 0.01387500709655597, -3.753840208053589, -0.030512867495417595, -5.4594119662909505e-11, -6.693624477541391, 1.1297921421150111e-08]
[7.399999999999982, 0.43994408970505294, 4.768462181091309, 0.21372464299201965, 0.01994974726261512, -0.02430371672402473, -0.07871689000736663, 0.06877360331809598, 0.0, 0.002901527295970566, 0.051214984504730526, -0.809012770652771, 0.35022497177124023, 0.012994893852811674, -3.755695343017578, -0.02908323146402836, -5.546189697287805e-11, -5.780944375545805, 1.098550934323249e-08]
[7.4499999999999815, 0.43474007414080473, 4.77327299118042, 0.19583332538604736, 0.015761862104328093, -0.030098317846899047, -0.07183586110312551, 0.08913612136201049, 0.0, 0.0016254788257905402, 0.05019252653290775, -0.799207329750061, 0.39001861214637756, 0.011023381341610107, -3.7563602924346924, -0.02481044828891754, -4.3638183136807126e-11, -5.236510830570722, 1.0814511778324603e-08]
[7.499999999999981, 0.4508615500835276, 4.7811408042907715, 0.028014158830046654, 0.018685977482886744, -0.01063946101079775, -0.08747759374948223, 0.03727965511932118, 0.0, 0.003610005625106678, 0.048068720360317355, -0.7687431573867798, 0.39457106590270996, 0.010282202203384518, -3.758176803588867, -0.02849886380136013, -5.07906394425107e-12, -4.507902112820278, 1.0618090032869304e-08]
[7.549999999999981, 0.5085531428497364, 4.7806267738342285, -0.03451172634959221, 0.19750270150134586, 0.0020966538468266175, -1.300390867470056, -0.00894074793909138, 0.0, 0.004659455294394357, 0.04837564372434897, -0.7609941959381104, 0.3908844590187073, 0.010045547623720164, -3.758726119995117, -0.032103367149829865, -1.991444561570753e-12, -4.719250155386166, 1.0643008046285312e-08]
[7.599999999999981, 0.5555107391371008, 4.768543720245361, -0.25493374466896057, -0.024152789217551367, 0.00796969331675643, 0.1192830335658419, -0.0407408974329191, 0.0, 0.00479078831998665, 0.05055280211301546, -0.7339786291122437, 0.36410683393478394, 0.01026239408971384, -3.761441946029663, -0.04861071705818176, -3.851691699091305e-14, -5.89200311260323, 1.0713786306214747e-08]
[7.649999999999981, 0.5855200865945875, 4.761248588562012, -0.22394633293151855, -0.01552583143551671, 0.012704955398665027, 0.07776799191100929, -0.08284042016665046, 0.0, 0.004729398167653099, 0.05454138279047559, -0.7241790890693665, 0.34181079268455505, 0.010900661934605177, -3.762859582901001, -0.05712452158331871, -8.117641329826134e-14, -7.0319722717883755, 1.0737837387667646e-08]
[7.699999999999981, 0.49579388094693144, 4.749938488006592, 0.10419146716594696, 0.14624196389258898, 0.06215234546998984, -0.7321037826601599, -0.1027182486856837, 0.0, 0.02469830789422032, 0.11832667507215522, -0.7051224112510681, -0.07612548023462296, 0.02607393204078848, -3.782813310623169, -0.22015295922756195, -2.1104110637698335e-11, -42.124875373981205, 1.0870150047910786e-08]
