time, uz, alt, vel_alt, uthe, roll, uphi, pitch, upsi, yaw, F
[0.0, 0.0, 0.017021987587213516, 0.03162980452179909, 0.0, -0.004169807838106856, 0.0, 0.015978959569188395, 0.0, -0.002046233380992348, array([[ 32.2322437]])]
[0.05, -32.23489974733256, 0.01728174090385437, 0.031516045331954956, 0.0, -0.004139669671873488, 0.0, 0.016027399913097908, 0.0, -0.002064722816139671, array([[ 82.55064363]])]
[0.1, -82.55321461477274, 0.01773711107671261, 0.031998299062252045, 0.0, -0.004162127555434953, 0.0, 0.015955229885375132, 0.0, -0.002102095521333087, array([[ 181.51782833]])]
[0.15000000000000002, -181.5211373414197, 0.01841728575527668, 0.03219697251915932, 0.0, -0.004184026282647722, 0.0, 0.015981579775929212, 0.0, -0.002167149643294041, array([[-431.36088045]])]
[0.2, 431.5904523436515, 0.01896025985479355, 0.03215990960597992, 0.0, -0.004126396165703894, 0.0, 0.01595289799673352, 0.0, -0.002178093906689679, array([[-4009.54403234]])]
[0.25, 4010.436282319786, 0.025249948725104332, 0.4176461100578308, 0.0, -0.003893126275806637, 0.0, 0.015186321342867603, 0.0, -0.0021987583766111627, array([[-1913.36947948]])]
[0.3, 1914.6250953504632, 0.0460546500980854, 0.916179358959198, 0.0, -0.002587200351100365, 0.0, 0.010147595056364223, 0.0, -0.0020107467416176404, array([[-2.67153104]])]
[0.35, 3.7903414231967743, 0.14267097413539886, 1.9526852369308472, 0.0, -0.0019192254926731563, 0.0, 0.006603974726315812, 0.0, -0.001686742177864394, array([[ -3.56071947e-14]])]
[0.39999999999999997, 0.25238695195320826, 0.21206337213516235, 2.420163631439209, 0.0, -0.0013059720356985514, 0.0, 0.004438281216962157, 0.0, -0.0014242623185687325, array([[ -2.92459720e-24]])]
[0.44999999999999996, -0.03232182353734971, 0.3946211636066437, 2.7008554935455322, 0.0, -0.0007971658341132128, 0.0, 0.0024270597815764395, 0.0, -0.001076893046132615, array([[ -2.47849350e-31]])]
[0.49999999999999994, -0.299531881839037, 0.4763696789741516, 2.4339442253112793, 0.0, -0.0005807589819460814, 0.0, 0.0014585302264046233, 0.0, -0.0008434450755439166, array([[ -1.67461818e-24]])]
[0.5499999999999999, 0.6121447858214379, 0.6192272901535034, 1.800374150276184, 0.0, -0.0002573803747161804, 0.0, 0.00035143679531894146, 0.0, -0.0006062012191132845, array([[ -2.88633214e-11]])]
[0.6, 1.7335596804907472, 0.6748676300048828, 1.7251217365264893, 0.0, -2.146380668264792e-05, 0.0, -0.0003980899145834766, 0.0, -0.00035748531418491045, array([[ -4.78965417e-10]])]
[0.65, 2.459970924558384, 0.804171085357666, 2.3014414310455322, 0.0, 1.2945122842787062e-05, 0.0, -0.0003611039258115884, 0.0, -0.0002114952170126064, array([[ -2.02378809e-13]])]
[0.7000000000000001, 2.6333220949175002, 0.8848658800125122, 2.7545740604400635, 0.0, -9.10143163075411e-06, 0.0, -0.0001977581371876537, 0.0, -0.0001910929058422894, array([[ -5.92053989e-33]])]
[0.7500000000000001, 1.7360231206417085, 1.1028913259506226, 3.675398826599121, 0.0, 0.00010530746011633948, 0.0, -6.860194452072689e-05, 0.0, -0.00023054686671091708, array([[ -3.08134592e-63]])]
[0.8000000000000002, 0.5781480678319931, 1.226862907409668, 4.086125373840332, 0.0, 0.00011222289043520132, 0.0, -8.25814643977479e-06, 0.0, -0.0002964613862099016, array([[ -7.69463189e-80]])]
[0.8500000000000002, -0.19504557371139528, 1.5237160921096802, 4.477153301239014, 0.0, -1.3968349869403467e-05, 0.0, 0.0001563026667149779, 0.0, -0.00028246926141636683, array([[ -1.42010941e-97]])]
[0.9000000000000002, -0.7002509925365449, 1.6639403104782104, 4.267739772796631, 0.0, -0.00019456410469303816, 0.0, 0.00018849179008302092, 0.0, -0.00021943482384334048, array([[ -2.12386266e-88]])]
[0.9500000000000003, -0.09830306148529053, 1.9322117567062378, 3.632650136947632, 0.0, -0.0003763749858103021, 0.0, 0.00021391202449413523, 0.0, -0.0001742753225101839, array([[ -4.23802602e-63]])]
[1.0000000000000002, 0.6584876174926758, 2.043337821960449, 3.32607364654541, 0.0, -0.0005304371702491104, 0.0, 0.00029816956002050006, 0.0, -0.0001717853362246724, array([[ -1.62194058e-52]])]
[1.0500000000000003, 1.2370639712810518, 2.248131275177002, 2.9320271015167236, 0.0, -0.0007265125963475357, 0.0, 0.0004585158240507646, 0.0, -0.0011374572076021461, array([[ -1.59102905e-40]])]
[1.1000000000000003, 1.6299345979690554, 2.3441720008850098, 3.2034332752227783, 0.0, -0.0006637931649823118, 0.0, 0.0004446963144250778, 0.0, -0.0016257518267244664, array([[ -2.54512386e-49]])]
[1.1500000000000004, 0.9336482458114626, 2.589561700820923, 4.069919586181641, 0.0, -0.0004903255702776258, 0.0, 0.00044052927992724533, 0.0, -0.002458028685757135, array([[ -1.91163418e-82]])]
[1.2000000000000004, -0.32877138090133673, 2.724541664123535, 4.412801742553711, 0.0, -0.00031609321266154244, 0.0, 0.0004104770432814188, 0.0, -0.0028623426406941565, array([[ -4.83805653e-98]])]
[1.2500000000000004, -1.0806141104698181, 3.027151584625244, 4.269339561462402, 0.0, -0.00024340918696490166, 0.0, 0.00027582661271660967, 0.0, -0.0034048262275818046, array([[ -8.54080314e-93]])]
[1.3000000000000005, -1.372773443698883, 3.189953088760376, 3.894618511199951, 0.0, -0.00021778914286012282, 0.0, 0.0002463025463340529, 0.0, -0.003601055495414098, array([[ -8.74438531e-78]])]
[1.3500000000000005, -1.4479032249450685, 3.405672073364258, 3.3189897537231445, 0.0, -0.00025901578689546234, 0.0, 0.0002581574696592997, 0.0, -0.003773780062552825, array([[ -1.70101454e-57]])]
[1.4000000000000006, -1.0280116031169892, 3.5305683612823486, 2.9342079162597656, 0.0, -0.0002766122388094145, 0.0, 0.0002480217271718409, 0.0, -0.003934107891403647, array([[ -5.85372008e-46]])]
[1.4500000000000006, -0.4918160028457642, 3.688542604446411, 2.3580119609832764, 0.0, -0.00033809519584108397, 0.0, 0.00031556403354525306, 0.0, -0.003998190351243076, array([[ -1.83017483e-31]])]
[1.5000000000000007, -0.15195612180233004, 3.7747888565063477, 1.9739148616790771, 0.0, -0.000320351981274016, 0.0, 0.00036858191667675733, 0.0, -0.003931013931432388, array([[ -8.53604463e-24]])]
[1.5500000000000007, 0.3238545645475388, 3.875422239303589, 1.398610234260559, 0.0, -0.00038614452702253395, 0.0, 0.00045976671266819016, 0.0, -0.003898843529794942, array([[ -4.78516893e-15]])]
[1.6000000000000008, 0.687416958928113, 3.9159367084503174, 1.1645727157592773, 0.0, -0.00043725231071761224, 0.0, 0.0005356708096547158, 0.0, -0.0038033668009485305, array([[ -1.39342448e-12]])]
[1.6500000000000008, 0.5782371739163029, 3.986302375793457, 1.0679545402526855, 0.0, -0.0003868561702687929, 0.0, 0.0006204480523091837, 0.0, -0.0036834195055817595, array([[ -5.36233957e-12]])]
[1.7000000000000008, 0.3645720815712193, 4.029694557189941, 1.1141327619552612, 0.0, -0.00028839465270903784, 0.0, 0.0005623092657567779, 0.0, -0.0033322123947553297, array([[ -9.37477629e-13]])]
[1.7500000000000009, -0.040985959916369434, 4.0935235023498535, 0.9652527570724487, 0.0, -0.00019526163389575196, 0.0, 0.00040806189755070334, 0.0, -0.0027224741468279442, array([[ -9.56355760e-12]])]
[1.800000000000001, -0.23815441631128198, 4.120192527770996, 0.7036944627761841, 0.0, -0.00014326238875626837, 0.0, 0.00039741513901300594, 0.0, -0.002219481946410456, array([[ -3.72662988e-10]])]
[1.850000000000001, -0.19024862484620528, 4.145137786865234, 0.061314720660448074, 0.0, -8.695012143591003e-05, 0.0, 0.00036378248746457196, 0.0, -0.0014877996951610673, array([[ -5.61563598e-09]])]
[1.900000000000001, 0.3613158029464476, 4.141707420349121, -0.24542716145515442, 0.0, -6.900299315123686e-05, 0.0, 0.0004433657910070969, 0.0, -0.000989370480054905, array([[ -5.95161016e-10]])]
[1.950000000000001, 0.8396756620398251, 4.104222774505615, -0.7366326451301575, 0.0, -7.205954887020517e-05, 0.0, 0.0005942808796338598, 0.0, -0.00016186531250525247, array([[ -3.03979682e-13]])]
[2.000000000000001, 1.285229858517951, 4.077946186065674, -0.4880064129829407, 0.0, 1.3794959449061665e-05, 0.0, 0.0006638332286560261, 0.0, 0.0002918293607889254, array([[ -5.26566301e-11]])]
[2.0500000000000007, 0.7798112018634936, 4.071457386016846, 0.3656170666217804, 0.0, 6.145529536185055e-05, 0.0, 0.0004120140957914234, 0.0, 0.0006173796881686817, array([[ -1.43079416e-08]])]
[2.1000000000000005, -0.23169264253691274, 4.088402271270752, 0.7003642320632935, 0.0, 0.00011530316743513323, 0.0, 0.0005556075377433567, 0.0, 0.0006553312200678031, array([[ -6.13458401e-10]])]
[2.1500000000000004, -0.5252256737158671, 4.136180877685547, 0.511983335018158, 0.0, 0.0002237852723549675, 0.0, 0.0006873499197496731, 0.0, 0.0005786688882878204, array([[ -2.32744321e-09]])]
[2.2, -0.25806833117914096, 4.148425102233887, 0.13716474175453186, 0.0, 0.00017641558595734482, 0.0, 0.0008604968862655537, 0.0, 0.00048763068589385345, array([[ -5.75418324e-09]])]
[2.25, 0.2346292544328675, 4.138242721557617, -0.4300120770931244, 0.0, 0.00017863353569107262, 0.0, 0.0010288091830650556, 0.0, 0.00045409781858976426, array([[ -6.17786427e-11]])]
[2.3, 1.1438030005854873, 4.119765281677246, -0.6809120774269104, 0.0, 0.0001765466424632942, 0.0, 0.001170395525066884, 0.0, 0.0003630720375068134, array([[ -7.21663372e-13]])]
[2.3499999999999996, 1.517922240257985, 4.068914890289307, -0.4233558475971222, 0.0, 0.000135476778528779, 0.0, 0.0011167940042243018, 0.0, 0.00032528076305710535, array([[ -1.87581844e-10]])]
[2.3999999999999995, 1.236156104603237, 4.062848091125488, 0.09612192213535309, 0.0, 5.576776815120776e-05, 0.0, 0.0008917164666277147, 0.0, 0.0002847690000111736, array([[ -1.82573924e-08]])]
[2.4499999999999993, 0.2856458478306661, 4.105405330657959, 1.1210007667541504, 0.0, 2.239600901881595e-05, 0.0, 0.0007336601951909073, 0.0, 0.0003950084813987346, array([[ -3.00519327e-13]])]
[2.499999999999999, -1.0073689204674936, 4.140860557556152, 1.0850095748901367, 0.0, -2.5614845126897496e-05, 0.0, 0.0005182571733483374, 0.0, 0.0003821809866466952, array([[ -3.64511254e-13]])]
[2.549999999999999, -1.335105867415302, 4.197896957397461, 0.5705246925354004, 0.0, -2.5710688097357985e-05, 0.0, 0.0003475286468842151, 0.0, 0.00033244987608105684, array([[ -5.68007274e-10]])]
[2.5999999999999988, -0.815860281316663, 4.2107720375061035, 0.2675234079360962, 0.0, -8.879939029397218e-06, 0.0, 0.0003730581528628594, 0.0, 0.0002475689243241682, array([[ -2.24667334e-09]])]
[2.6499999999999986, 0.07557027341830277, 4.204594135284424, -0.38311898708343506, 0.0, -1.8445255125210943e-05, 0.0, 0.0003882155583025492, 0.0, 0.0001566983981524307, array([[ -4.59762428e-11]])]
[2.6999999999999984, 1.124199106068692, 4.186606407165527, -0.6804155111312866, 0.0, 3.654987092406008e-05, 0.0, 0.0003951497366253413, 0.0, 0.00011026337881565896, array([[ -2.67339848e-13]])]
[2.7499999999999982, 1.6922495635899597, 4.138566493988037, -0.31384193897247314, 0.0, 2.337124167816943e-05, 0.0, 0.000402771616896974, 0.0, 0.00010705769455998262, array([[ -3.08962131e-10]])]
[2.799999999999998, 1.059479169379683, 4.138144016265869, 0.34132930636405945, 0.0, -5.040766484664497e-05, 0.0, 0.00033055438424096353, 0.0, 0.00011513685103167908, array([[ -5.36608327e-09]])]
[2.849999999999998, 0.06655530676412214, 4.1863322257995605, 1.2570109367370605, 0.0, -4.211531638946981e-06, 0.0, 0.0002939612531637235, 0.0, 0.00013318341313659578, array([[ -3.18601769e-15]])]
[2.8999999999999977, -1.1792339397333533, 4.225372314453125, 1.159450888633728, 0.0, -0.0001396439505247795, 0.0, 0.0004458880577928052, 0.0, 0.00013736759549519276, array([[ -1.87995339e-14]])]
[2.9499999999999975, -1.524274361893516, 4.282942771911621, 0.5609254240989685, 0.0, -0.00026196507790827794, 0.0, 0.0005366423246422338, 0.0, 3.516447517803251e-05, array([[ -1.73131867e-10]])]
[2.9999999999999973, -0.8980557019171315, 4.295293807983398, 0.2562255561351776, 0.0, -0.00028840424677888175, 0.0, 0.0005760702638501627, 0.0, 8.51488668491016e-06, array([[ -6.39968499e-10]])]
[3.049999999999997, -0.17180953513536515, 4.286933898925781, -0.39650437235832214, 0.0, -0.00044204766595542697, 0.0, 0.0007377533492070148, 0.0, 1.5515568152485927e-05, array([[ -1.08659810e-11]])]
[3.099999999999997, 1.061254570927161, 4.267658233642578, -0.7042998671531677, 0.0, -0.0005155827614227999, 0.0, 0.0007990071343661571, 0.0, -4.049836842502729e-05, array([[ -4.62106637e-14]])]
[3.149999999999997, 1.6505845135450827, 4.214774131774902, -0.370237797498703, 0.0, -0.0005497180062905749, 0.0, 0.0009537673088226552, 0.0, -2.4370151350095924e-05, array([[ -4.70333280e-11]])]
[3.1999999999999966, 1.1706235482343488, 4.209685325622559, 0.14971517026424408, 0.0, -0.0003152621094848949, 0.0, 0.0005775597724328227, 0.0, -0.00013748976964042333, array([[ -2.35034527e-09]])]
[3.2499999999999964, 0.21770619625939433, 4.254013538360596, 1.2321540117263794, 0.0, -0.0005038927315109603, 0.0, 0.0006327902427468393, 0.0, -0.00012541986496518779, array([[ -2.22177527e-15]])]
[3.2999999999999963, -1.1320592692159095, 4.293669700622559, 1.2540547847747803, 0.0, -0.00020399710701720955, 0.0, 0.0004951620390505964, 0.0, -0.00011856744571533842, array([[ -6.20359621e-16]])]
[3.349999999999996, -1.4996880507096644, 4.359483242034912, 0.7145639657974243, 0.0, 6.0150072476153976e-05, 0.0, 0.00045155348301424545, 0.0, -0.00017548589926502157, array([[ -9.93418677e-12]])]
[3.399999999999996, -1.151555520904561, 4.376366138458252, 0.41124093532562256, 0.0, 0.00016472727114036917, 0.0, 0.00041339774116369994, 0.0, -0.00022857046029870357, array([[ -1.08621442e-10]])]
[3.4499999999999957, -0.3861936150522611, 4.379971981048584, -0.24049364030361176, 0.0, 0.00029643994910664745, 0.0, 0.00052983627905026, 0.0, -0.00015569622212525486, array([[ -1.87330446e-11]])]
[3.4999999999999956, 0.665693113301056, 4.366453170776367, -0.5471376776695251, 0.0, 0.000392238233772053, 0.0, 0.0005984378528656145, 0.0, -6.934064239863309e-05, array([[ -2.36643693e-13]])]
[3.5499999999999954, 1.3414744918646795, 4.312134742736816, -0.7930911779403687, 0.0, 0.000537757940798168, 0.0, 0.0006392226106343383, 0.0, -0.00010536384574814625, array([[ -3.36089610e-15]])]
[3.599999999999995, 1.5273129663690959, 4.292272090911865, -0.37677207589149475, 0.0, 0.0003510994966365128, 0.0, 0.0005925227220072311, 0.0, -7.59288987595944e-05, array([[ -1.18059714e-11]])]
[3.649999999999995, 0.6960858830033584, 4.302981376647949, 0.7255873084068298, 0.0, 4.445804808471557e-05, 0.0, 0.0003282060540854374, 0.0, -5.006316117712867e-05, array([[ -2.04271662e-11]])]
[3.699999999999995, -0.6639000813868516, 4.330890655517578, 1.0184893608093262, 0.0, 0.00013135290441245546, 0.0, 0.0003951881952806028, 0.0, -4.1887303643637454e-06, array([[ -8.71549597e-14]])]
[3.7499999999999947, -1.3050830648764096, 4.399016857147217, 0.8174386620521545, 0.0, 0.0002356204897554405, 0.0, 0.0005345807788933389, 0.0, -4.8153016418202035e-05, array([[ -1.24927958e-12]])]
[3.7999999999999945, -1.3821676726142493, 4.419774055480957, 0.5200982689857483, 0.0, 0.00024942424024984263, 0.0, 0.000595141911404611, 0.0, -3.364325797060381e-05, array([[ -2.66183532e-11]])]
[3.8499999999999943, -0.8754934757793497, 4.43135404586792, -0.12885957956314087, 0.0, 0.0002569552732698198, 0.0, 0.0008547116222642305, 0.0, -4.321714966752797e-05, array([[ -2.39653066e-11]])]
[3.899999999999994, 0.26149708185960313, 4.421522617340088, -0.4355456829071045, 0.0, 0.00028055787178467474, 0.0, 0.0009901790936158526, 0.0, -0.0001337195029633467, array([[ -6.58287556e-13]])]
[3.949999999999994, 1.3457301362610488, 4.370326042175293, -0.9144812226295471, 0.0, 0.0001414186902554924, 0.0, 0.0012150249261813936, 0.0, -0.00020525356972807938, array([[ -6.02715308e-17]])]
[3.999999999999994, 1.861777931984514, 4.345197677612305, -0.5495834350585938, 0.0, 0.00021889713328128967, 0.0, 0.001117654608595307, 0.0, -0.00021432086043979038, array([[ -3.12544215e-13]])]
[4.049999999999994, 1.1500186409245579, 4.343014717102051, 0.5508085489273071, 0.0, -3.36145929134824e-07, 0.0, 0.0006588877639527105, 0.0, -0.0002745446964866968, array([[ -7.52113227e-11]])]
[4.099999999999993, -0.2010123459317186, 4.368175029754639, 1.062269926071167, 0.0, 0.00014614511422601098, 0.0, 0.0005783570380617767, 0.0, -0.0003168177612026413, array([[ -1.95097488e-14]])]
[4.149999999999993, -1.0627216771989865, 4.458163738250732, 1.258901834487915, 0.0, -9.143040703582159e-05, 0.0, 0.00038116322107522677, 0.0, -0.00023612406330547514, array([[ -4.70962451e-17]])]
[4.199999999999993, -1.62047515174374, 4.500522136688232, 0.8928826451301575, 0.0, -0.0004102688717611095, 0.0, 0.0003318571367005019, 0.0, -0.00022976839295267866, array([[ -6.54437767e-14]])]
[4.249999999999993, -1.1925804220288339, 4.5356268882751465, 0.3213312327861786, 0.0, -0.0008452055578805997, 0.0, 0.0004153526748351372, 0.0, -0.00021267995119331697, array([[ -1.40564618e-11]])]
[4.299999999999993, -0.10645157647217345, 4.5401835441589355, 0.014455665834248066, 0.0, -0.0012465774849912282, 0.0, 0.0004736086043654465, 0.0, -0.0001296860382779285, array([[ -9.32194240e-12]])]
[4.3499999999999925, 0.7646732220361098, 4.517219066619873, -0.6207022666931152, 0.0, -0.001708019689615369, 0.0, 0.0006764641700011567, 0.0, -8.832748055399067e-05, array([[ -5.78222388e-15]])]
[4.399999999999992, 1.423817453060305, 4.496701717376709, -0.5729076266288757, 0.0, -0.0019085974393078747, 0.0, 0.0007467357627112497, 0.0, -2.4230562005555083e-05, array([[ -1.82732733e-14]])]
[4.449999999999992, 1.4190750638805514, 4.476354598999023, 0.19247086346149445, 0.0, -0.0011296140702160655, 0.0, 0.0005940757264362111, 0.0, -4.0037875186936875e-05, array([[ -4.38930146e-11]])]
[4.499999999999992, 0.3221589719794037, 4.489986896514893, 0.7109270691871643, 0.0, -0.0009306001795171093, 0.0, 0.000414271665505696, 0.0, -0.00011019605095391151, array([[ -1.19725534e-12]])]
[4.549999999999992, -0.5409712910453924, 4.56043815612793, 1.1070191860198975, 0.0, -0.0004884091061529985, 0.0, 0.00022390196611918306, 0.0, -0.00013028843633552646, array([[ -3.80903125e-16]])]
[4.599999999999992, -1.296838430397212, 4.591311931610107, 0.8529330492019653, 0.0, -2.1777755582343144e-05, 0.0, 0.0003280320195829607, 0.0, -0.00014541019536734996, array([[ -2.94167885e-14]])]
[4.6499999999999915, -1.2611021898183679, 4.625283241271973, 0.21136127412319183, 0.0, 0.0005439740673844252, 0.0, 0.0005742058840093452, 0.0, -0.00013159487949907642, array([[ -3.90590780e-12]])]
[4.699999999999991, -0.4278056863339675, 4.624831199645996, -0.1714416742324829, 0.0, 0.0008396804111449458, 0.0, 0.0007053826762040901, 0.0, -6.587441359978654e-05, array([[ -6.47997269e-13]])]
[4.749999999999991, 0.5137806723180188, 4.595749378204346, -0.7379127740859985, 0.0, 0.0012747166964569092, 0.0, 0.001089208856066608, 0.0, 7.563133652816857e-05, array([[ -1.26713015e-16]])]
[4.799999999999991, 1.6473769684340809, 4.568948745727539, -0.8669596314430237, 0.0, 0.0015308173731566283, 0.0, 0.0013631285643418763, 0.0, 0.00017443556850336113, array([[ -7.37743670e-18]])]
[4.849999999999991, 1.881027674490586, 4.518367290496826, -0.32232314348220825, 0.0, 0.0009460629554198155, 0.0, 0.0009883845261383336, 0.0, 0.00019973787317061704, array([[ -7.78704998e-13]])]
[4.899999999999991, 1.0391155344777148, 4.515758514404297, 0.19736935198307037, 0.0, 0.0007036534029465259, 0.0, 0.000709005592095798, 0.0, 0.00022362776595064726, array([[ -2.09334577e-11]])]
[4.94999999999999, 0.07853705303787918, 4.565105438232422, 1.284951090812683, 0.0, 0.00029037926423196064, 0.0, 0.0004769593057659878, 0.0, 0.0002342371428117733, array([[ -4.19231460e-18]])]
[4.99999999999999, -1.275993485217914, 4.6080427169799805, 1.3226252794265747, 0.0, 0.00021807587777103457, 0.0, 0.00032854991340173367, 0.0, 0.00023268643111808303, array([[ -6.60789449e-19]])]
[5.04999999999999, -1.6569520448036492, 4.677873134613037, 0.7419147491455078, 0.0, 0.00023449163448916181, 0.0, 0.00023795110689521135, 0.0, 6.0887943914579415e-05, array([[ -4.09374684e-14]])]
[5.09999999999999, -1.1832051611225645, 4.698979377746582, 0.3610377013683319, 0.0, 0.00019522119410526876, 0.0, 0.00022418109067228874, 0.0, -4.987998703047909e-05, array([[ -7.38900900e-13]])]
[5.14999999999999, -0.23359194665048888, 4.701831817626953, -0.2140771746635437, 0.0, 0.00014262874222848574, 0.0, 0.00034110293788609775, 0.0, -0.00025353111808085866, array([[ -1.31523754e-13]])]
[5.1999999999999895, 0.7373511094377762, 4.689394474029541, -0.5207967162132263, 0.0, 0.00015500237406148643, 0.0, 0.00047258538257883084, 0.0, -0.00031564325889414776, array([[ -1.96809068e-15]])]
[5.249999999999989, 1.392877883417534, 4.635363578796387, -0.8289081454277039, 0.0, 0.00013419131065354388, 0.0, 0.0006876230491186752, 0.0, -0.0005028500579190544, array([[ -7.25325334e-18]])]
[5.299999999999989, 1.540852715305984, 4.612374305725098, -0.5047879219055176, 0.0, -1.1683959899808819e-05, 0.0, 0.0007358389902247155, 0.0, -0.0005774161658677063, array([[ -9.42463333e-15]])]
[5.349999999999989, 0.7586064215004539, 4.613136291503906, 0.5742568969726562, 0.0, 6.8062391573848585e-06, 0.0, 0.00033082632574140845, 0.0, -0.0005624906854734254, array([[ -8.17688341e-13]])]
[5.399999999999989, -0.5755914221174289, 4.636303424835205, 0.888445258140564, 0.0, -9.754222420743008e-05, 0.0, 0.00032365490830197437, 0.0, -0.00048226004490421504, array([[ -7.69575800e-15]])]
[5.449999999999989, -1.2367361660040839, 4.699432373046875, 0.7982404232025146, 0.0, -0.00010577104209447877, 0.0, 8.018762051868812e-05, 0.0, -0.00037637558410200003, array([[ -1.27449656e-14]])]
[5.4999999999999885, -1.4200839609634006, 4.71922492980957, 0.5032020211219788, 0.0, 1.5277575626809943e-05, 0.0, 8.734554399552714e-05, 0.0, -0.0003023608141306893, array([[ -2.28993539e-13]])]
[5.549999999999988, -0.9117445342501198, 4.728917121887207, -0.14547301828861237, 0.0, 0.0001098039849768178, 0.0, 0.00023682629892533987, 0.0, -0.0002682938270588248, array([[ -1.57978114e-13]])]
[5.599999999999988, 0.29588858658277395, 4.71826171875, -0.45219922065734863, 0.0, 0.00022564522083660292, 0.0, 0.00036091827754286424, 0.0, -0.0001736885850333705, array([[ -3.84952544e-15]])]
[5.649999999999988, 1.2341108374502547, 4.665836334228516, -0.9492219090461731, 0.0, 0.00031233827428470357, 0.0, 0.0005790366291158733, 0.0, -1.7526954582223903e-05, array([[ -1.75068501e-19]])]
[5.699999999999988, 1.8842134193275124, 4.638547420501709, -0.6273967623710632, 0.0, 0.00028583881719336767, 0.0, 0.000489821757738971, 0.0, 9.89465090885694e-05, array([[ -5.99054027e-16]])]
[5.749999999999988, 1.2715636701993653, 4.630065441131592, 0.4621911644935608, 0.0, 9.251142583240899e-05, 0.0, 0.00031778451143903266, 0.0, 0.0001697822076486382, array([[ -1.50811254e-12]])]
[5.799999999999987, -0.16985720416193892, 4.6521172523498535, 0.9746008515357971, 0.0, -3.0380226051679454e-05, 0.0, 0.00030893973936392625, 0.0, 0.00017903512223041077, array([[ -1.22146535e-15]])]
[5.849999999999987, -1.0311228954289096, 4.730995178222656, 1.0770868062973022, 0.0, 5.378558948560728e-05, 0.0, 0.0002355561710577482, 0.0, 8.902047278002841e-05, array([[ -4.35656807e-17]])]
[5.899999999999987, -1.4886905628778042, 4.764891147613525, 0.7084503769874573, 0.0, 0.00013617931441804745, 0.0, 0.0002483880851284149, 0.0, 3.575743779192771e-05, array([[ -1.30817272e-14]])]
[5.949999999999987, -1.1314172585289797, 4.787564754486084, 0.13550040125846863, 0.0, 0.00031243438942956883, 0.0, 0.0004090305136029562, 0.0, -3.061900863797172e-05, array([[ -2.40150024e-13]])]
[5.999999999999987, -0.09251570046296541, 4.785701274871826, -0.17109055817127228, 0.0, 0.000403398164498558, 0.0, 0.0005929278919326649, 0.0, -7.557614816828387e-05, array([[ -4.27008107e-14]])]
[6.0499999999999865, 0.7803485853989106, 4.749270915985107, -0.8065272569656372, 0.0, 0.0005078418753194505, 0.0, 0.0009521038052635516, 0.0, -9.551589033981714e-05, array([[ -1.80935762e-18]])]
[6.099999999999986, 1.8230227162651718, 4.7226176261901855, -0.7489013671875, 0.0, 0.0005970474066141554, 0.0, 0.0011176293529952914, 0.0, -0.00013773946224491943, array([[ -1.01180806e-17]])]
[6.149999999999986, 1.6232037935052068, 4.691201210021973, 0.027218516916036606, 0.0, 0.00021165213402234043, 0.0, 0.0007517081095747918, 0.0, -0.0002013823883319914, array([[ -8.98037873e-13]])]
[6.199999999999986, 0.5239221318820159, 4.699840545654297, 0.5468485355377197, 0.0, 0.00014661079963416136, 0.0, 0.00047633845449294407, 0.0, -0.0001813651204165092, array([[ -2.21564752e-13]])]
[6.249999999999986, -0.376395379964972, 4.761306285858154, 1.1016665697097778, 0.0, -4.978309001601362e-05, 0.0, 0.0003063231386824518, 0.0, -6.137343731935203e-05, array([[ -1.50384890e-17]])]
[6.299999999999986, -1.2528672208655627, 4.792175769805908, 0.878186821937561, 0.0, -0.0001737009438635256, 0.0, 0.0002862457118312299, 0.0, -4.436334596053846e-05, array([[ -6.58998521e-16]])]
[6.349999999999985, -1.3068679532725358, 4.827918529510498, 0.24111618101596832, 0.0, -0.0003095322253153511, 0.0, 0.0003785599100814883, 0.0, -8.485804885146745e-05, array([[ -3.78751977e-14]])]
[6.399999999999985, -0.8158535259123514, 4.82982063293457, -0.06478558480739594, 0.0, -0.0003939846290372284, 0.0, 0.0004965054279129046, 0.0, 2.249290343076808e-05, array([[ -4.59374776e-14]])]
[6.449999999999985, 0.3812063483857078, 4.8010945320129395, -0.7109923958778381, 0.0, -0.0005655199704286632, 0.0, 0.0007478459439261472, 0.0, 5.4410860271902836e-05, array([[ -7.00364686e-18]])]
[6.499999999999985, 1.5401388436444103, 4.774084091186523, -0.9096503853797913, 0.0, -0.0006268341150861558, 0.0, 0.0009020292840241177, 0.0, 0.00010963628055971551, array([[ -7.10005917e-20]])]
[6.549999999999985, 1.91853407362476, 4.718062877655029, -0.3928656280040741, 0.0, -0.0005636552870558064, 0.0, 0.0007454082982209929, 0.0, 0.00012859070525300624, array([[ -1.06582194e-14]])]
[6.5999999999999845, 1.1476956084296215, 4.713082790374756, 0.12531344592571259, 0.0, -0.00032806685368915036, 0.0, 0.00036114307853889974, 0.0, 7.428780247324657e-05, array([[ -7.50033695e-13]])]
[6.649999999999984, 0.191536004588758, 4.757852554321289, 1.2023956775665283, 0.0, -0.00038084125499033026, 0.0, 0.0003817500406969768, 0.0, 8.354665574368844e-05, array([[ -1.44711120e-18]])]
[6.699999999999984, -1.1513232057429852, 4.797215461730957, 1.2128219604492188, 0.0, -0.0003314081264339148, 0.0, 8.004964197011242e-05, 0.0, 7.837986837260035e-05, array([[ -5.10318224e-19]])]
[6.749999999999984, -1.6092869543172421, 4.8618059158325195, 0.6701499223709106, 0.0, -0.00014993222996700383, 0.0, 1.1572527976907244e-05, 0.0, 1.3478315140675663e-06, array([[ -4.34442124e-15]])]
[6.799999999999984, -1.1693288362417324, 4.878091335296631, 0.36656445264816284, 0.0, 2.0757330413335325e-05, 0.0, -4.240729222671828e-05, 0.0, 3.50657354704891e-05, array([[ -3.30485089e-14]])]
[6.849999999999984, -0.6090140751395045, 4.880156993865967, -0.284084677696228, 0.0, 0.00015278021343995553, 0.0, 4.530003545067188e-05, 0.0, -2.056420021647997e-05, array([[ -2.76857532e-15]])]
[6.8999999999999835, 0.6078828994203387, 4.865883827209473, -0.5905669927597046, 0.0, 0.00027561080845995867, 0.0, 0.00017206766240286024, 0.0, 1.2162003409288591e-05, array([[ -2.51840725e-17]])]
[6.949999999999983, 1.320898299187422, 4.808653831481934, -0.9174982309341431, 0.0, 0.0004201442869570146, 0.0, 0.0004291714453503419, 0.0, -3.295297282703847e-05, array([[ -3.52678407e-20]])]
[6.999999999999983, 1.5728218207042666, 4.782758712768555, -0.6071457862854004, 0.0, 0.00031095006172790355, 0.0, 0.0003996066148329659, 0.0, -3.180088916500177e-05, array([[ -7.68814440e-17]])]
[7.049999999999983, 0.8889657247196884, 4.777068614959717, 0.47706273198127747, 0.0, 0.00016108655722395945, 0.0, 0.0001382086207185381, 0.0, -0.0001375561839015688, array([[ -1.14171241e-13]])]
[7.099999999999983, -0.44746627236146236, 4.8066229820251465, 1.0013617277145386, 0.0, 9.032791060332833e-05, 0.0, 6.045815705391447e-05, 0.0, -2.039634277871165e-05, array([[ -5.24190312e-17]])]
[7.149999999999983, -1.3263311533145608, 4.872525691986084, 0.9700374603271484, 0.0, -0.00017259859279368842, 0.0, 2.0806916842422512e-05, 0.0, 7.855992468372284e-05, array([[ -3.43383139e-17]])]
[7.199999999999982, -1.6281925884950907, 4.898547172546387, 0.6772956848144531, 0.0, -0.00027794438133984986, 0.0, 7.757110455042444e-05, 0.0, 9.625261523097886e-05, array([[ -1.88103714e-15]])]
[7.249999999999982, -1.3039064052160811, 4.921845436096191, 0.029481962323188782, 0.0, -0.00040626990938853063, 0.0, 0.0003433787353032382, 0.0, 6.33191089983635e-05, array([[ -1.68564439e-14]])]
[7.299999999999982, -0.12517213564923213, 4.917546272277832, -0.27722927927970886, 0.0, -0.0005081300137659849, 0.0, 0.000466933595821327, 0.0, 0.00011275063538894452, array([[ -1.38799782e-15]])]
[7.349999999999982, 0.7493011939711884, 4.875951766967773, -0.9133227467536926, 0.0, -0.0006843359422678187, 0.0, 0.0009186778774783847, 0.0, 0.00017324640446774467, array([[ -1.20349645e-20]])]
[7.399999999999982, 1.7913336153365673, 4.846144199371338, -0.8831468224525452, 0.0, -0.0007081838065286383, 0.0, 0.0011107696657819586, 0.0, 0.0001762020204364948, array([[ -4.06222818e-20]])]
[7.4499999999999815, 1.559806415975094, 4.806056022644043, -0.06971247494220734, 0.0, -0.0004507306645447278, 0.0, 0.0006463577159588122, 0.0, 0.00023865839005058088, array([[ -7.41688887e-14]])]
[7.499999999999981, 0.5188079219349471, 4.81112813949585, 0.450015127658844, 0.0, -0.0004665504146500639, 0.0, 0.00036750096180832465, 0.0, 0.00015324450187816812, array([[ -6.81829920e-14]])]
[7.549999999999981, -0.3434783220737491, 4.867016315460205, 1.0034157037734985, 0.0, -0.00020031605017027882, 0.0, 0.00018131453035804626, 0.0, 0.00021821821515478055, array([[ -1.95675627e-17]])]
[7.599999999999981, -1.2574408645145596, 4.895238876342773, 0.7802522778511047, 0.0, -4.780461933325066e-05, 0.0, -8.411312144444764e-06, 0.0, 0.0002822997834340771, array([[ -5.09738048e-16]])]
[7.649999999999981, -1.2941002593301234, 4.925032615661621, 0.14469283819198608, 0.0, 0.0002009748396890763, 0.0, -9.161470595718181e-05, 0.0, 0.0003571431754187663, array([[ -2.19062447e-14]])]
[7.699999999999981, -0.6414373661074569, 4.9239182472229, -0.16123662889003754, 0.0, 0.0003272058852762838, 0.0, -0.00013634769792279588, 0.0, 0.0004315614225536388, array([[ -4.13428032e-15]])]
[7.7499999999999805, 0.36900366833061393, 4.888533115386963, -0.8078491687774658, 0.0, 0.0005706230825045761, 0.0, -6.639005969167103e-05, 0.0, 0.0005215904524204427, array([[ -1.50364068e-19]])]
[7.79999999999998, 1.1466237236224115, 4.8582072257995605, -1.0121939182281494, 0.0, 0.0006876789635941677, 0.0, -1.2669379366692954e-05, 0.0, 0.0005762273990977197, array([[ -8.51961113e-22]])]
[7.84999999999998, 1.8154336244072766, 4.790537357330322, -0.5913977026939392, 0.0, 0.0005022043823408534, 0.0, -4.950625693683042e-06, 0.0, 0.000570077048189457, array([[ -1.01889717e-16]])]
[7.89999999999998, 1.1457077346481384, 4.778293132781982, 0.04970308393239975, 0.0, 0.00027852558508106634, 0.0, -0.00011798581318943729, 0.0, 0.0005770582126386499, array([[ -1.99056122e-13]])]
[7.94999999999998, 0.060217877556768926, 4.808578014373779, 1.0036596059799194, 0.0, 0.00021518997505767017, 0.0, -8.238350807937549e-05, 0.0, 0.0005401451425739849, array([[ -5.35708799e-17]])]
[7.99999999999998, -1.1539667198583485, 4.840468883514404, 0.961914598941803, 0.0, 0.00010253500932953037, 0.0, -8.428829893254933e-05, 0.0, 0.0005042405722788812, array([[ -6.28144049e-17]])]
[8.04999999999998, -1.4898589734695853, 4.884881496429443, 0.3688667118549347, 0.0, -7.689107748466524e-05, 0.0, -0.0001366663094370068, 0.0, 0.0004138873077618867, array([[ -4.05027506e-14]])]
[8.09999999999998, -1.239302181898576, 4.890964031219482, 0.06376353651285172, 0.0, -0.0001470675411555818, 0.0, -0.0001755153827904627, 0.0, 0.00029773824708495333, array([[ -2.95743209e-14]])]
[8.14999999999998, -0.03336274702657782, 4.871232032775879, -0.5877509713172913, 0.0, -0.0003033621759134, 0.0, -2.5346120245952556e-05, 0.0, 0.00023568902434250685, array([[ -2.67644970e-17]])]
[8.199999999999982, 1.0215524089755492, 4.846670150756836, -0.8948884606361389, 0.0, -0.0003563893481243819, 0.0, 0.00019575312561871146, 0.0, 0.0001796792824774068, array([[ -2.89269859e-20]])]
[8.249999999999982, 1.5730540640167892, 4.786866188049316, -0.4703476130962372, 0.0, -0.00038624100186244884, 0.0, 0.00044744521778303996, 0.0, 0.00012685989886959066, array([[ -9.64731909e-16]])]
[8.299999999999983, 0.8869169784495619, 4.779265403747559, 0.04348710924386978, 0.0, -0.00033931125199080655, 0.0, 0.0001844178557618179, 0.0, 0.00010010962616467453, array([[ -1.90715587e-13]])]
[8.349999999999984, 0.03818602966256885, 4.816267013549805, 1.0083223581314087, 0.0, -0.00029651828698132635, 0.0, -8.309626842852141e-05, 0.0, 0.0001124601039359699, array([[ -4.26226496e-17]])]
[8.399999999999984, -1.2947634880822154, 4.84755802154541, 0.9216352701187134, 0.0, -0.00033938118241053024, 0.0, -0.0001356497990071854, 0.0, 0.0001101105792983699, array([[ -1.16988916e-16]])]
[8.449999999999985, -1.6880863259891046, 4.88857364654541, 0.31383857131004333, 0.0, -0.0002158599255738533, 0.0, -2.705033040595283e-05, 0.0, 0.00013386130121919654, array([[ -3.64959417e-14]])]
[8.499999999999986, -1.0135655394559362, 4.892931938171387, 0.008469950407743454, 0.0, -4.6804031700871794e-05, 0.0, 0.00011245297710248597, 0.0, 0.00018628642573817667, array([[ -2.27664661e-14]])]
[8.549999999999986, -0.2832090500416007, 4.869539737701416, -0.6431626081466675, 0.0, 5.890306965615836e-05, 0.0, 0.0005334123005462493, 0.0, 0.0002117614795625554, array([[ -6.88550684e-18]])]
[8.599999999999987, 0.9419811723586172, 4.8433837890625, -0.9495930075645447, 0.0, 0.00013333197438645638, 0.0, 0.0008519253078881368, 0.0, 0.00020708211713411215, array([[ -6.69568613e-21]])]
[8.649999999999988, 1.6416740400288257, 4.760336875915527, -1.1524085998535156, 0.0, 0.0001474256819238946, 0.0, 0.0013479384458554454, 0.0, 0.00015781290312307536, array([[ -6.47611402e-23]])]
[8.699999999999989, 1.837524138307199, 4.7244367599487305, -0.5669718384742737, 0.0, 8.089183290411178e-05, 0.0, 0.001120704002271343, 0.0, 0.00016703116528873525, array([[ -4.46207401e-16]])]
[8.74999999999999, 0.9530739524737006, 4.717989921569824, 0.4016781151294708, 0.0, -0.00012157328377495043, 0.0, 0.000501430549894411, 0.0, 0.00014470179363071687, array([[ -4.85432778e-13]])]
[8.79999999999999, 0.0993003159635898, 4.737685680389404, 0.87449049949646, 0.0, -0.00010893658688860752, 0.0, 0.00047006397368022125, 0.0, 7.305702987287273e-05, array([[ -1.75425936e-15]])]
[8.84999999999999, -1.190252481920643, 4.810000419616699, 0.9791268706321716, 0.0, -0.00017889859264812348, 0.0, 8.504240253829827e-05, 0.0, 6.439277319264869e-05, array([[ -8.45629170e-17]])]
[8.899999999999991, -1.64890912954323, 4.836423873901367, 0.6933260560035706, 0.0, -0.0001486123503063583, 0.0, -0.00010216748667415749, 0.0, 4.990945694929419e-05, array([[ -4.54394101e-15]])]
[8.949999999999992, -1.3600655344296204, 4.86065673828125, 0.0463106743991375, 0.0, -0.00013150116934214844, 0.0, -0.0002802344848835041, 0.0, -3.487916557962744e-05, array([[ -5.23311033e-14]])]
[8.999999999999993, -0.5019174600149914, 4.856828689575195, -0.26008033752441406, 0.0, -6.350551144222594e-05, 0.0, -0.00023496953361873928, 0.0, -0.00012559013902964616, array([[ -4.86279524e-15]])]
[9.049999999999994, 0.644686609417205, 4.815003395080566, -0.883927583694458, 0.0, -0.00015343665721198713, 0.0, -0.00017609682305871758, 0.0, -0.00017750901864602633, array([[ -7.53103216e-20]])]
[9.099999999999994, 1.4880558767858894, 4.785035133361816, -0.9046403169631958, 0.0, -0.00022283946635191727, 0.0, -9.990175296139261e-05, 0.0, -0.00020043928325072822, array([[ -6.38215736e-20]])]
[9.149999999999995, 1.6617284328304232, 4.739149570465088, -0.1858670562505722, 0.0, -0.0001763874453379112, 0.0, -0.0001265689906274752, 0.0, -0.0002390457651162101, array([[ -8.96570165e-14]])]
[9.199999999999996, 0.721811876459137, 4.740640163421631, 0.3324909508228302, 0.0, -0.0001284864192602712, 0.0, -0.000171031023624375, 0.0, -0.00013738772911713038, array([[ -3.96546480e-13]])]
[9.249999999999996, -0.24107060425316376, 4.792084693908691, 1.071255087852478, 0.0, -0.00013131896703606636, 0.0, -0.00026233030193030646, 0.0, -8.916550844423907e-05, array([[ -1.71655508e-17]])]
[9.299999999999997, -1.23879292390123, 4.82297945022583, 0.8857961297035217, 0.0, -0.00015313932796768111, 0.0, -0.0001774637043113954, 0.0, -0.00013654219145327405, array([[ -3.35140487e-16]])]
[9.349999999999998, -1.3814965424239631, 4.8603620529174805, 0.256187379360199, 0.0, -0.00016640890756743922, 0.0, 0.0001511962845493926, 0.0, -0.0001539328603221637, array([[ -6.73547848e-14]])]
[9.399999999999999, -0.6407710000629795, 4.863036155700684, -0.05021606385707855, 0.0, -0.00015918149216768743, 0.0, 0.0005436005683871639, 0.0, -0.00022721479153528214, array([[ -2.77137645e-14]])]
[9.45, 0.18645677172954173, 4.835592746734619, -0.7012684941291809, 0.0, -0.00023937359429658628, 0.0, 0.0010036553816285367, 0.0, -0.0002827569052908806, array([[ -4.59005066e-18]])]
[9.5, 1.4178317097919064, 4.808127403259277, -0.971959114074707, 0.0, -0.0003996713388133726, 0.0, 0.001351830163652418, 0.0, -0.00034157539762457725, array([[ -6.41132529e-21]])]
[9.55, 1.7805587084135042, 4.735642433166504, -0.7616947889328003, 0.0, -0.0003640555021970327, 0.0, 0.0012367107756131226, 0.0, -0.00033647274657798556, array([[ -6.40073259e-18]])]
[9.600000000000001, 1.734383763732389, 4.718523979187012, -0.25780192017555237, 0.0, -0.00022208369064128159, 0.0, 0.0006439918093686004, 0.0, -0.00034205105579251244, array([[ -5.34745237e-14]])]
[9.650000000000002, 0.43537456109380107, 4.736827850341797, 0.8327061533927917, 0.0, -0.0003512064442720491, 0.0, 0.0003187727255312788, 0.0, -0.00023565685370725704, array([[ -3.90223111e-15]])]
[9.700000000000003, -0.9558429803149736, 4.765717506408691, 0.9667858481407166, 0.0, -0.00036129613807467115, 0.0, 0.00023683867967247044, 0.0, -0.0001862475559730022, array([[ -2.05502613e-16]])]
[9.750000000000004, -1.3948376625450327, 4.820245742797852, 0.5858727097511292, 0.0, -0.00010422170432547379, 0.0, 0.00017333423347394068, 0.0, -0.0001201275476995611, array([[ -2.17112062e-14]])]
[9.800000000000004, -1.255108332301934, 4.83336067199707, 0.28605788946151733, 0.0, 7.743375785904753e-05, 0.0, 8.641852030434499e-05, 0.0, -4.969982144649641e-06, array([[ -9.15250220e-14]])]
[9.850000000000005, -0.6760410787769611, 4.82825231552124, -0.3638538420200348, 0.0, 0.0004296813066738425, 0.0, 0.00010495679232935232, 0.0, 0.00013463957955673717, array([[ -2.37204547e-15]])]
[9.900000000000006, 0.5342750747213164, 4.810418128967285, -0.6705998182296753, 0.0, 0.0006236372289933761, 0.0, 0.00016712829380987398, 0.0, 0.0002489713935036619, array([[ -1.23070120e-17]])]
[9.950000000000006, 1.3387451104549692, 4.744405269622803, -1.0355132818222046, 0.0, 0.0007736256668990998, 0.0, 0.00034045935443827266, 0.0, 0.000447815537991026, array([[ -3.32917298e-21]])]
[10.000000000000007, 1.795990671399515, 4.715268135070801, -0.6622753143310547, 0.0, 0.0005149022861640181, 0.0, 0.00018895971125126423, 0.0, 0.0005021019054032512, array([[ -7.50038576e-17]])]
[10.050000000000008, 1.170740732303355, 4.704226970672607, 0.4267224073410034, 0.0, 0.00033473985884311134, 0.0, -2.417128894551295e-05, 0.0, 0.00048653917239130926, array([[ -5.31471152e-13]])]
[10.100000000000009, -0.2715822262092767, 4.724898338317871, 0.9374950528144836, 0.0, 0.00020252605787315036, 0.0, -5.530859957125533e-05, 0.0, 0.0003483802368297544, array([[ -7.11708309e-16]])]
[10.15000000000001, -1.2396038834750647, 4.801405906677246, 1.0400831699371338, 0.0, 8.450519992161948e-05, 0.0, -0.00013014277967240807, 0.0, 0.00040207543738715753, array([[ -2.83718018e-17]])]
[10.20000000000001, -1.591378517553676, 4.828720569610596, 0.7461429834365845, 0.0, -8.557146782668048e-05, 0.0, -5.078252162458876e-05, 0.0, 0.00038387567086038595, array([[ -2.59699442e-15]])]
[10.25000000000001, -1.319814202146602, 4.854233264923096, 0.09744325280189514, 0.0, -0.00031700217138676804, 0.0, 0.0002160189956482215, 0.0, 0.00048768909040112384, array([[ -6.83170433e-14]])]
[10.300000000000011, -0.14722987535449367, 4.851127624511719, -0.20963464677333832, 0.0, -0.000512233153213832, 0.0, 0.0004612640753649086, 0.0, 0.0004919884643234799, array([[ -9.17704695e-15]])]
[10.350000000000012, 0.8877489183871169, 4.8115668296813965, -0.8570478558540344, 0.0, -0.000805329902235129, 0.0, 0.0010491569431870778, 0.0, 0.000510144569310841, array([[ -1.58926721e-19]])]
[10.400000000000013, 1.7384326737988742, 4.782974720001221, -0.7665737271308899, 0.0, -0.0008806632914002207, 0.0, 0.00127605392501204, 0.0, 0.0005339445998941387, array([[ -2.21167900e-18]])]
[10.450000000000014, 1.5390778781287373, 4.756545543670654, 0.15988589823246002, 0.0, -0.0005637324821439411, 0.0, 0.000614766657725326, 0.0, 0.0004888144736806585, array([[ -4.09958385e-13]])]
[10.500000000000014, 0.28028331992350536, 4.768898963928223, 0.676289439201355, 0.0, -0.00041758273790562853, 0.0, 0.000342133122832361, 0.0, 0.0005244882611792946, array([[ -1.77237986e-14]])]
[10.550000000000015, -0.5791873511504205, 4.832736968994141, 0.966080904006958, 0.0, -0.00035477915001019556, 0.0, 0.00013813336895533167, 0.0, 0.000349541445819139, array([[ -7.28562921e-17]])]
[10.600000000000016, -1.2241604287996888, 4.858818054199219, 0.7110546231269836, 0.0, -0.00039916848917650116, 0.0, 0.00012201611912440253, 0.0, 0.0002583358209718427, array([[ -2.44329354e-15]])]
[10.650000000000016, -1.2129069830253698, 4.881621360778809, 0.06954016536474228, 0.0, -0.0005575346722031824, 0.0, 2.8239885582104453e-05, 0.0, 0.00019479487238753892, array([[ -3.89659897e-14]])]
[10.700000000000017, -0.45237005533646624, 4.877248287200928, -0.2368682324886322, 0.0, -0.0006787292279261174, 0.0, 4.987110307596468e-05, 0.0, 0.00014741276007234006, array([[ -4.35242535e-15]])]
[10.750000000000018, 0.38966148377955395, 4.835058689117432, -0.8883817195892334, 0.0, -0.0007386690091138677, 0.0, 0.00020913582715032577, 0.0, 2.698103726471695e-05, array([[ -4.57206272e-20]])]
[10.800000000000018, 1.6249913088046015, 4.801329135894775, -1.0980421304702759, 0.0, -0.0007793991236653184, 0.0, 0.0003627588179968268, 0.0, -5.8219727634842095e-05, array([[ -1.50570837e-22]])]
[10.85000000000002, 2.0101598248258234, 4.73361349105835, -0.5035343766212463, 0.0, -0.0005732430444805581, 0.0, 0.00013921967575704396, 0.0, -0.00010043370237475084, array([[ -1.03598807e-19]])]
[10.90000000000002, 1.5697872176095844, 4.724025726318359, 0.01154609490185976, 0.0, -0.00038276190075026796, 0.0, -0.00010819995102287072, 0.0, -4.96282788831204e-05, array([[ -4.19270506e-13]])]
[10.95000000000002, 0.2554028177852279, 4.757977485656738, 1.065280795097351, 0.0, -0.0003569234481026486, 0.0, -0.00011064059952379444, 0.0, 7.074215511370096e-05, array([[ -3.47459321e-17]])]
[11.000000000000021, -1.1265362855531276, 4.791079044342041, 1.053205132484436, 0.0, -0.00038054182367910656, 0.0, -0.00016662438730499527, 0.0, 8.23866436566194e-05, array([[ -2.29928696e-17]])]
[11.050000000000022, -1.5623040290288628, 4.842840671539307, 0.5413016676902771, 0.0, -0.00028860216356054813, 0.0, -0.00020697866008362241, 0.0, 0.0001169452219541413, array([[ -2.18809405e-14]])]
[11.100000000000023, -1.1153958345204373, 4.853466033935547, 0.2381872534751892, 0.0, -0.0002413562475964445, 0.0, -0.000147869301706147, 0.0, 0.00010850382983483059, array([[ -6.91013255e-14]])]
[11.150000000000023, -0.4207270147948766, 4.843788146972656, -0.41217949986457825, 0.0, -0.00017446065650551115, 0.0, -1.6349872427807645e-05, 0.0, 0.00012989800988082794, array([[ -8.84901271e-16]])]
[11.200000000000024, 0.8003723333999524, 4.824190139770508, -0.7183908224105835, 0.0, -5.1499982723860935e-05, 0.0, 0.00012536830856585188, 0.0, 0.00014506622045567288, array([[ -3.30201272e-18]])]
[11.250000000000025, 1.4070808539539577, 4.7616353034973145, -0.777170717716217, 0.0, 4.454255729875373e-05, 0.0, 0.0003873475906132418, 0.0, 0.0002174863679070854, array([[ -2.76143168e-18]])]
[11.300000000000026, 1.3992037729173898, 4.741878986358643, -0.3482452929019928, 0.0, -4.9670667498870674e-05, 0.0, 0.00018606004822612678, 0.0, 0.00027985045621182374, array([[ -1.14678583e-14]])]
[11.350000000000026, 0.547617353565071, 4.75227689743042, 0.7393843531608582, 0.0, -2.4932398163625837e-05, 0.0, 2.1341106901552502e-05, 0.0, 0.0001252601591530641, array([[ -1.16951717e-14]])]
[11.400000000000027, -0.3373641741461935, 4.786011695861816, 0.9524253606796265, 0.0, -0.00014388188759611689, 0.0, 0.00012151297497213692, 0.0, 6.287435197478303e-05, array([[ -1.89295003e-16]])]
[11.450000000000028, -1.4644879922084508, 4.834808349609375, 0.6142702698707581, 0.0, -0.00012091235668399676, 0.0, -0.00023764171290747386, 0.0, 3.154020747531646e-05, array([[ -1.25963785e-14]])]
[11.500000000000028, -1.319635522074985, 4.8506855964660645, 0.23861554265022278, 0.0, -0.0001528157821810244, 0.0, -0.0003890890826388596, 0.0, -1.649183542209581e-05, array([[ -7.23524284e-14]])]
[11.55000000000003, -0.7499519310294859, 4.846157550811768, -0.3341515362262726, 0.0, -0.00015133771523126666, 0.0, -0.0005295870975390369, 0.0, -4.3961237339757603e-05, array([[ -2.57100484e-15]])]
[11.60000000000003, 0.2018543857857611, 4.829800605773926, -0.6408857107162476, 0.0, -0.0001654761973463204, 0.0, -0.0005167958960172232, 0.0, -4.4632901467950826e-05, array([[ -1.61806014e-17]])]
[11.65000000000003, 1.0764094257950785, 4.763312339782715, -1.2234954833984375, 0.0, -6.90580531101438e-05, 0.0, -0.00044203617879883347, 0.0, -4.3817460115500914e-05, array([[ -4.98138200e-24]])]
[11.700000000000031, 2.023810868225992, 4.725484848022461, -0.9943389892578125, 0.0, -0.00013022799436304415, 0.0, -0.0004058509399040758, 0.0, -7.38148532439443e-05, array([[ -1.31451461e-20]])]
[11.750000000000032, 1.6143621155135335, 4.691194534301758, 0.0685693621635437, 0.0, -8.022835014722807e-05, 0.0, -0.0004055639659891462, 0.0, -0.00011512892311113225, array([[ -1.01331336e-12]])]
[11.800000000000033, 0.6773175145006628, 4.705898761749268, 0.7147930264472961, 0.0, -5.889048114724161e-06, 0.0, -0.0003378606887079491, 0.0, -7.721202640769982e-05, array([[ -3.18068141e-14]])]
[11.850000000000033, -0.8918886989112627, 4.767435550689697, 1.2522616386413574, 0.0, -0.00015056715541826045, 0.0, -0.0004472510418631014, 0.0, 4.723814179031369e-05, array([[ -3.33099348e-19]])]
[11.900000000000034, -1.6880961494315416, 4.80561637878418, 1.125192403793335, 0.0, -0.00014576461873331943, 0.0, -0.00033058136649958414, 0.0, 0.000152258512666278, array([[ -3.59983315e-18]])]
[11.950000000000035, -1.6757075707167388, 4.859537124633789, 0.5039873123168945, 0.0, -7.80118230199134e-05, 0.0, -5.8755593728555235e-05, 0.0, 9.862591062534448e-05, array([[ -2.20247313e-14]])]
[12.000000000000036, -0.6099090808462133, 4.870043754577637, 0.19841481745243073, 0.0, -7.025048847970394e-05, 0.0, 0.00020264074839491827, 0.0, 0.00014177488277372231, array([[ -5.24866832e-14]])]
[12.050000000000036, 0.426312993202411, 4.859743118286133, -0.4455009996891022, 0.0, -5.0080830915033876e-05, 0.0, 0.0007312171113213194, 0.0, 0.00012878246109438907, array([[ -3.95163656e-16]])]
[12.100000000000037, 1.362063816228882, 4.841492176055908, -0.6209361553192139, 0.0, -4.511581873366903e-05, 0.0, 0.00107710828233453, 0.0, 0.0001058485967834086, array([[ -1.98153216e-17]])]
[12.150000000000038, 1.4650057848347353, 4.802948474884033, -0.14484545588493347, 0.0, -0.00010324442720438591, 0.0, 0.0007618998048308941, 0.0, 0.0001999053379890559, array([[ -1.39835543e-16]])]
[12.200000000000038, 1.2257713073985654, 4.808638572692871, 0.5002188086509705, 0.0, 4.188172372412366e-06, 0.0, 0.0003350067830213422, 0.0, 0.00015206652045153036, array([[ -4.91813160e-14]])]
[12.250000000000039, -0.17757895444049238, 4.865195274353027, 1.4289261102676392, 0.0, -0.00015966842446055602, 0.0, 0.00022165431813194286, 0.0, 0.00019318344439570612, array([[ -3.98956637e-22]])]
[12.30000000000004, -1.0346928159809905, 4.9101433753967285, 1.3601343631744385, 0.0, -9.90875794809278e-05, 0.0, -2.349597832671269e-05, 0.0, 0.00019050492203319118, array([[ -1.27178474e-21]])]
[12.35000000000004, -1.8256102021830158, 4.980007171630859, 0.7465245127677917, 0.0, 4.7444157255465704e-05, 0.0, -0.00010122225617887869, 0.0, 0.0002799369577710521, array([[ -1.97930188e-16]])]
[12.400000000000041, -1.1711453007012604, 4.99808406829834, 0.4406568109989166, 0.0, 0.00018918785708033731, 0.0, -8.64982513360278e-06, 0.0, 0.0002944370559782341, array([[ -2.61272829e-15]])]
[12.450000000000042, -0.2895256988685552, 5.003691673278809, -0.21146948635578156, 0.0, 0.0004245550883039647, 0.0, 0.00012571864794257514, 0.0, 0.0003723519647544757, array([[ -6.62691718e-16]])]
[12.500000000000043, 0.47700829524057986, 4.991006374359131, -0.5179499983787537, 0.0, 0.0005314842248799498, 0.0, 0.0002489320522727245, 0.0, 0.0003906831454486384, array([[ -1.00317958e-17]])]
[12.550000000000043, 1.3629843492002691, 4.936285495758057, -0.9200279116630554, 0.0, 0.0006543420827780306, 0.0, 0.000468813582265355, 0.0, 0.0003777891787011195, array([[ -3.12678483e-21]])]
[12.600000000000044, 1.5791083582914434, 4.909830570220947, -0.6043900847434998, 0.0, 0.0004909699612686338, 0.0, 0.0003637669982242403, 0.0, 0.00037367896658616366, array([[ -8.29873058e-18]])]
[12.650000000000045, 0.8045693115736359, 4.902801036834717, 0.46751609444618225, 0.0, 0.00025178533324848385, 0.0, -3.6095740448162534e-05, 0.0, 0.00034231214750443895, array([[ -1.33509501e-14]])]
[12.700000000000045, -0.022385083158021485, 4.929572582244873, 0.8881409168243408, 0.0, 0.00016468036966008474, 0.0, -0.00018286208596199438, 0.0, 0.00028919660832796014, array([[ -4.90538939e-17]])]
[12.750000000000046, -1.3573546856404284, 4.982415676116943, 0.7137498259544373, 0.0, -6.804882705815106e-05, 0.0, -0.00032581267627892693, 0.0, 0.00023586485279519212, array([[ -2.92241326e-16]])]
[12.800000000000047, -1.4081194324428215, 5.002662658691406, 0.3418692350387573, 0.0, -0.00028147307571171567, 0.0, -0.00019923313789497996, 0.0, 0.00016322062549110718, array([[ -3.85497303e-15]])]
[12.850000000000048, -1.058270096383985, 5.004623889923096, -0.23036205768585205, 0.0, -0.000555403940784472, 0.0, 0.0001384797429240132, 0.0, 0.000153376074805582, array([[ -3.84286042e-15]])]
[12.900000000000048, -0.24298197281639639, 4.991657733917236, -0.5364781618118286, 0.0, -0.0007429680055947333, 0.0, 0.0004748928185755347, 0.0, 0.00019268758264925567, array([[ -7.06555439e-18]])]
[12.950000000000049, 1.0826714693671093, 4.931239604949951, -1.1832574605941772, 0.0, -0.0011419588936770744, 0.0, 0.0009698824091876786, 0.0, 0.00012234646026033842, array([[ -9.90543162e-25]])]
[13.00000000000005, 1.9850119991237298, 4.8939208984375, -1.0077046155929565, 0.0, -0.001206316870757329, 0.0, 0.0011768065531184613, 0.0, 7.4143028472548e-05, array([[ -4.60396933e-22]])]
[13.05000000000005, 1.5998867145478726, 4.858222007751465, 0.04416166618466377, 0.0, -0.0006300442148520611, 0.0, 0.0005320441505676886, 0.0, 7.215638757168047e-05, array([[ -5.29412151e-14]])]
[13.100000000000051, 0.7769111416834006, 4.867102146148682, 0.5622648596763611, 0.0, -0.0006748169469623966, 0.0, 0.00032591440336324966, 0.0, 3.84965476052958e-05, array([[ -1.06199900e-14]])]
[13.150000000000052, -0.5512863248577236, 4.934037208557129, 1.3334834575653076, 0.0, -0.00024455103427005996, 0.0, 4.208577715316157e-05, 0.0, 5.900043787377796e-05, array([[ -1.98268332e-21]])]
[13.200000000000053, -1.6855756928110497, 4.983665466308594, 1.1274501085281372, 0.0, -0.00011683726199993376, 0.0, -0.00010289245045629083, 0.0, 0.0001249292612675398, array([[ -1.48570951e-19]])]
[13.250000000000053, -1.7407128799133937, 5.03336238861084, 0.5708970427513123, 0.0, -0.00018153021926732089, 0.0, -8.606293297139714e-05, 0.0, 0.0002598009887175487, array([[ -5.65196932e-16]])]
[13.300000000000054, -1.0615798881086516, 5.045914173126221, 0.26474693417549133, 0.0, -0.0002692285458345632, 0.0, -4.164488294201474e-05, 0.0, 0.0003306054883619326, array([[ -2.14718458e-15]])]
[13.350000000000055, -0.041457262212641253, 5.040098190307617, -0.3874689042568207, 0.0, -0.00039213435287424137, 0.0, 0.0002425147961665198, 0.0, 0.00046828823091569246, array([[ -3.82178209e-17]])]
[13.400000000000055, 1.0079907315515448, 5.015818119049072, -0.7710663676261902, 0.0, -0.000435278007387759, 0.0, 0.0004731038682608737, 0.0, 0.0005444343586673927, array([[ -3.11328301e-20]])]
[13.450000000000056, 1.5360592041200727, 4.959517478942871, -0.6664311289787292, 0.0, -0.0005391960874580653, 0.0, 0.0007794119355113442, 0.0, 0.0006712735619919123, array([[ -3.10456444e-22]])]
[13.500000000000057, 1.54318887398683, 4.942966461181641, -0.040706098079681396, 0.0, -0.00041856887853491037, 0.0, 0.00036603890240418724, 0.0, 0.0006470461215539971, array([[ -7.01133276e-15]])]
[13.550000000000058, 0.16998799567536454, 4.966345310211182, 0.8850380182266235, 0.0, -0.00032677280929574887, 0.0, 6.242574208852649e-05, 0.0, 0.0006430664310090782, array([[ -2.98031665e-17]])]
[13.600000000000058, -1.0121947692745599, 4.993274688720703, 0.8336442708969116, 0.0, -0.0003587979125394218, 0.0, 3.422426675776515e-05, 0.0, 0.0005680490549367477, array([[ -3.85883361e-17]])]
[13.650000000000059, -1.298963652579463, 5.028691291809082, 0.26599374413490295, 0.0, -0.00047606471444212525, 0.0, -0.0001677458211705992, 0.0, 0.0005445772075583719, array([[ -3.25497071e-15]])]
[13.70000000000006, -1.2128758847650574, 5.030904769897461, -0.03870532661676407, 0.0, -0.0004788175726189501, 0.0, -0.0002278158081483401, 0.0, 0.0005091884688343427, array([[ -1.46139647e-15]])]
[13.75000000000006, -0.22920241370191652, 5.002862930297852, -0.6905282735824585, 0.0, -0.0005720054541809682, 0.0, -0.00018881153565379047, 0.0, 0.0004050009225049724, array([[ -3.29665754e-17]])]
[13.800000000000061, 0.5394153360063211, 4.965798377990723, -1.0757195949554443, 0.0, -0.0006017114515805312, 0.0, -0.0001532390388448468, 0.0, 0.00037953632877611634, array([[ -1.54620190e-23]])]
[13.850000000000062, 1.6797366371362006, 4.887720584869385, -1.2994877099990845, 0.0, -0.0006374085558771128, 0.0, 2.4212961342217064e-06, 0.0, 0.00033717401898571294, array([[ -3.36582685e-26]])]
[13.900000000000063, 1.8278834053301254, 4.849721908569336, -0.9289277195930481, 0.0, -0.0004875266026788202, 0.0, -9.491906447453894e-05, 0.0, 0.00022576166131387616, array([[ -9.64561701e-21]])]
[13.950000000000063, 1.1123389202347027, 4.819232940673828, 0.15156809985637665, 0.0, -0.00026011940394061295, 0.0, -0.00033571650819443327, 0.0, 0.00027720134196631614, array([[ -1.36125901e-13]])]
[14.000000000000064, 0.18504806443550265, 4.836224555969238, 0.7972433567047119, 0.0, -0.0002809583807146668, 0.0, -0.00044571289261474516, 0.0, 0.0002598557905937105, array([[ -1.08036510e-15]])]
[14.050000000000065, -1.3918372018686487, 4.888102054595947, 0.8006367683410645, 0.0, -0.0002378268126210811, 0.0, -0.00036880195393772426, 0.0, 0.00018026378232618837, array([[ -4.61749590e-16]])]
[14.100000000000065, -1.615840467973612, 4.911731719970703, 0.4529449939727783, 0.0, -0.00015667042686992412, 0.0, -0.00027161061540728425, 0.0, 0.00017889250434001948, array([[ -1.12031905e-14]])]
[14.150000000000066, -1.2419979651882205, 4.919444561004639, -0.11689846217632294, 0.0, -3.064722911918542e-05, 0.0, -0.00010528466346259285, 0.0, 6.069307110125663e-05, array([[ -6.96606471e-15]])]
[14.200000000000067, -0.15134124107052807, 4.905485153198242, -0.5009239315986633, 0.0, 8.717862603835992e-05, 0.0, 0.0001366850398006113, 0.0, 4.721042515919311e-05, array([[ -6.13317478e-17]])]
[14.250000000000068, 0.8680541323658546, 4.854708671569824, -1.0300590991973877, 0.0, 0.0001950399079336925, 0.0, 0.000516442005456491, 0.0, -1.0907817398583778e-05, array([[ -5.22903664e-22]])]
[14.300000000000068, 1.7286546102378053, 4.821954727172852, -0.8549649715423584, 0.0, 0.00021522405261114753, 0.0, 0.0006681981841868299, 0.0, 2.2635423233962047e-06, array([[ -1.15541456e-19]])]
