time, uz, alt, vel_alt, uthe, roll, uphi, pitch, upsi, yaw, F
[0.0, 0.0, -0.0033538625575602055, 0.02957283891737461, 0.0, -0.00575169961599488, 0.0, 0.014931891634246039, 0.0, -0.07910463887402855, array([[-52.34766868]])]
[0.05, 52.354280034120215, -0.0029008169658482075, 0.02957283891737461, 0.0, -0.0057357553782232985, 0.0, 0.014897871389088727, 0.0, -0.0790786753164213, array([[-135.65202967]])]
[0.1, 135.65891450535162, -0.0024514528922736645, 0.02991294674575329, 0.0, -0.005699282462134766, 0.0, 0.014858101939483429, 0.0, -0.07911936052309733, array([[-294.19556783]])]
[0.15000000000000002, 294.20221165373226, 0.021794093772768974, 0.8285008668899536, 0.0, -0.005469575182610906, 0.0, 0.01089528893859607, 0.0, -0.07581790689751679, array([[-48.17917105]])]
[0.2, 47.94682080983386, 0.06642202287912369, 1.4203118085861206, 0.0, -0.004857989739925604, 0.0, 0.00737145969539092, 0.0, -0.06892890511167177, array([[  1.22597012e-07]])]
[0.25, -1.0269982551779036, 0.11165475100278854, 1.8403146266937256, 0.0, -0.0037341014023857433, 0.0, 0.005585266414328955, 0.0, -0.05965975524759091, array([[ -1.47042861e-14]])]
[0.3, -1.243480479869977, 0.2375382035970688, 2.0725204944610596, 0.0, -0.0018106217277094035, 0.0, 0.00274236542553524, 0.0, -0.04813400541197684, array([[  3.17937457e-19]])]
[0.35, -0.6051120619885624, 0.3129725754261017, 1.7142276763916016, 0.0, -0.00016546922452717868, 0.0, 0.0004832020148402092, 0.0, -0.03941023114786181, array([[ -7.72621006e-12]])]
[0.39999999999999997, 0.5106317876133101, 0.3980291783809662, 1.1430811882019043, 0.0, 0.0021531732782121378, 0.0, -0.0025903579689939907, 0.0, -0.02763374718617212, array([[-0.00024912]])]
[0.44999999999999996, 1.8368922331435087, 0.4364146590232849, 0.8387978076934814, 0.0, 0.003595585705709915, 0.0, -0.004503101451504688, 0.0, -0.01987602288043188, array([[-0.48293113]])]
[0.49999999999999994, 3.0373328536271678, 0.49018070101737976, 1.2055370807647705, 0.0, 0.003991663228919049, 0.0, -0.0038712213727294473, 0.0, -0.011437298550636757, array([[-0.00012696]])]
[0.5499999999999999, 2.3171090767484426, 0.6131932735443115, 2.241795301437378, 0.0, 0.0031678031148033208, 0.0, -0.00224013137382131, 0.0, -0.007461970010109338, array([[ -1.43053053e-12]])]
[0.6, 1.588605571748257, 0.6811084151268005, 2.6396453380584717, 0.0, 0.0024648005781257396, 0.0, -0.0017111587822201716, 0.0, -0.006505386412770356, array([[ -1.46586170e-31]])]
[0.65, 0.6463192710280419, 0.797187328338623, 3.190882921218872, 0.0, 0.0018133143620307234, 0.0, -0.0007684413387793919, 0.0, -0.00587479822215846, array([[ -1.17406693e-47]])]
[0.7000000000000001, 0.22504969871044161, 1.0507813692092896, 3.6971147060394287, 0.0, 0.0010736764057949508, 0.0, -0.0005398582498011989, 0.0, -0.0051448247440844565, array([[ -7.31445635e-66]])]
[0.7500000000000001, 0.18830035215616225, 1.2640721797943115, 3.375297784805298, 0.0, 0.00046845891033542563, 0.0, -0.00018411485320926936, 0.0, -0.004416362192897848, array([[ -6.40927767e-62]])]
[0.8000000000000002, 0.6946178475618363, 1.3552720546722412, 3.1563072204589844, 0.0, 0.00024487761034045434, 0.0, 3.3370270084471525e-05, 0.0, -0.0038807956604186193, array([[ -2.81511882e-47]])]
[0.8500000000000002, 1.4698617625236512, 1.574841856956482, 3.1322455406188965, 0.0, -3.990865010350788e-06, 0.0, 0.00025121547326924384, 0.0, -0.0030915573721938404, array([[ -3.89037898e-43]])]
[0.9000000000000002, 1.774409042954445, 1.7091553211212158, 3.607388973236084, 0.0, -3.295279003033322e-05, 0.0, 0.000313716180831235, 0.0, -0.0026377242753503434, array([[ -1.72831447e-63]])]
[0.9500000000000003, 1.018926826953888, 1.8152337074279785, 3.966848134994507, 0.0, -8.099582660516925e-05, 0.0, 0.0003240979617032099, 0.0, -0.0023759157947514462, array([[ -1.56053028e-77]])]
[1.0000000000000002, 0.25957832956314086, 2.075490951538086, 4.707514762878418, 0.0, -5.2578699531035e-05, 0.0, 0.0002580024317060219, 0.0, -0.009721215313657598, array([[ -1.21691680e-111]])]
[1.0500000000000003, -1.009080201148987, 2.432460069656372, 4.939858436584473, 0.0, -3.0071507338559785e-05, 0.0, 0.0003526275875522998, 0.0, -0.009341972370395933, array([[ -1.81170743e-130]])]
[1.1000000000000003, -1.7196859667301179, 2.567268133163452, 4.701109886169434, 0.0, -0.0001425957198352072, 0.0, 0.0004293840897473844, 0.0, -0.009000182999352912, array([[ -6.99932481e-113]])]
[1.1500000000000004, -1.5099152746200561, 2.8810672760009766, 4.0167388916015625, 0.0, -0.00030821588234846635, 0.0, 0.0006203236336062033, 0.0, -0.0084287318569161, array([[ -1.03243242e-95]])]
[1.2000000000000004, -0.8565000777244568, 2.9897780418395996, 3.7477166652679443, 0.0, -0.00040342911738884833, 0.0, 0.0007201798697802462, 0.0, -0.008073227476390641, array([[ -6.81430620e-73]])]
[1.2500000000000004, 0.0008456354141235384, 3.131995677947998, 3.362623453140259, 0.0, -0.0005109646517959112, 0.0, 0.0008820888260447029, 0.0, -0.007630257322190875, array([[ -2.59185991e-59]])]
[1.3000000000000005, 0.30667092442512517, 3.3164026737213135, 2.786900758743286, 0.0, -0.0006978962837144306, 0.0, 0.0010982239832297658, 0.0, -0.00691340844452233, array([[ -2.13147950e-42]])]
[1.3500000000000005, 0.5731060197353364, 3.5122463703155518, 2.2195732593536377, 0.0, -0.0008139303023748704, 0.0, 0.0013138633680525728, 0.0, -0.0062097045357339875, array([[ -1.56200282e-33]])]
[1.4000000000000006, 0.5991233143806458, 3.5824127197265625, 2.1814041137695312, 0.0, -0.000659268421082659, 0.0, 0.001174832956990106, 0.0, -0.0057623766320574745, array([[ -9.65491919e-29]])]
[1.4500000000000006, 0.42032145667076115, 3.6423542499542236, 2.1712472438812256, 0.0, -0.0005255583355711654, 0.0, 0.0009918090536824228, 0.0, -0.005326449421153719, array([[ -1.15155974e-28]])]
[1.5000000000000007, 0.1962923256158829, 3.7697885036468506, 2.080185890197754, 0.0, -0.0005384255371585296, 0.0, 0.0006243270301977658, 0.0, -0.004487378534420274, array([[ -1.18888290e-27]])]
[1.5500000000000007, -0.22201362597942353, 3.902576446533203, 1.5954633951187134, 0.0, -0.00035563006143274995, 0.0, 0.00032191668229733533, 0.0, -0.0036669193371667696, array([[ -1.58551613e-23]])]
[1.6000000000000008, -0.3309474506378174, 3.9582417011260986, 1.2233436107635498, 0.0, -0.00022344099646670889, 0.0, 0.0002540774600073485, 0.0, -0.0031477247894069016, array([[ -3.05415262e-15]])]
[1.6500000000000008, 0.0004958422184020994, 4.013099670410156, 0.6495394110679626, 0.0, -2.5081284961598584e-05, 0.0, 0.0001810436126745167, 0.0, -0.002354072788549761, array([[ -1.16949275e-12]])]
[1.7000000000000008, 0.16063024163363104, 4.026875019073486, 0.38106784224510193, 0.0, 0.00015564944197168684, 0.0, 0.0001682465401592621, 0.0, -0.0018483793789656447, array([[ -3.98056542e-10]])]
[1.7500000000000009, 0.6622311862813403, 4.028136730194092, -0.2011801302433014, 0.0, 0.00031056791597387377, 0.0, 0.00021225450737931913, 0.0, -0.0011880867305969864, array([[ -5.59111301e-10]])]
[1.800000000000001, 0.9788151862196077, 4.024075984954834, -0.16780626773834229, 0.0, 0.00039326548331069486, 0.0, 0.00024270604404647426, 0.0, -0.0007988036475775382, array([[ -1.35885861e-10]])]
[1.850000000000001, 0.9778101602959506, 4.0204572677612305, 0.14521366357803345, 0.0, 0.00033739284188803595, 0.0, 0.0002025354689061775, 0.0, -0.0005605189131012079, array([[ -9.87140142e-10]])]
[1.900000000000001, 0.3276576929687836, 4.054386615753174, 1.0423492193222046, 0.0, 0.0002051414226892708, 0.0, 0.00030389577238792753, 0.0, -0.0004366944555903678, array([[ -5.50290653e-14]])]
[1.950000000000001, -0.9206402428745675, 4.1040263175964355, 1.3489044904708862, 0.0, 0.00013447525644573886, 0.0, 0.0002626065187205647, 0.0, -0.0003085815575832615, array([[ -1.96793154e-17]])]
[2.000000000000001, -1.5195225812196733, 4.175080299377441, 0.9720300436019897, 0.0, -5.361879099636669e-07, 0.0, 0.0002879534161843745, 0.0, -0.0003024458649834591, array([[ -3.99421432e-14]])]
[2.0500000000000007, -1.0423108354210455, 4.20603609085083, 0.5959276556968689, 0.0, -0.0001430135663522497, 0.0, 0.00039060986245956285, 0.0, -0.0003044967677566203, array([[ -9.35035491e-12]])]
[2.1000000000000005, -0.2396823583598809, 4.223940372467041, 0.02244446985423565, 0.0, -0.0002354619651055696, 0.0, 0.0005387033602383451, 0.0, -0.0002871677570755372, array([[ -2.50060434e-11]])]
[2.1500000000000004, 0.7539453158274759, 4.21675968170166, -0.3605613708496094, 0.0, -0.0003095082218094867, 0.0, 0.0007026577049445692, 0.0, -0.0003140184696776558, array([[ -1.38192340e-12]])]
[2.2, 1.0735306812538616, 4.185908794403076, -0.4548802971839905, 0.0, -0.0003932538467363984, 0.0, 0.0008734559254321666, 0.0, -0.0003359978647986081, array([[ -3.93593748e-13]])]
[2.25, 0.8733608035747173, 4.1817779541015625, 0.47919902205467224, 0.0, -0.0001921262131286137, 0.0, 0.0006553465877489122, 0.0, -0.0004707589978432835, array([[ -6.48451941e-11]])]
[2.3, -0.008744599200201228, 4.199804782867432, 0.8213709592819214, 0.0, -0.00022013724228642014, 0.0, 0.0005782501875039444, 0.0, -0.0004265054792452815, array([[ -3.90160316e-13]])]
[2.3499999999999996, -1.0727044902439984, 4.266790866851807, 0.7511807084083557, 0.0, -0.00021400540322065255, 0.0, 0.0004599502861865671, 0.0, -0.00033562241221879566, array([[ -1.25970165e-14]])]
[2.3999999999999995, -1.0745936481356495, 4.2839765548706055, 0.49199968576431274, 0.0, -0.00017342423825100986, 0.0, 0.0004734452461741365, 0.0, -0.0001838856015262901, array([[ -4.86124456e-12]])]
[2.4499999999999993, -0.21315443707516446, 4.295703887939453, 0.11163582652807236, 0.0, -0.0001650785720179741, 0.0, 0.00046536048332382096, 0.0, -8.07074765097532e-05, array([[ -1.66205791e-11]])]
[2.499999999999999, 0.6825182924511342, 4.284614562988281, -0.4634092450141907, 0.0, -0.00017259582033446745, 0.0, 0.0005252593120285871, 0.0, 9.107615535424963e-05, array([[ -7.69525608e-14]])]
[2.549999999999999, 1.3813575350940999, 4.259620189666748, -0.6800663471221924, 0.0, -0.00012289093467226004, 0.0, 0.0005905448018108324, 0.0, 0.00025798671239069877, array([[ -2.94685628e-15]])]
[2.5999999999999988, 1.3577373852729826, 4.229575157165527, -0.11192021518945694, 0.0, -7.657214470225041e-05, 0.0, 0.0006137817297185981, 0.0, 0.00043855662527239164, array([[ -1.07461965e-11]])]
[2.6499999999999986, 0.441905382651406, 4.237027645111084, 0.5426735281944275, 0.0, -9.767458427656155e-05, 0.0, 0.0003160605476159781, 0.0, 0.00046486428352425816, array([[ -9.85206328e-12]])]
[2.6999999999999984, -0.5530619772723145, 4.289795875549316, 1.0576367378234863, 0.0, -4.375597630817362e-05, 0.0, 0.0004825636421901806, 0.0, 0.00038512736223355313, array([[ -1.30028751e-15]])]
[2.7499999999999982, -1.4271682424992311, 4.351834297180176, 0.6096925139427185, 0.0, 0.0001316830027332727, 0.0, 0.0006468363065286851, 0.0, 0.000269360964991873, array([[ -2.63467060e-14]])]
[2.799999999999998, -1.1779411645531392, 4.3674845695495605, 0.2305993288755417, 0.0, 0.00017244576371745909, 0.0, 0.000761643220834712, 0.0, 0.00019689146465123923, array([[ -4.05602061e-12]])]
[2.849999999999998, 0.010196669244538168, 4.369441509246826, -0.03715929761528969, 0.0, 0.00020021166274623682, 0.0, 0.0009422096746519977, 0.0, 0.00017500375192943326, array([[ -3.03192208e-12]])]
[2.8999999999999977, 0.758355528629623, 4.348458766937256, -0.6112990379333496, 0.0, 0.00031599806030664147, 0.0, 0.0011353128280433046, 0.0, 5.235718428139203e-05, array([[ -2.12949753e-15]])]
[2.9499999999999975, 1.5080218194872164, 4.296429634094238, -0.33405590057373047, 0.0, 0.0002547209035713073, 0.0, 0.001025323239651985, 0.0, 4.8430880960946156e-05, array([[ -1.03606694e-15]])]
[2.9999999999999973, 1.3471661980748189, 4.292286396026611, -0.022131796926259995, 0.0, 0.0001277487101055168, 0.0, 0.0007335995044773228, 0.0, 2.2721864038973207e-05, array([[ -7.46764896e-12]])]
[3.049999999999997, 0.34377138656752027, 4.303894519805908, 0.6309979557991028, 0.0, 4.5546008979484745e-05, 0.0, 0.000597824067985527, 0.0, 0.00018250947861105934, array([[ -1.54009396e-12]])]
[3.099999999999997, -0.649604992440293, 4.359918117523193, 1.0065735578536987, 0.0, -8.626296828697596e-05, 0.0, 0.00036124901582428227, 0.0, 0.00017472524790076684, array([[ -1.31232206e-15]])]
[3.149999999999997, -1.3996545626521097, 4.4184441566467285, 0.3952769339084625, 0.0, -0.000166153323438733, 0.0, 0.00028150567478502466, 0.0, 0.00015086232069414605, array([[ -7.24245216e-14]])]
[3.1999999999999966, -1.0994824539645784, 4.424216270446777, 0.20516307651996613, 0.0, -0.00019266105536548976, 0.0, 0.0003663833764788849, 0.0, 9.589093487431811e-05, array([[ -1.72561968e-12]])]
[3.2499999999999964, -0.1707898298931747, 4.424426555633545, -0.17685240507125854, 0.0, -0.00029214760645459355, 0.0, 0.0004642134039290888, 0.0, 5.067699704552275e-05, array([[ -4.58440805e-13]])]
[3.2999999999999963, 0.7503580478359874, 4.396142959594727, -0.7515873908996582, 0.0, -0.00026789027620435497, 0.0, 0.0006077471014250405, 0.0, 9.35948945537258e-06, array([[ -5.29883738e-17]])]
[3.349999999999996, 1.6559921052828432, 4.335046291351318, -0.6378495693206787, 0.0, -0.0002506116401352232, 0.0, 0.0007012427040600233, 0.0, 3.447254657063862e-05, array([[ -4.47775682e-18]])]
[3.399999999999996, 1.505498478330672, 4.322783946990967, -0.2112848162651062, 0.0, -0.00023032522538717618, 0.0, 0.0005298722506598506, 0.0, 4.866073622825572e-05, array([[ -1.12854441e-12]])]
[3.4499999999999957, 0.6101186204563936, 4.327698230743408, 0.44555532932281494, 0.0, -0.0001826418145004372, 0.0, 0.00040947660526287924, 0.0, 0.00010364385524256162, array([[ -5.25463949e-12]])]
[3.4999999999999956, -0.3826589259005691, 4.377883434295654, 1.0299290418624878, 0.0, -0.00022222792655795018, 0.0, 0.0004681147056309074, 0.0, 8.761343226527317e-05, array([[ -6.27751076e-16]])]
[3.5499999999999954, -1.3430036590397354, 4.446813106536865, 0.7035915851593018, 0.0, -0.00018535234094074667, 0.0, 0.0003683451316204562, 0.0, 4.8181858695434865e-05, array([[ -1.41951135e-15]])]
[3.599999999999995, -1.4739682362452138, 4.462775230407715, 0.4415845572948456, 0.0, -0.0001090466831830585, 0.0, 0.00030222423450153253, 0.0, 5.9832042571616404e-05, array([[ -4.49907357e-13]])]
[3.649999999999995, -0.7250612967680367, 4.472623348236084, 0.060244884341955185, 0.0, -9.902605178083966e-05, 0.0, 0.0003213324647568093, 0.0, 0.00014480065135866226, array([[ -9.48756742e-13]])]
[3.699999999999995, 0.1941135646300565, 4.458272933959961, -0.5149195194244385, 0.0, -2.046280503539258e-05, 0.0, 0.00028764867080171734, 0.0, 0.00010468982152270795, array([[ -2.19227957e-15]])]
[3.7499999999999947, 1.2936419709697389, 4.3980793952941895, -0.9449666738510132, 0.0, 1.96391256711313e-05, 0.0, 0.0004489585996833118, 0.0, 0.0002203481354716931, array([[ -2.47638577e-18]])]
[3.7999999999999945, 1.6764548125453296, 4.369417190551758, -0.39404937624931335, 0.0, 0.00013425350697439972, 0.0, 0.0003142770007740527, 0.0, 0.0001832755808964492, array([[ -6.05972224e-14]])]
[3.8499999999999943, 0.9649903711565446, 4.363096714019775, 0.06207389757037163, 0.0, -0.00012948166581114973, 0.0, 0.0002471920426414879, 0.0, 0.00015204981549961512, array([[ -5.37853720e-12]])]
[3.899999999999994, 0.18656940237225514, 4.404902458190918, 1.1546940803527832, 0.0, 2.98055872515012e-05, 0.0, 0.00018281383934381804, 0.0, 8.193619239189553e-05, array([[ -2.59184683e-17]])]
[3.949999999999994, -1.2901478905528785, 4.469757556915283, 0.9596443772315979, 0.0, -4.582548709144501e-05, 0.0, 0.0002270653648378193, 0.0, -4.687249507754996e-05, array([[ -1.62339014e-17]])]
[3.999999999999994, -1.574515939924866, 4.491827964782715, 0.7088108062744141, 0.0, -0.00021107325466450817, 0.0, 0.0002002754883121695, 0.0, -0.0001633823236605229, array([[ -2.32088216e-14]])]
[4.049999999999994, -0.9625901980809637, 4.515044212341309, -0.052986305207014084, 0.0, -0.0004502571728562288, 0.0, 0.0003397847520747089, 0.0, -0.0001850168691669872, array([[ -5.21361417e-13]])]
[4.099999999999993, -0.0489128123591097, 4.5113067626953125, -0.2446461319923401, 0.0, -0.0006135999311544986, 0.0, 0.0004891450415509022, 0.0, -0.00013856032234741566, array([[ -4.15697326e-14]])]
[4.149999999999993, 1.1101321568862021, 4.492325305938721, -0.6276348233222961, 0.0, -0.000711941189326772, 0.0, 0.000564900923285379, 0.0, -0.00020992382682059676, array([[ -2.19569299e-16]])]
[4.199999999999993, 1.6699798801876609, 4.449596405029297, -0.41591495275497437, 0.0, -0.000699176876942176, 0.0, 0.0006579928833696877, 0.0, -0.0002561457154358522, array([[ -1.25027677e-14]])]
[4.249999999999993, 1.1946868983060248, 4.444788932800293, 0.22754691541194916, 0.0, -0.00039194653343905915, 0.0, 0.00038203257610324565, 0.0, -0.0002536303117964376, array([[ -1.86130916e-12]])]
[4.299999999999993, 0.2517917503882186, 4.486006259918213, 1.1906195878982544, 0.0, -0.0005402467188879886, 0.0, 0.0003502341579459669, 0.0, -0.00012434351780750823, array([[ -3.06162481e-18]])]
[4.3499999999999925, -1.0885519742304461, 4.540107727050781, 1.4176849126815796, 0.0, -0.0002859528242793979, 0.0, 0.00037932632016843677, 0.0, -9.665481308250057e-05, array([[ -3.53575479e-21]])]
[4.399999999999992, -1.5615566009990873, 4.612529277801514, 0.9902582764625549, 0.0, -0.00019687273378652404, 0.0, 0.0001267177041429938, 0.0, -0.0001048738255850155, array([[ -3.43360365e-17]])]
[4.449999999999992, -1.2939764312244952, 4.643367290496826, 0.6125355362892151, 0.0, -0.00011024805019338132, 0.0, 2.5340661480899045e-05, 0.0, -6.558188873312128e-05, array([[ -8.82944763e-15]])]
[4.499999999999992, -0.5805994576960714, 4.661049842834473, 0.039058808237314224, 0.0, -3.103839117108236e-05, 0.0, 1.772288624673679e-05, 0.0, -0.0001859521733218568, array([[ -2.89296877e-14]])]
[4.549999999999992, 0.5701728427298657, 4.636669158935547, -0.3445487916469574, 0.0, -2.1033630937699662e-05, 0.0, 2.6380389205607306e-05, 0.0, -0.00023214512196629726, array([[ -1.73347630e-15]])]
[4.599999999999992, 1.2461573246493953, 4.608047962188721, -0.6968016028404236, 0.0, 1.4226382058949032e-05, 0.0, 9.028395299423667e-05, 0.0, -0.0002419222712061912, array([[ -5.60918656e-18]])]
[4.6499999999999915, 1.541716280659661, 4.591148376464844, -0.4017990529537201, 0.0, -1.0430876574902405e-05, 0.0, 0.0001545362584009506, 0.0, -0.0002855878303576701, array([[ -2.20166247e-15]])]
[4.699999999999991, 0.9392466087806993, 4.594097137451172, 0.5604914426803589, 0.0, 3.0408775371701297e-05, 0.0, 4.8808539217607953e-05, 0.0, -0.0003258786932756337, array([[ -2.30432248e-14]])]
[4.749999999999991, -0.4156836359444776, 4.628042697906494, 1.166972041130066, 0.0, -9.079437870680859e-05, 0.0, 6.447070223771264e-05, 0.0, -0.0002385540923119232, array([[ -8.01673562e-19]])]
[4.799999999999991, -1.3373364100772889, 4.7057085037231445, 1.1874750852584839, 0.0, -0.00044125347398318046, 0.0, 0.0001019896579108742, 0.0, -0.00020957663526160127, array([[ -9.24460668e-20]])]
[4.849999999999991, -1.6628497662600132, 4.7449798583984375, 0.8212149739265442, 0.0, -0.0005870014528908395, 0.0, 0.0002866906697145793, 0.0, -0.00015585889837028418, array([[ -1.08991264e-16]])]
[4.899999999999991, -1.150549643702805, 4.775146484375, 0.24871213734149933, 0.0, -0.0007861464236163637, 0.0, 0.0005502043038722678, 0.0, -9.327652147148061e-05, array([[ -5.60503690e-15]])]
[4.94999999999999, -0.12297557352296448, 4.776091575622559, -0.13483640551567078, 0.0, -0.0008878679171456073, 0.0, 0.0007821437520383278, 0.0, 2.5278066279172554e-05, array([[ -2.09417646e-15]])]
[4.99999999999999, 0.8044966357294491, 4.7489333152771, -0.7094773054122925, 0.0, -0.0011068773715702251, 0.0, 0.0012135237265952644, 0.0, 6.676336467135472e-05, array([[ -3.89665955e-19]])]
[5.04999999999999, 1.5866793912462893, 4.715962886810303, -0.7538405060768127, 0.0, -0.0012485132821261657, 0.0, 0.0014841373999300801, 0.0, 0.0001169161570650903, array([[ -3.49882032e-19]])]
[5.09999999999999, 1.3376135352570566, 4.687222003936768, -0.014809547923505306, 0.0, -0.0006695419048818914, 0.0, 0.0008389565847426152, 0.0, 7.996674933738431e-05, array([[ -1.49566415e-14]])]
[5.14999999999999, 0.26185629510042824, 4.725900173187256, 0.6351311206817627, 0.0, -0.0007098117628448318, 0.0, 0.00048658036561548355, 0.0, 7.889480553907734e-05, array([[ -2.83060884e-15]])]
[5.1999999999999895, -0.6990689894631478, 4.756721496582031, 1.1163538694381714, 0.0, -0.00028630872034660684, 0.0, 0.0004853774229966021, 0.0, -4.789931010528062e-06, array([[ -2.15663658e-19]])]
[5.249999999999989, -1.5536446650791915, 4.796050071716309, 0.8709077835083008, 0.0, -0.00013250779908996395, 0.0, 0.0005092376726355996, 0.0, -4.0326126843019866e-05, array([[ -2.06444271e-17]])]
[5.299999999999989, -1.5136595945432783, 4.830615520477295, 0.3163198232650757, 0.0, 6.844404821186133e-05, 0.0, 0.0004983566035028987, 0.0, 1.0132298587559162e-05, array([[ -1.89711132e-15]])]
[5.349999999999989, -0.6703445784319173, 4.827211856842041, -0.3719205856323242, 0.0, 0.00015148837587049396, 0.0, 0.0006563141357476056, 0.0, 8.95696196924749e-05, array([[ -1.27951382e-15]])]
[5.399999999999989, 0.45707762520760425, 4.812419891357422, -0.6394824385643005, 0.0, 0.00028083696734137065, 0.0, 0.0008830439006281388, 0.0, 0.00015539300104190087, array([[ -5.75524439e-19]])]
[5.449999999999989, 1.2964196717701852, 4.778701305389404, -0.9587158560752869, 0.0, 0.0003717740283913752, 0.0, 0.0011283540452686886, 0.0, 0.00017908100420885602, array([[ -6.37024452e-22]])]
[5.4999999999999885, 1.6683144472111018, 4.7225117683410645, -0.6066439151763916, 0.0, 0.00024934761616034835, 0.0, 0.0009187512408692227, 0.0, 0.000195085876372271, array([[ -5.27149385e-18]])]
[5.549999999999988, 1.023727408144623, 4.709726810455322, 0.03396003693342209, 0.0, 0.00010335671313199327, 0.0, 0.0006407113070336878, 0.0, 0.00023209367152011336, array([[ -1.85265883e-14]])]
[5.599999999999988, 0.05546168571898703, 4.75230598449707, 1.1807255744934082, 0.0, -2.4001457793822405e-05, 0.0, 0.00043712321514285886, 0.0, 0.0002703246321380685, array([[ -5.13729229e-20]])]
[5.649999999999988, -1.4789755554888397, 4.785231113433838, 1.1621239185333252, 0.0, -3.9059954398676104e-05, 0.0, 0.0003433765165409955, 0.0, 0.000216038033082567, array([[ -6.57417961e-20]])]
[5.699999999999988, -1.7364980822708458, 4.8389363288879395, 0.6498662829399109, 0.0, -0.0002622854015564658, 0.0, 0.0001941997796040594, 0.0, 3.7677483870159588e-06, array([[ -1.55553170e-16]])]
[5.749999999999988, -1.0231120174117385, 4.856076240539551, 0.26929759979248047, 0.0, -0.00037524406899010427, 0.0, 0.00021930128072165556, 0.0, -0.0001400529727729285, array([[ -1.97170427e-15]])]
[5.799999999999987, -0.11097485722042423, 4.853243827819824, -0.3053589463233948, 0.0, -0.0005485632244883903, 0.0, 0.0002936405128415636, 0.0, -0.0002516972393895945, array([[ -6.88135813e-17]])]
[5.849999999999987, 1.056944122960791, 4.805055618286133, -0.8875324726104736, 0.0, -0.0007341380771612406, 0.0, 0.00042132353456864004, 0.0, -0.0004459840374182069, array([[ -2.03791510e-19]])]
[5.899999999999987, 1.612525262322277, 4.7830634117126465, -0.5803137421607971, 0.0, -0.0007514263306698755, 0.0, 0.0005292844504311734, 0.0, -0.0005399314655595912, array([[ -3.11938038e-18]])]
[5.949999999999987, 1.2796525425035508, 4.780137062072754, 0.5735752582550049, 0.0, -0.0004354227043838561, 0.0, 0.000150380814170113, 0.0, -0.000539765300524387, array([[ -7.07670494e-15]])]
[5.999999999999987, 0.34944414478168595, 4.801517009735107, 1.0198253393173218, 0.0, -0.00045376069877381815, 0.0, 0.00022528799416494756, 0.0, -0.00046442510948746014, array([[ -8.42731331e-19]])]
[6.0499999999999865, -0.9924632087405771, 4.851607799530029, 1.418993592262268, 0.0, -0.00032709954174999515, 0.0, 0.00013615016296130453, 0.0, -0.00041297707283215364, array([[ -1.91890177e-23]])]
[6.099999999999986, -1.7287549517638983, 4.92750358581543, 1.0740675926208496, 0.0, -4.554527948572043e-05, 0.0, 0.00011944828389567375, 0.0, -0.00025642414947671437, array([[ -2.97236567e-20]])]
[6.149999999999986, -1.539802363475785, 4.961674213409424, 0.6992459893226624, 0.0, 8.443192705721347e-05, 0.0, 0.0002850202715286924, 0.0, -0.00024089935664087732, array([[ -1.43782631e-17]])]
[6.199999999999986, -0.8517500312626363, 4.984806060791016, 0.010720263235270977, 0.0, 0.0003721564769756271, 0.0, 0.0005973745712165071, 0.0, -0.00011975448066052892, array([[ -1.00037000e-16]])]
[6.249999999999986, 0.4137536891913043, 4.979893207550049, -0.25810885429382324, 0.0, 0.000556787324520279, 0.0, 0.0008435000348257166, 0.0, -3.634864312960724e-05, array([[ -1.81230760e-17]])]
[6.299999999999986, 1.040785600496456, 4.937900066375732, -0.7043856978416443, 0.0, 0.0006827060008485936, 0.0, 0.0011127191224726207, 0.0, 0.00017368770289152502, array([[ -1.60457674e-20]])]
[6.349999999999985, 1.49942499092035, 4.913641452789307, 0.09470979869365692, 0.0, 0.00039763023136958343, 0.0, 0.0007367369369837327, 0.0, 0.00030891430248343145, array([[ -7.32735080e-18]])]
[6.399999999999985, 0.9908633640650661, 4.9286112785339355, 0.7426115870475769, 0.0, 0.00017737463996007918, 0.0, 0.0005573670527332488, 0.0, 0.00032146128732277234, array([[ -1.04886796e-17]])]
[6.449999999999985, -0.623740215677768, 4.954306125640869, 1.181393027305603, 0.0, 0.00013666825864569246, 0.0, 0.00040149448913761476, 0.0, 0.0002523184633091417, array([[ -2.19372905e-21]])]
[6.499999999999985, -1.3971226862110198, 5.036556720733643, 1.3392990827560425, 0.0, 0.0001724196654974254, 0.0, 0.00010211655993366608, 0.0, 0.0001944743569997909, array([[ -5.38945778e-24]])]
[6.549999999999985, -1.8892564412616193, 5.10621452331543, 0.6731090545654297, 0.0, 0.00014356803248289114, 0.0, -4.608040446186764e-05, 0.0, 0.00014253733001762427, array([[ -1.97707027e-20]])]
[6.5999999999999845, -1.3834544511511921, 5.119948387145996, 0.405521035194397, 0.0, 0.0001433280542230446, 0.0, -3.177850723996424e-05, 0.0, 0.00011573296560857149, array([[ -7.79984949e-18]])]
[6.649999999999984, -0.36780831552296883, 5.120546340942383, -0.28456932306289673, 0.0, 6.734691751215978e-05, 0.0, 4.9308526194505655e-05, 0.0, 0.0001074761212974385, array([[ -1.13559842e-17]])]
[6.699999999999984, 0.553154487106949, 5.107411861419678, -0.5529018640518188, 0.0, 2.4439800262110455e-05, 0.0, 7.31467292827611e-05, 0.0, 8.70762806344044e-05, array([[ -1.58318403e-20]])]
[6.749999999999984, 1.304967911746353, 5.07714319229126, -0.8199173212051392, 0.0, 9.969273479335973e-06, 0.0, 0.00021070295570186325, 0.0, 6.397996469369273e-05, array([[ -1.16376590e-22]])]
[6.799999999999984, 1.341401310702786, 5.03031587600708, -0.4437226951122284, 0.0, -6.737342128243958e-05, 0.0, 0.00010562848363892516, 0.0, 4.126832774309474e-06, array([[ -4.26960061e-19]])]
[6.849999999999984, 0.635353393798694, 5.041581153869629, 0.670873761177063, 0.0, -0.0001412177151926927, 0.0, -8.493688761235718e-05, 0.0, 9.90510887366758e-05, array([[ -1.09551809e-16]])]
[6.8999999999999835, -0.338456857798621, 5.055300712585449, 0.7601848244667053, 0.0, -0.00015029501800751862, 0.0, 3.980381897880132e-05, 0.0, 8.100324960785688e-05, array([[ -8.61480124e-19]])]
[6.949999999999983, -1.2708866287767888, 5.103188514709473, 0.4498509168624878, 0.0, -8.124032311617244e-05, 0.0, 9.692812397358468e-05, 0.0, -2.84109124196171e-05, array([[ -1.17526956e-18]])]
[6.999999999999983, -1.4225453062374145, 5.111222743988037, 0.187974750995636, 0.0, -3.0224699269775412e-05, 0.0, 0.00018895864808783478, 0.0, 2.300932310056174e-05, array([[ -1.58971007e-17]])]
[7.049999999999983, -0.6509042826909572, 5.096707820892334, -0.50017249584198, 0.0, -3.886652710670476e-05, 0.0, 0.00041937018260212604, 0.0, 7.493989115426808e-06, array([[ -3.44999648e-18]])]
[7.099999999999983, 0.26304141234979034, 5.077557563781738, -0.7687207460403442, 0.0, -2.9263676078343057e-05, 0.0, 0.0006070037014767245, 0.0, 2.2328949453441497e-05, array([[ -2.93729283e-22]])]
[7.149999999999983, 1.4437513537295164, 4.986876964569092, -1.22663414478302, 0.0, -0.00011741912458291084, 0.0, 0.0009299567816291564, 0.0, 1.891148559361579e-05, array([[ -5.29307566e-26]])]
[7.199999999999982, 1.9199332336317751, 4.963865280151367, -0.9830108284950256, 0.0, -0.000105170309893136, 0.0, 0.0007017382555274936, 0.0, -1.866580916172936e-05, array([[ -8.75943344e-24]])]
[7.249999999999982, 1.5852212899867446, 4.935186862945557, -0.3628951907157898, 0.0, -8.140006805461746e-05, 0.0, 0.0004661971884005653, 0.0, 4.777555076387189e-05, array([[ -1.10786438e-17]])]
[7.299999999999982, 0.645746275799349, 4.940328121185303, 0.6126413345336914, 0.0, -0.0002461847359609973, 0.0, 7.468610412867938e-05, 0.0, 1.8451125895598373e-05, array([[ -4.17905619e-17]])]
[7.349999999999982, -0.6998197358362377, 4.974304676055908, 1.0795934200286865, 0.0, -9.324444911480901e-05, 0.0, 0.00014912768118855498, 0.0, -4.2575268588351936e-05, array([[ -1.68280074e-20]])]
[7.399999999999982, -1.5034995660446584, 5.037652969360352, 0.9235028028488159, 0.0, 4.614084366131333e-05, 0.0, 0.00018156123639103948, 0.0, -3.7506505537057904e-05, array([[ -8.79781780e-20]])]
[7.4499999999999815, -1.4783217784762384, 5.065406799316406, 0.5541300177574158, 0.0, -4.358426689226881e-06, 0.0, 0.00027313516958198906, 0.0, -4.004010029772304e-05, array([[ -1.08046522e-17]])]
[7.499999999999981, -0.7487992713265121, 5.078078269958496, -0.019252151250839233, 0.0, -5.172699385955788e-05, 0.0, 0.000518120261729099, 0.0, -2.5385802569361753e-05, array([[ -1.66112156e-17]])]
[7.549999999999981, 0.4051069420129061, 5.042230606079102, -0.7324929237365723, 0.0, -0.00011683735972601842, 0.0, 0.0009666637036525145, 0.0, -4.886252468018081e-05, array([[ -5.75562852e-19]])]
[7.599999999999981, 1.1466417989619078, 5.025602340698242, -0.8320559859275818, 0.0, -0.00014972091244263574, 0.0, 0.0011573448488317116, 0.0, -4.113767571035405e-05, array([[ -1.64941875e-22]])]
[7.649999999999981, 1.5977967601157725, 4.988903522491455, -0.7780267000198364, 0.0, -0.0001859547456258911, 0.0, 0.0009774380861675295, 0.0, -0.00014381165343965233, array([[ -1.65829007e-21]])]
[7.699999999999981, 1.2512894032802435, 4.96613883972168, 0.1411961317062378, 0.0, -0.00012120769788750436, 0.0, 0.00045999313143932536, 0.0, -3.38296490114183e-05, array([[ -2.19475562e-16]])]
[7.7499999999999805, -0.025263089425861616, 4.983194828033447, 0.7877993583679199, 0.0, -0.00016143438936724966, 0.0, 0.0003072238694703959, 0.0, 3.4282735576279786e-05, array([[ -3.07065632e-18]])]
[7.79999999999998, -0.9586527439095082, 5.057674884796143, 0.9576128125190735, 0.0, -0.0001461531098578116, 0.0, 0.00022498284727178646, 0.0, -2.0836983613986164e-05, array([[ -3.30031340e-20]])]
[7.84999999999998, -1.5157677902970463, 5.079923152923584, 0.7015350461006165, 0.0, -0.00017482475965130705, 0.0, 0.00034889088155713716, 0.0, -0.0001322873045064701, array([[ -1.72731823e-18]])]
[7.89999999999998, -1.196925664421171, 5.102995872497559, 0.1302458494901657, 0.0, -0.00022644429231216185, 0.0, 0.0005366014768747028, 0.0, -0.00017884768160422306, array([[ -1.81023344e-17]])]
[7.94999999999998, -0.20414241745602338, 5.0994744300842285, -0.25226521492004395, 0.0, -0.0002756408459423547, 0.0, 0.0007722296643385964, 0.0, -0.00022238892032905693, array([[ -2.28626505e-18]])]
[7.99999999999998, 0.8710738868191839, 5.0545973777771, -0.9432641863822937, 0.0, -0.00036457535465441127, 0.0, 0.001190525644867547, 0.0, -0.00028605698387128026, array([[ -5.12139156e-24]])]
[8.04999999999998, 1.5864495024420322, 5.026153087615967, -0.9599835872650146, 0.0, -0.00040037664848851254, 0.0, 0.0014376053288919657, 0.0, -0.0002782041724701907, array([[ -7.34262347e-24]])]
[8.09999999999998, 1.449373766959645, 4.986571788787842, -0.2109667807817459, 0.0, -0.0003230560141814627, 0.0, 0.0008170737946670506, 0.0, -0.00031058568234599687, array([[ -2.02058456e-17]])]
[8.14999999999998, 0.2709024296719581, 4.990346431732178, 0.43921178579330444, 0.0, -0.00031022005422184326, 0.0, 0.0006340413837946619, 0.0, -0.00021782897763044824, array([[ -1.00925404e-16]])]
[8.199999999999982, -0.716407142627053, 5.033624649047852, 0.7714754343032837, 0.0, -0.00025218386449875736, 0.0, 0.00019902316608910232, 0.0, -2.4554560433947455e-05, array([[ -1.14538884e-18]])]
[8.249999999999982, -1.413176343936473, 5.058101177215576, 0.48529815673828125, 0.0, -0.00018817845925571015, 0.0, 7.138162572022384e-05, 0.0, 2.8568846330706693e-05, array([[ -2.19115879e-17]])]
[8.299999999999983, -1.0277540879538283, 5.068051815032959, -0.0771237388253212, 0.0, -8.791508983905621e-05, 0.0, -0.00017043721672937103, 0.0, 0.0001983505554785271, array([[ -1.44218931e-17]])]
[8.349999999999984, -0.06763827893137932, 5.055655002593994, -0.46044841408729553, 0.0, -6.815547594738997e-06, 0.0, -0.0002523586803474374, 0.0, 0.00032377293930865533, array([[ -2.96167608e-19]])]
[8.399999999999984, 0.8158204235900194, 4.994734287261963, -1.14632248878479, 0.0, 7.490121147991737e-05, 0.0, -0.0002885871041741805, 0.0, 0.00044885311010624447, array([[ -3.44280634e-26]])]
[8.449999999999985, 1.7703223546287046, 4.960779190063477, -1.138081669807434, 0.0, 0.00012365912584701402, 0.0, -0.0002706438498338436, 0.0, 0.0005135847380155461, array([[ -1.11908106e-25]])]
[8.499999999999986, 1.5378344409102576, 4.906710147857666, -0.4773945212364197, 0.0, 6.09945690356907e-07, 0.0, -0.00022890442475723073, 0.0, 0.0005375408096986379, array([[ -2.40490772e-18]])]
[8.549999999999986, 0.5457035509971903, 4.911632537841797, 0.6045308113098145, 0.0, 3.398738972908094e-05, 0.0, -0.00011749295656181596, 0.0, 0.0005444509653456489, array([[ -1.05336947e-15]])]
[8.599999999999987, -0.43367786111868817, 4.929502964019775, 0.7048938274383545, 0.0, -5.277508018393908e-05, 0.0, -0.00010048674963927744, 0.0, 0.0005216963175742322, array([[ -1.84405102e-17]])]
[8.649999999999988, -1.3422668271567675, 4.956439018249512, 0.6575322151184082, 0.0, -0.0001816420416187923, 0.0, -0.00017610616999619438, 0.0, 0.00044281076627851777, array([[ -2.79114632e-17]])]
[8.699999999999989, -1.4679697945956143, 4.979004383087158, 0.13659358024597168, 0.0, -0.0002774143463035833, 0.0, -0.00021222516043719518, 0.0, 0.0003248130407920839, array([[ -1.79523466e-16]])]
[8.74999999999999, -0.6211127286776899, 4.975472927093506, -0.24445055425167084, 0.0, -0.0004038189076930388, 0.0, -5.219710843539308e-05, 0.0, 0.00026680008190278266, array([[ -2.42981607e-17]])]
[8.79999999999999, 0.09571505608409647, 4.941467761993408, -0.8198320865631104, 0.0, -0.0005189193373133031, 0.0, 0.0001817024032172154, 0.0, 0.00018194294236542136, array([[ -1.05891283e-21]])]
[8.84999999999999, 1.4129515488911422, 4.856536865234375, -1.3720630407333374, 0.0, -0.0005595137724260204, 0.0, 0.0004937843942286137, 0.0, 0.00012217202188311664, array([[ -5.06239752e-26]])]
[8.899999999999991, 1.9619139583278449, 4.821022033691406, -1.0646499395370483, 0.0, -0.0005357068850629587, 0.0, 0.00045474495909325244, 0.0, 4.986436027780854e-05, array([[ -1.04440265e-23]])]
[8.949999999999992, 1.6662813610266896, 4.789565086364746, -0.44651395082473755, 0.0, -0.000377886509378368, 0.0, 5.080293397143719e-05, 0.0, 9.6843856505898e-05, array([[ -4.27019449e-17]])]
[8.999999999999993, 0.8216876859907062, 4.790544033050537, 0.53006511926651, 0.0, -0.00033113067708911634, 0.0, -4.369086825201624e-05, 0.0, 7.730455188883483e-05, array([[ -1.31558044e-15]])]
[9.049999999999994, -0.6150781317502247, 4.822193622589111, 1.0774420499801636, 0.0, -0.00010909771106957689, 0.0, -1.9233277360536374e-05, 0.0, 0.00011927662731174678, array([[ -2.68748807e-19]])]
[9.099999999999994, -1.4121780097838492, 4.8916215896606445, 1.0717368125915527, 0.0, -2.6722244858306448e-05, 0.0, -0.00016113282602161165, 0.0, 0.0002071117605730035, array([[ -6.62181175e-20]])]
[9.149999999999995, -1.6563945086635652, 4.942434310913086, 0.40135064721107483, 0.0, -8.984564603543067e-05, 0.0, 2.7953562533197136e-05, 0.0, 0.00030539479853850226, array([[ -2.72663309e-17]])]
[9.199999999999996, -0.9839743412304671, 4.948930263519287, 0.13378505408763885, 0.0, -0.00012193739618746278, 0.0, 0.0002192678249584954, 0.0, 0.0003243487530315146, array([[ -3.11451018e-16]])]
[9.249999999999996, 0.1591965766064826, 4.945501327514648, -0.2489161640405655, 0.0, -0.0002411780891751382, 0.0, 0.0003985598956702949, 0.0, 0.0003841626109164555, array([[ -4.00244260e-17]])]
[9.299999999999997, 0.965158895906061, 4.912140369415283, -0.7885881066322327, 0.0, -0.00029060061341621254, 0.0, 0.0007534974150433768, 0.0, 0.0003979253554821952, array([[ -3.89122332e-21]])]
[9.349999999999998, 1.5625283311307432, 4.877363204956055, -0.7359694242477417, 0.0, -0.00027528733761178454, 0.0, 0.0006765346835249032, 0.0, 0.00040847844727314554, array([[ -3.37052384e-20]])]
[9.399999999999999, 1.2189893491510302, 4.856743335723877, 0.14816716313362122, 0.0, -0.00016343612204337653, 0.0, 0.00023389617741516308, 0.0, 0.00034533215107829897, array([[ -1.62667730e-15]])]
[9.45, -0.023166908143086595, 4.874567031860352, 1.107123613357544, 0.0, -0.00023922146048173092, 0.0, 7.399701398009321e-05, 0.0, 0.00031887419431160253, array([[ -2.02838814e-17]])]
[9.5, -1.0095220796642825, 4.935786724090576, 0.9681326746940613, 0.0, -8.550853306824931e-05, 0.0, 0.00011676625552564735, 0.0, 0.00027335945864051216, array([[ -2.57765307e-19]])]
[9.55, -1.5395996201196687, 4.966744899749756, 0.6060386300086975, 0.0, 6.575905659344637e-05, 0.0, 0.00030798565713065733, 0.0, 0.00021217735571996601, array([[ -4.15005491e-17]])]
[9.600000000000001, -1.300240488169715, 4.985068321228027, 0.03457840532064438, 0.0, 0.00036661784676928497, 0.0, 0.0007708768212348326, 0.0, 8.746958016217716e-05, array([[ -1.24903763e-16]])]
[9.650000000000002, -0.20999946718662965, 4.955365180969238, -0.3486258089542389, 0.0, 0.0005269167931712894, 0.0, 0.0013025751464523713, 0.0, 8.489366918122977e-07, array([[ -6.61925023e-18]])]
[9.700000000000003, 0.7145693530542777, 4.938321590423584, -0.9240704774856567, 0.0, 0.0006023308225526135, 0.0, 0.0017279167524085382, 0.0, -2.8139478234837998e-05, array([[ -7.48115819e-23]])]
[9.750000000000004, 1.5938973412839696, 4.849117755889893, -0.9106929898262024, 0.0, 0.0006141625944369369, 0.0, 0.002087918411020505, 0.0, -0.00011256533799656557, array([[ -1.16745922e-25]])]
[9.800000000000004, 1.7010877078515478, 4.833266735076904, -0.6158089637756348, 0.0, 0.0003863342347084481, 0.0, 0.0014542987500412428, 0.0, -6.0073380594480626e-05, array([[ -7.18817532e-19]])]
[9.850000000000005, 0.8188420128496364, 4.819307804107666, 0.025792447850108147, 0.0, 0.00030913827003287945, 0.0, 0.0008154172854657396, 0.0, -3.24113319947545e-05, array([[ -3.07594490e-15]])]
[9.900000000000006, -0.15353389132674475, 4.844149589538574, 0.8330146074295044, 0.0, 4.099652888765607e-05, 0.0, 0.0004122913216966557, 0.0, -8.748840769382512e-05, array([[ -1.39538296e-17]])]
[9.950000000000006, -1.3376127976151184, 4.879641056060791, 0.9042396545410156, 0.0, -0.00013898230498391963, 0.0, 0.0001528305577947578, 0.0, -7.115449584883969e-05, array([[ -3.11292691e-18]])]
[10.000000000000007, -1.6170696430173706, 4.916195392608643, 0.37496304512023926, 0.0, -0.00035770746015610487, 0.0, -1.794000157963277e-05, 0.0, -0.0001223912413813775, array([[ -4.08104161e-16]])]
[10.050000000000008, -0.8748796631782312, 4.921939849853516, -0.007245469372719526, 0.0, -0.00046036454961798236, 0.0, -0.00019721311470058894, 0.0, -0.00017595984697530462, array([[ -4.38708109e-16]])]
[10.100000000000009, 0.037273429730441864, 4.9021220207214355, -0.5828102827072144, 0.0, -0.0008461168211896436, 0.0, -0.00026301409656147713, 0.0, -0.00023995720197721504, array([[ -4.11181961e-19]])]
[10.15000000000001, 1.2075003946125507, 4.83335018157959, -1.2039215564727783, 0.0, -0.0011674755973733943, 0.0, -0.0002466891823036269, 0.0, -0.0002483538618706934, array([[ -1.15334438e-22]])]
[10.20000000000001, 1.7509868263150568, 4.801529884338379, -0.9428181052207947, 0.0, -0.001007625319703605, 0.0, -0.00024241054110738351, 0.0, -0.00027324236747184856, array([[ -5.13092878e-22]])]
[10.25000000000001, 1.5977187591623516, 4.774721145629883, -0.32849666476249695, 0.0, -0.0006148317449479873, 0.0, -0.0003542727541394414, 0.0, -0.00024830462949482733, array([[ -3.12029337e-16]])]
[10.300000000000011, 0.6648095364440236, 4.782276630401611, 0.6432904601097107, 0.0, -0.0005812988264904781, 0.0, -0.00030530069668163176, 0.0, -0.00020390201410512798, array([[ -5.29950087e-16]])]
[10.350000000000012, -0.6771366991521787, 4.81760835647583, 1.1147671937942505, 0.0, -0.0003519398452129961, 0.0, -0.00023591193090818132, 0.0, -0.00013946455144786405, array([[ -1.30445598e-19]])]
[10.400000000000013, -1.4891647604238245, 4.885051727294922, 1.0208505392074585, 0.0, -0.00039553746345188056, 0.0, -0.0003835188889934345, 0.0, -7.789582628021181e-05, array([[ -2.28522978e-19]])]
[10.450000000000014, -1.477185084272176, 4.934580326080322, 0.2739095091819763, 0.0, -0.0002698232079436482, 0.0, -0.00037877084416151847, 0.0, 9.235269644555338e-05, array([[ -6.05211806e-17]])]
[10.500000000000014, -0.7080550245912746, 4.937392234802246, 0.08265970647335052, 0.0, -0.0002524825235317631, 0.0, -0.00028952810234773944, 0.0, 0.0001971995021529537, array([[ -3.56527617e-16]])]
[10.550000000000015, 0.4410622183475647, 4.931344985961914, -0.6222171783447266, 0.0, -0.0002771947965511503, 0.0, -0.0002131906008107165, 0.0, 0.0003113261604578534, array([[ -2.88045669e-17]])]
[10.600000000000016, 1.0725494905337691, 4.896371841430664, -0.7077802419662476, 0.0, -0.0003563382581741107, 0.0, 6.13616803311601e-05, 0.0, 0.0004453126501016359, array([[ -3.44884211e-20]])]
[10.650000000000016, 1.4344312249943614, 4.865497589111328, -0.6263025403022766, 0.0, -0.0002377258615239807, 0.0, 4.082667582837039e-05, 0.0, 0.0004861168762040037, array([[ -4.53686982e-19]])]
[10.700000000000017, 1.0549971861355008, 4.85215950012207, 0.29715242981910706, 0.0, -0.00024617800458831324, 0.0, -0.00024055775415770576, 0.0, 0.0004350693625921184, array([[ -1.68004639e-15]])]
[10.750000000000018, -0.22915612112730577, 4.8751444816589355, 0.9393355846405029, 0.0, -0.00017115113012967762, 0.0, -0.00026547209514807876, 0.0, 0.0004537756698490013, array([[ -1.82468865e-18]])]
[10.800000000000018, -1.2141880744434894, 4.943295955657959, 1.1101396083831787, 0.0, -0.0003168347543493769, 0.0, -0.0002078587842957889, 0.0, 0.0004844688244622021, array([[ -1.19946888e-20]])]
[10.85000000000002, -1.720522085390985, 4.978664398193359, 0.7481813430786133, 0.0, -0.00042187192132058654, 0.0, -4.772807885969289e-05, 0.0, 0.0005282786412946603, array([[ -6.35106119e-18]])]
[10.90000000000002, -1.3459033832624556, 5.004672050476074, 0.06095583364367485, 0.0, -0.0007164250578937487, 0.0, 0.0003915141543848497, 0.0, 0.0005814019885434412, array([[ -1.01127710e-16]])]
[10.95000000000002, -0.09341629294026635, 5.001153469085693, -0.2072574943304062, 0.0, -0.0008832631745359555, 0.0, 0.0007549101934853816, 0.0, 0.0005715994085815022, array([[ -2.38275488e-17]])]
[11.000000000000021, 0.7681079487763346, 4.9687347412109375, -0.7828766703605652, 0.0, -0.001109938153697387, 0.0, 0.001375029362054871, 0.0, 0.0006058988603876552, array([[ -1.66948355e-21]])]
[11.050000000000022, 1.4925959704704583, 4.929210662841797, -0.9648252129554749, 0.0, -0.0012015446953235693, 0.0, 0.0016840720345431667, 0.0, 0.0005665379753802275, array([[ -3.85085359e-23]])]
[11.100000000000023, 1.4479323046058417, 4.8847551345825195, -0.25644177198410034, 0.0, -0.0007313937021884915, 0.0, 0.0008650801838736907, 0.0, 0.0006140162015232147, array([[ -8.36741915e-17]])]
[11.150000000000023, 0.4380592862255873, 4.885097980499268, 0.3904489576816559, 0.0, -0.00045748048760064336, 0.0, 0.0005305695699198947, 0.0, 0.0005595045104685845, array([[ -9.20410860e-16]])]
[11.200000000000024, -0.5439424442872396, 4.9230780601501465, 0.7668544054031372, 0.0, -0.0006695848006863483, 0.0, 0.00032427937811127706, 0.0, 0.00035527369266557314, array([[ -9.86748278e-18]])]
[11.250000000000025, -1.2882939498871566, 4.948380470275879, 0.5435985922813416, 0.0, -0.000547711943278581, 0.0, 2.1242744916348492e-05, 0.0, 0.00030935205344439966, array([[ -1.08085256e-16]])]
[11.300000000000026, -1.1701243464797735, 4.961903095245361, -0.01250785868614912, 0.0, -0.0002455014290888737, 0.0, -0.00044330319305917784, 0.0, 0.00029912845570729635, array([[ -1.60656155e-16]])]
[11.350000000000026, -0.3232220523850991, 4.951889514923096, -0.39484164118766785, 0.0, 2.739761586413722e-05, 0.0, -0.000626145993827686, 0.0, 0.00022927028136472772, array([[ -5.70770307e-18]])]
[11.400000000000027, 0.44255029917880895, 4.9079813957214355, -0.9710615277290344, 0.0, 0.00041237084104543264, 0.0, -0.0007694297208695001, 0.0, 0.00013681862036299383, array([[ -3.55257004e-23]])]
[11.450000000000028, 1.6438400374241173, 4.8062286376953125, -1.2476292848587036, 0.0, 0.0006342141958066706, 0.0, -0.0008516997461830105, 0.0, 6.674341866703952e-05, array([[ -1.37002931e-26]])]
[11.500000000000028, 1.88816161429137, 4.782707214355469, -0.9889727830886841, 0.0, 0.00045528421888265855, 0.0, -0.0007814898179997038, 0.0, 8.571738229973816e-05, array([[ -1.95871688e-22]])]
[11.55000000000003, 1.348141728490591, 4.753325462341309, -0.3673246204853058, 0.0, 0.00024634468142735265, 0.0, -0.0006226581430309581, 0.0, 0.00010470037724756428, array([[ -2.73900142e-16]])]
[11.60000000000003, 0.42953580797463686, 4.7571797370910645, 0.605268657207489, 0.0, 1.516234806316313e-05, 0.0, -0.000623055784375428, 0.0, 0.0001325892695841278, array([[ -1.27332739e-15]])]
[11.65000000000003, -0.9162331559956063, 4.789340019226074, 0.9824653267860413, 0.0, -8.456683017231848e-05, 0.0, -0.0004966488297099018, 0.0, 0.00011777929166444598, array([[ -3.63462296e-18]])]
[11.700000000000031, -1.6120038142576816, 4.8396453857421875, 0.6724094748497009, 0.0, 2.1084653187313763e-05, 0.0, -0.0002609025900513085, 0.0, 9.786222919392876e-05, array([[ -1.47903579e-16]])]
[11.750000000000032, -1.2393662599809465, 4.8573808670043945, 0.2991454601287842, 0.0, 7.084720327041392e-05, 0.0, -6.559456733528484e-05, 0.0, 6.094201780639644e-05, array([[ -2.11715850e-15]])]
[11.800000000000033, -0.5252515193019042, 4.855727672576904, -0.2735464870929718, 0.0, 0.00022154858486811123, 0.0, 0.00030144514269817566, 0.0, 7.530766189320038e-05, array([[ -1.16757142e-16]])]
[11.850000000000033, 0.8348697862271222, 4.83506441116333, -0.9205543994903564, 0.0, 0.00027497650733906303, 0.0, 0.000619305364508284, 0.0, 7.148190677609018e-05, array([[ -4.16261528e-19]])]
[11.900000000000034, 1.5363213752042504, 4.781662940979004, -0.8054481148719788, 0.0, 0.00026979601088191195, 0.0, 0.001015212586278819, 0.0, 0.0001819584802417983, array([[ -2.69228893e-20]])]
[11.950000000000035, 1.6432727671414615, 4.754868507385254, -0.37554827332496643, 0.0, 0.00027154240648578833, 0.0, 0.0005154865533914451, 0.0, 0.00016924743351575894, array([[ -2.39518510e-16]])]
[12.000000000000036, 0.9125194682721051, 4.757944107055664, 0.5828067064285278, 0.0, 0.00010824903848754755, 0.0, 0.0002900805090164223, 0.0, 3.575622560046136e-05, array([[ -1.58937877e-15]])]
[12.050000000000036, -0.41181027495115835, 4.791635513305664, 1.1609947681427002, 0.0, 0.0002182724062017069, 0.0, -8.254973640495089e-05, 0.0, 5.882798738666875e-05, array([[ -7.20289607e-20]])]
[12.100000000000037, -1.3296677014585587, 4.8862996101379395, 1.2131325006484985, 0.0, -0.0001032916218538423, 0.0, -0.00024144471268319555, 0.0, 5.598348065558239e-05, array([[ -2.88107482e-21]])]
[12.150000000000038, -1.622431034420617, 4.915433406829834, 0.955856442451477, 0.0, -0.0003829545269366487, 0.0, -0.00010727907571784199, 0.0, 3.120920993333421e-05, array([[ -6.83275973e-19]])]
[12.200000000000038, -1.301046859334223, 4.953505992889404, 0.3850434422492981, 0.0, -0.0008468504106597283, 0.0, 0.00022269668790746226, 0.0, 7.509568359793081e-05, array([[ -2.16292696e-16]])]
[12.250000000000039, 0.01505032129865161, 4.959473609924316, 0.0018458740087226033, 0.0, -0.0010794216380032207, 0.0, 0.0004552014987156218, 0.0, 0.00015519191555594356, array([[ -2.48073015e-16]])]
[12.30000000000004, 0.736855800566613, 4.939576625823975, -0.571120023727417, 0.0, -0.0014920524461336038, 0.0, 0.0008902131798103577, 0.0, 0.00011363817098972842, array([[ -2.78676365e-19]])]
[12.35000000000004, 1.5532505282862112, 4.910048007965088, -0.7124823331832886, 0.0, -0.0015259645205137663, 0.0, 0.0008980005874490889, 0.0, 6.64969444374383e-05, array([[ -3.36456691e-20]])]
[12.400000000000041, 1.4166320639103651, 4.8765549659729, -0.17215795814990997, 0.0, -0.0008642667484471676, 0.0, 0.000400712705777147, 0.0, 7.982156182482277e-05, array([[ -2.37867818e-16]])]
[12.450000000000042, 0.5336544376630339, 4.902690887451172, 0.8967040777206421, 0.0, -0.0006438177695581894, 0.0, -3.1465056123128265e-06, 0.0, 0.00011034146871648834, array([[ -6.49324501e-16]])]
[12.500000000000043, -0.34991192784649255, 4.928398609161377, 0.9857944250106812, 0.0, -0.00035063687422981824, 0.0, 3.1275074703742834e-05, 0.0, 0.00020609260023215448, array([[ -2.30892147e-19]])]
[12.550000000000043, -1.3306180734543596, 4.986593246459961, 0.8459559679031372, 0.0, -7.792739901518256e-05, 0.0, -5.286473079425637e-05, 0.0, 7.940671702389068e-05, array([[ -1.96238826e-18]])]
[12.600000000000044, -1.4438263011896053, 5.000288963317871, 0.18498218059539795, 0.0, 3.113898506000981e-05, 0.0, -4.206695934801918e-05, 0.0, 7.805530977704444e-05, array([[ -1.45811304e-16]])]
[12.650000000000045, -0.5511785575454122, 5.000033378601074, -0.0826573520898819, 0.0, 0.00013208857458259528, 0.0, 3.688954350029174e-05, 0.0, 3.237121382255956e-05, array([[ -7.31776025e-17]])]
[12.700000000000045, 0.08814190427539878, 4.974421501159668, -0.6570387482643127, 0.0, 0.00023574148713366184, 0.0, 0.00016189207338016765, 0.0, -6.960751256449605e-05, array([[ -2.68599522e-20]])]
[12.750000000000046, 1.2885157103179954, 4.898976802825928, -1.2603167295455933, 0.0, 0.0002564261442240561, 0.0, 0.0003786985982503556, 0.0, -6.4520418889951e-05, array([[ -4.60795863e-24]])]
[12.800000000000047, 1.5620201221769676, 4.865021705627441, -0.9930793046951294, 0.0, 0.0002466755179341657, 0.0, 0.00026347347001376864, 0.0, -9.45450333789609e-05, array([[ -4.11780501e-23]])]
[12.850000000000048, 1.315200405098498, 4.82992696762085, 0.13784831762313843, 0.0, -1.682465043130329e-05, 0.0, -8.389110529881885e-05, 0.0, -5.023833432019126e-05, array([[ -5.68646052e-17]])]
[12.900000000000048, 0.4970330226933584, 4.838822841644287, 0.5916008353233337, 0.0, 6.52645028256077e-05, 0.0, -0.00017314547729988065, 0.0, -4.366978224401324e-05, array([[ -3.73660754e-16]])]
[12.950000000000049, -0.9403692298168312, 4.871685028076172, 1.0465275049209595, 0.0, -6.3846644324109675e-06, 0.0, -0.0001860917832943346, 0.0, 5.765747894015936e-05, array([[ -2.44360370e-19]])]
[13.00000000000005, -1.7779029048746453, 4.929440498352051, 0.8275097012519836, 0.0, 3.955800212380185e-05, 0.0, -0.00011045753146245555, 0.0, 0.00010013872051105655, array([[ -3.77738674e-18]])]
[13.05000000000005, -1.4826666759550573, 4.952702522277832, 0.4567110240459442, 0.0, 7.371638161482982e-05, 0.0, -6.712799611578313e-05, 0.0, 0.00013933500324699, array([[ -2.00982721e-16]])]
[13.100000000000051, -0.7610052000088616, 4.958649158477783, -0.11664950847625732, 0.0, 3.852448019828123e-05, 0.0, 0.00011638448924584474, 0.0, 0.00019986259179614692, array([[ -9.10266885e-17]])]
[13.150000000000052, 0.5561408623764292, 4.943703651428223, -0.5001868605613708, 0.0, 2.2817285684617962e-05, 0.0, 0.0003055396272061473, 0.0, 0.00015333371653625428, array([[ -1.27054678e-18]])]
[13.200000000000053, 1.3697501974916086, 4.896142959594727, -0.8639178276062012, 0.0, -3.5533044913233695e-05, 0.0, 0.0005427433061202555, 0.0, 0.00017624848779984706, array([[ -8.36104808e-22]])]
[13.250000000000053, 1.7937822400755252, 4.861272811889648, -0.6438555121421814, 0.0, -9.46768384909036e-05, 0.0, 0.000361186560927967, 0.0, 0.00020405793667175917, array([[ -3.55968329e-19]])]
[13.300000000000054, 1.2680470738378355, 4.847689151763916, 0.29990148544311523, 0.0, -7.283067073781924e-05, 0.0, -5.359973888535908e-05, 0.0, 0.0001800532912859049, array([[ -1.95945959e-15]])]
[13.350000000000055, 0.0030046769732163412, 4.871181488037109, 1.3422553539276123, 0.0, -5.911495174876689e-05, 0.0, -0.00011583690602092207, 0.0, 0.00016083578661275357, array([[ -2.00213497e-18]])]
[13.400000000000055, -0.9791173608682585, 4.943222999572754, 1.2076741456985474, 0.0, 1.7483528125386195e-05, 0.0, -0.00020737318325008135, 0.0, 0.00015088389443862303, array([[ -1.26154251e-21]])]
[13.450000000000056, -1.6431098939591322, 4.9829487800598145, 0.8521971106529236, 0.0, 2.360969625169152e-06, 0.0, -0.00024091793456292824, 0.0, 0.00020129304988553327, array([[ -1.31506756e-18]])]
[13.500000000000057, -1.4392891876295908, 5.014754295349121, 0.28187310695648193, 0.0, -0.00012090695314858172, 0.0, -0.00019943444888824292, 0.0, 0.00027818125964458075, array([[ -1.06145988e-16]])]
[13.550000000000058, -0.4050924293039715, 5.016869068145752, -0.10101748257875443, 0.0, -0.0003013047903034256, 0.0, -0.00015089384112030487, 0.0, 0.000268919628999944, array([[ -4.82420714e-17]])]
[13.600000000000058, 0.45959269758116, 4.991507053375244, -0.6760433912277222, 0.0, -0.0003881478426163836, 0.0, -5.6394843184758e-05, 0.0, 0.0002397422220530475, array([[ -1.34130716e-20]])]
[13.650000000000059, 1.2747361767009135, 4.956621170043945, -0.9743655323982239, 0.0, -0.00044353740257089695, 0.0, 7.24443203019413e-05, 0.0, 0.00024089532316281037, array([[ -1.82835017e-23]])]
[13.70000000000006, 1.4432577380004805, 4.899917125701904, -0.6175972819328308, 0.0, -0.00045575752366932713, 0.0, 3.4752530894172353e-06, 0.0, 0.00021191354734684186, array([[ -2.34645106e-19]])]
[13.75000000000006, 0.6725017788917759, 4.886796474456787, 0.018999934196472168, 0.0, -0.00017339204805644898, 0.0, -0.00016421509917233414, 0.0, 0.00015545180334915703, array([[ -1.00781330e-15]])]
[13.800000000000061, -0.24405366974230758, 4.921636581420898, 0.8106167316436768, 0.0, -0.00019041182009993374, 0.0, -9.481796137290397e-05, 0.0, 0.00021630665664666511, array([[ -5.77566949e-18]])]
[13.850000000000062, -1.4978907950909344, 4.943545341491699, 0.7613170146942139, 0.0, -0.0003348397612921934, 0.0, -0.00017956149945835348, 0.0, 0.00028629146019542147, array([[ -1.06562739e-17]])]
[13.900000000000063, -1.6066572912908161, 4.973430633544922, 0.11812855303287506, 0.0, -0.0005155158714465457, 0.0, -0.0001993090297864467, 0.0, 0.0003257622214721934, array([[ -2.27197023e-16]])]
[13.950000000000063, -0.6426777582252396, 4.9720048904418945, -0.14901308715343475, 0.0, -0.0006609450737763694, 0.0, -0.00014456118176621807, 0.0, 0.00039032759243860094, array([[ -7.41888895e-17]])]
[14.000000000000064, -0.0043441851786337, 4.9437971115112305, -0.7244977951049805, 0.0, -0.0008414796909628358, 0.0, 0.00011028694269638952, 0.0, 0.00042091635728498634, array([[ -1.08979772e-20]])]
[14.050000000000065, 1.3157561783441345, 4.864835262298584, -1.308501958847046, 0.0, -0.0010682676308665787, 0.0, 0.00044557281177818914, 0.0, 0.0004787188707321549, array([[ -8.01829514e-25]])]
[14.100000000000065, 1.7546838605562227, 4.830798625946045, -1.012326717376709, 0.0, -0.0010086840666981426, 0.0, 0.000542254979115109, 0.0, 0.0004773346849304, array([[ -4.34036697e-23]])]
[14.150000000000066, 1.3921811965093949, 4.801090717315674, -0.3956647217273712, 0.0, -0.000595262971606462, 0.0, 0.0001740791437550891, 0.0, 0.000488851629919071, array([[ -8.44724852e-17]])]
[14.200000000000067, 0.34845501883933333, 4.812344551086426, 0.7698800563812256, 0.0, -0.0005490555042423569, 0.0, 1.534935060470683e-06, 0.0, 0.00044127710151662725, array([[ -7.20082238e-17]])]
[14.250000000000068, -1.093255968040554, 4.8361077308654785, 0.9248831868171692, 0.0, -0.00046298358630617286, 0.0, -0.00010671954933919744, 0.0, 0.00045748661756916877, array([[ -5.11066567e-18]])]
[14.300000000000068, -1.5377654728081542, 4.88217306137085, 0.5835509300231934, 0.0, -7.405104172889749e-05, 0.0, -0.0003948280428047925, 0.0, 0.00043151403627172697, array([[ -1.97949760e-16]])]
