time, uz, alt, vel_alt, uthe, roll, uphi, pitch, upsi, yaw, F
[0.0, 0.0, 0.0034658187068998814, 0.0067778704687952995, 0.0, -0.014696452805814891, 0.0, 0.014478167412458384, 0.0, -0.08535732989359658, array([[ 34.31380095]])]
[0.05, -34.315422610647836, 0.0034658187068998814, 0.0067778704687952995, 0.0, -0.014696452805814891, 0.0, 0.014478167412458384, 0.0, -0.08535732989359658, array([[ 87.90209368]])]
[0.1, -87.90368940999878, 0.004384406376630068, 0.007134507410228252, 0.0, -0.014682052674348037, 0.0, 0.014502009205295882, 0.0, -0.08536533187799483, array([[ 193.72340938]])]
[0.15000000000000002, -193.72520313878982, 0.004918244667351246, 0.007676243782043457, 0.0, -0.014614330253959642, 0.0, 0.0144880616626428, 0.0, -0.08539871967520654, array([[-1429.15380437]])]
[0.2, 1429.3451380797862, 0.005369727965444326, 0.008344183675944805, 0.0, -0.014636924458611037, 0.0, 0.014456416454121329, 0.0, -0.08539746546044563, array([[-6872.48043316]])]
[0.25, 6872.902730361678, 0.008098515681922436, 0.23736423254013062, 0.0, -0.013591057503732774, 0.0, 0.012880776690752375, 0.0, -0.08398720004163915, array([[-11006.47896835]])]
[0.3, 11007.12876667423, 0.060781460255384445, 1.2559258937835693, 0.0, -0.00952843603172359, 0.0, 0.007178991442228167, 0.0, -0.0742690353962552, array([[-65.76050383]])]
[0.35, 66.2798044937125, 0.10177605599164963, 1.6746749877929688, 0.0, -0.007416550456005291, 0.0, 0.005525626105732492, 0.0, -0.06426773235733436, array([[ -5.44595444e-09]])]
[0.39999999999999997, 0.1958246186282458, 0.18069404363632202, 2.260517120361328, 0.0, -0.006079985557852984, 0.0, 0.0045710980094569335, 0.0, -0.05975170050790861, array([[ -4.08323299e-20]])]
[0.44999999999999996, -0.10543255826276539, 0.3333178460597992, 2.5577449798583984, 0.0, -0.0021653763466776077, 0.0, 0.001917009629850284, 0.0, -0.04468529076345229, array([[ -3.13049437e-27]])]
[0.49999999999999994, -0.20697117240107057, 0.42984291911125183, 2.2397053241729736, 0.0, -0.0014690594888221765, 0.0, 0.0014118875039163675, 0.0, -0.04109940360643692, array([[ -1.51529570e-19]])]
[0.5499999999999999, -0.030689866841018196, 0.5474199652671814, 1.6713433265686035, 0.0, 0.0012970746384764287, 0.0, -0.0004604435784669751, 0.0, -0.026999131683895252, array([[ -9.38949379e-09]])]
[0.6, 0.40899241707095896, 0.6426818370819092, 0.9865859746932983, 0.0, 0.003450277539816721, 0.0, -0.001754681812581714, 0.0, -0.01652683241332258, array([[-0.0024007]])]
[0.65, 0.7857912771451113, 0.6675772666931152, 0.8202100992202759, 0.0, 0.0045860332721602585, 0.0, -0.00242339832323711, 0.0, -0.009225580659461614, array([[-52.99813389]])]
[0.7000000000000001, 54.110108473367134, 0.7297613620758057, 1.067036747932434, 0.0, 0.004236122839930963, 0.0, -0.0017640291826344129, 0.0, -0.0028506800968749442, array([[-0.51549266]])]
[0.7500000000000001, 1.5565026097572228, 0.7640535831451416, 1.4141854047775269, 0.0, 0.0035550795594230284, 0.0, -0.0010953263218591166, 0.0, -0.0006524425605362647, array([[ -4.78786837e-05]])]
[0.8000000000000002, 0.7960786013422143, 0.9025443196296692, 2.4464054107666016, 0.0, 0.0024202323657955397, 0.0, -0.0006060540203449409, 0.0, -0.00023203547918921588, array([[ -1.56308747e-14]])]
[0.8500000000000002, 0.42382097566689625, 0.974398672580719, 2.7095391750335693, 0.0, 0.0016298330691058834, 0.0, -0.000122908864352429, 0.0, -0.00045621348953802765, array([[ -2.15623516e-31]])]
[0.9000000000000002, 0.01394976853835582, 1.0868736505508423, 2.8780770301818848, 0.0, 0.001357304627293384, 0.0, -3.930777445267627e-05, 0.0, -0.0005470085872821913, array([[ -3.49023423e-36]])]
[0.9500000000000003, -0.13161848070955276, 1.2529184818267822, 2.590153932571411, 0.0, 0.00024352473841473976, 0.0, 0.0001703728508284184, 0.0, -0.0009384209706830588, array([[ -1.62137640e-28]])]
[1.0000000000000002, -0.014678438091993332, 1.414964199066162, 1.9170552492141724, 0.0, -0.0003649478885775895, 0.0, 0.00021348280224416249, 0.0, -0.0011057194249664813, array([[ -1.11044718e-13]])]
[1.0500000000000003, 0.3295791848825134, 1.4647334814071655, 1.648848533630371, 0.0, -0.0007361350885771734, 0.0, 0.0003298942307677945, 0.0, -0.0011962491644437378, array([[ -3.27147509e-09]])]
[1.1000000000000003, 0.4604666279436495, 1.5230073928833008, 1.3028603792190552, 0.0, -0.0009350048090144546, 0.0, 0.00039253252592047705, 0.0, -0.0012977166111437853, array([[-0.00018841]])]
[1.1500000000000004, 0.586767960517133, 1.5903207063674927, 1.0006110668182373, 0.0, -0.0012299817229918626, 0.0, 0.0004892702733331909, 0.0, -0.0013928331573046125, array([[-0.1690428]])]
[1.2000000000000004, 0.7400865445742424, 1.6280901432037354, 0.9390026926994324, 0.0, -0.0010660069628638561, 0.0, 0.0004567774272479741, 0.0, -0.0013737252339517335, array([[-0.54099371]])]
[1.2500000000000004, 0.9997619213380997, 1.685333490371704, 1.063403606414795, 0.0, -0.0006857749783729171, 0.0, 0.0003940910357914144, 0.0, 0.0038214064207193147, array([[-0.02902353]])]
[1.3000000000000005, 0.28167983877812314, 1.7897640466690063, 1.90185546875, 0.0, -0.00039887248440901717, 0.0, 0.00036555543056506504, 0.0, 0.003934337857605989, array([[ -1.70987077e-07]])]
[1.3500000000000005, -0.06092354879277255, 1.8428966999053955, 1.8708360195159912, 0.0, -0.00011865650839010459, 0.0, 0.0005154083372502226, 0.0, 0.0034775075771594026, array([[ -9.61746795e-14]])]
[1.4000000000000006, -0.2858742161115638, 1.958972692489624, 1.295056700706482, 0.0, 9.875332759852613e-05, 0.0, 0.0005996248749909558, 0.0, 0.0027566873549100756, array([[ -2.59573556e-05]])]
[1.4500000000000006, -0.11793556232869078, 1.9916542768478394, 1.0285639762878418, 0.0, 0.00018660188116671742, 0.0, 0.0007450224135325923, 0.0, 0.002206879129656379, array([[-0.01145419]])]
[1.5000000000000007, 0.27282716303347354, 2.041171073913574, 0.3392374813556671, 0.0, 0.0003305694993452264, 0.0, 0.0008731000625630467, 0.0, 0.001593211184783957, array([[-49.39107319]])]
[1.5500000000000007, 50.08106205430179, 2.0475094318389893, 0.11873509734869003, 0.0, 0.0003753093502166875, 0.0, 0.0010129000801160297, 0.0, 0.0012685575604104648, array([[-57.11678376]])]
[1.6000000000000008, 57.88117729037066, 2.0680859088897705, 0.7476036548614502, 0.0, 0.00012579695715694895, 0.0, 0.0007906701509731834, 0.0, 0.0007931691995109296, array([[-1.07693695]])]
[1.6500000000000008, 1.6904176549866854, 2.0956871509552, 1.189063310623169, 0.0, 7.83017162893978e-05, 0.0, 0.0006255890743080695, 0.0, 0.0007314409121452591, array([[-0.00015311]])]
[1.7000000000000008, 0.10805001885571391, 2.221926689147949, 2.230917453765869, 0.0, -0.00011922145990223434, 0.0, 0.0004894590616304921, 0.0, 0.0008229301893338764, array([[ -2.88585569e-13]])]
[1.7500000000000009, -0.2513224267402385, 2.2847304344177246, 2.1664209365844727, 0.0, -0.0001769738661860533, 0.0, 0.0003852894167621058, 0.0, 0.0009163227546690224, array([[ -8.59084948e-21]])]
[1.800000000000001, -0.5270184375015422, 2.4205493927001953, 1.5432472229003906, 0.0, -0.0003335551968906495, 0.0, 0.000453314677292308, 0.0, 0.0009733480323208478, array([[ -1.16652545e-14]])]
[1.850000000000001, -0.4885454006475876, 2.460167407989502, 1.2761176824569702, 0.0, -0.0003661815073307825, 0.0, 0.0005742567781255726, 0.0, 0.0009374093835693926, array([[ -1.17746545e-06]])]
[1.900000000000001, -0.16647938201500545, 2.5037567615509033, 0.5844322443008423, 0.0, -0.0003943001316721604, 0.0, 0.0006301486580154255, 0.0, 0.0008917874432437637, array([[-0.00475568]])]
[1.950000000000001, 0.086551179324747, 2.543870210647583, 0.2002827674150467, 0.0, -0.0005059444904710966, 0.0, 0.0008863093679177551, 0.0, 0.0005830039451963303, array([[-1.40163232]])]
[2.000000000000001, 1.817722974639651, 2.53958797454834, -0.3213043808937073, 0.0, -0.0005971824991419013, 0.0, 0.001025912181566153, 0.0, 0.0003517884909310252, array([[-0.0911798]])]
[2.0500000000000007, 0.5773218842409633, 2.5327138900756836, 0.09125149250030518, 0.0, -0.0005847652919689321, 0.0, 0.0009255696344908302, 0.0, 0.00017253147546229065, array([[-1.40376164]])]
[2.1000000000000005, 1.7242464123675236, 2.5536820888519287, 0.4808163046836853, 0.0, -0.00032443953082657496, 0.0, 0.0005774157382618195, 0.0, -0.00015401396134127012, array([[-0.49726574]])]
[2.1500000000000004, 0.5781871681576748, 2.5708982944488525, 0.7990752458572388, 0.0, -0.00031383342614643673, 0.0, 0.0005077926115945069, 0.0, -0.0003834474170709771, array([[-0.010577]])]
[2.2, -0.19779300860778026, 2.6129133701324463, 1.2131975889205933, 0.0, -0.00032205468579319074, 0.0, 0.0004913400670143663, 0.0, -0.0004581310686348002, array([[ -1.98075951e-06]])]
[2.25, -0.4891429778332077, 2.68363618850708, 0.99886554479599, 0.0, -0.0003267574094006157, 0.0, 0.0005269259953644605, 0.0, -0.0006759529940207849, array([[-0.00011985]])]
[2.3, -0.4642309595062038, 2.731370687484741, 0.3217056691646576, 0.0, -0.0003856157119463554, 0.0, 0.0005981770123004458, 0.0, -0.0008237491185078773, array([[-0.24407476]])]
[2.3499999999999996, -0.031084492214609377, 2.736661672592163, 0.05246688425540924, 0.0, -0.00043321713000389893, 0.0, 0.0007193192059058582, 0.0, -0.0009006654444133443, array([[-0.20688142]])]
[2.3999999999999995, 0.24760614966350863, 2.715985059738159, -0.6367213726043701, 0.0, -0.0005841774656088544, 0.0, 0.0008449945759078681, 0.0, -0.0009382671792882448, array([[-0.01365219]])]
[2.4499999999999993, 0.3075654148324837, 2.6952548027038574, -0.8589885830879211, 0.0, -0.000662624354153701, 0.0, 0.0010158941913652618, 0.0, -0.0009621278467140581, array([[ -1.71264895e-06]])]
[2.499999999999999, 0.517281942847323, 2.655349016189575, -1.1408554315567017, 0.0, -0.0006813343915014996, 0.0, 0.001014090165285182, 0.0, -0.0009414004854790066, array([[ -2.12457086e-09]])]
[2.549999999999999, 0.6223221613941737, 2.577143907546997, -1.4208773374557495, 0.0, -0.0005731800700847903, 0.0, 0.0007175534405099307, 0.0, -0.0010254700243509567, array([[ -7.78105140e-13]])]
[2.5999999999999988, 0.6737291870994601, 2.5194413661956787, -1.442336082458496, 0.0, -0.0005679754409391418, 0.0, 0.0006621161673703469, 0.0, -0.0010569782548710271, array([[ -7.70283985e-13]])]
[2.6499999999999986, 0.5695356292642905, 2.435451030731201, -1.3323618173599243, 0.0, -0.0004339317988739424, 0.0, 0.0004708352120530669, 0.0, -0.0008613309280619608, array([[ -6.40188517e-11]])]
[2.6999999999999984, 0.4165597550533448, 2.3838605880737305, -1.2612452507019043, 0.0, -0.00035396020133452523, 0.0, 0.00043720274855328504, 0.0, -0.0008560799400591621, array([[ -1.06248386e-09]])]
[2.7499999999999982, 0.2608409721587611, 2.306975841522217, -1.3464361429214478, 0.0, -0.000203440307576165, 0.0, 0.0003644093258960525, 0.0, -0.0008413724579784114, array([[ -1.52735878e-10]])]
[2.799999999999998, 0.18975631152209538, 2.2491636276245117, -1.555453896522522, 0.0, -0.00019116173918772293, 0.0, 0.0003421585509651223, 0.0, -0.0008723881706654402, array([[ -2.56055220e-13]])]
[2.849999999999998, 0.17214245517830823, 2.1437368392944336, -1.9892939329147339, 0.0, -0.00013182930593555356, 0.0, 0.00035913216408656336, 0.0, -0.0007129797434843225, array([[ -1.56706225e-20]])]
[2.8999999999999977, 0.2944538546455502, 1.9796931743621826, -2.3136894702911377, 0.0, -0.00025122078341664945, 0.0, 0.0003483282297273687, 0.0, -0.0005943143103311519, array([[ -4.57035267e-27]])]
[2.9499999999999975, 0.38451243272173397, 1.9046251773834229, -2.770874500274658, 0.0, -0.00034361479083201793, 0.0, 0.000348694722300843, 0.0, -0.0004955382577705724, array([[ -4.19805871e-38]])]
[2.9999999999999973, 0.5538413818638026, 1.7883634567260742, -3.0126967430114746, 0.0, -0.000347011138070305, 0.0, 0.0003540300110125797, 0.0, -0.00042743047088990115, array([[ -1.12379000e-44]])]
[3.049999999999997, 0.618140656554684, 1.560612678527832, -3.232562303543091, 0.0, -0.00035554421567373333, 0.0, 0.00035679334855695066, 0.0, -0.00027654675710916504, array([[ -7.96981818e-51]])]
[3.099999999999997, 0.6775549720977545, 1.3656682968139648, -3.234999179840088, 0.0, -0.0003464249431409921, 0.0, 0.00042462526838976124, 0.0, -0.0002536289940167061, array([[ -3.27058057e-50]])]
[3.149999999999997, 0.6256355136456042, 1.2753547430038452, -3.1947362422943115, 0.0, -0.00040537435966318943, 0.0, 0.00037222436313728814, 0.0, -0.0002443585820435684, array([[ -1.22970454e-48]])]
[3.1999999999999966, 0.565492477203384, 1.1487953662872314, -3.1393637657165527, 0.0, -0.0003144949162536635, 0.0, 0.0003706882067125845, 0.0, -0.00027654161898159986, array([[ -1.90216898e-46]])]
[3.2499999999999964, 0.5011340752617568, 0.9612703919410706, -3.1451289653778076, 0.0, -0.00034329265787118134, 0.0, 0.00046906655982534507, 0.0, -0.00048089176033362175, array([[ -3.73887076e-46]])]
[3.2999999999999963, 0.5013827626511156, 0.8345760107040405, -3.21183443069458, 0.0, -0.0003332542377557491, 0.0, 0.0004805672533201263, 0.0, -0.0005914846965799151, array([[ -5.64640265e-48]])]
[3.349999999999996, 0.5410618822709321, 0.6369814872741699, -3.373683452606201, 0.0, -0.0002931907147525298, 0.0, 0.0004183516393546183, 0.0, -0.0008280783160155342, array([[ -5.15325607e-53]])]
[3.399999999999996, 0.6442224591696262, 0.3875775933265686, -3.52142071723938, 0.0, -0.00029533864452678125, 0.0, 0.00041650638219362465, 0.0, -0.0007913264447671558, array([[ -5.25687268e-56]])]
[3.4499999999999957, 0.7154512640935777, 0.2887636423110962, -3.5139901638031006, 0.0, -0.0003131967731412128, 0.0, 0.00045776202282591413, 0.0, -0.000790999449591371, array([[ -2.25606062e-57]])]
[3.4999999999999956, 0.7504336516121253, 0.03979794681072235, -3.352193593978882, 0.0, -0.00028340834168171766, 0.0, 0.00036639884015808106, 0.0, -0.0007053372957866122, array([[ -2.23488881e-51]])]
[3.5499999999999954, 0.717363714872323, -0.04649098217487335, -1.1473731994628906, 0.0, 0.00024706016282786947, 0.0, 0.03821068742979605, 0.0, -0.000642182811969326, array([[-0.03886557]])]
[3.599999999999995, 0.2818268385172892, -0.045634813606739044, 0.18244142830371857, 0.0, 0.00015800647656452073, 0.0, 0.03564951300339169, 0.0, -2.6943677745443903e-05, array([[-25678.10042149]])]
[3.649999999999995, 25678.253254259333, -0.028167981654405594, 0.19017459452152252, 0.0, 0.000360592151804589, 0.0, 0.02328084932459623, 0.0, -0.000567099437482691, array([[-34108.22731983]])]
[3.699999999999995, 34108.47582667014, 0.008912188932299614, 0.9734640121459961, 0.0, 0.00030228986433172324, 0.0, 0.01574463628791925, 0.0, -0.0012329826999727146, array([[-6841.91833133]])]
[3.7499999999999947, 6842.229118257756, 0.04257793352007866, 1.3893834352493286, 0.0, 9.908098688032599e-05, 0.0, 0.010142364565674324, 0.0, -0.0012956140892773763, array([[-0.00021018]])]
[3.7999999999999945, 0.14414049806834817, 0.11067795753479004, 1.9839037656784058, 0.0, 0.00013095248558191218, 0.0, 0.009022720409234929, 0.0, -0.0012767246508579137, array([[ -6.78209545e-14]])]
[3.8499999999999943, -0.019827593858662215, 0.24993596971035004, 2.3539953231811523, 0.0, 0.00014324402203132587, 0.0, 0.0031845386159699784, 0.0, -0.0013907882978309296, array([[ -9.13286452e-22]])]
[3.899999999999994, -0.2715000788808204, 0.3388957381248474, 2.0326294898986816, 0.0, 0.00011126282600937763, 0.0, 0.0016630299003299017, 0.0, -0.0014495909887758634, array([[ -1.04323455e-14]])]
[3.949999999999994, -0.28750852167459273, 0.44486650824546814, 1.4646327495574951, 0.0, 8.973146806020153e-05, 0.0, -0.0030841084406245407, 0.0, -0.0018565408539848597, array([[ -3.67924516e-05]])]
[3.999999999999994, -0.17633919961921687, 0.4963885247707367, 1.081538438796997, 0.0, 0.00013676277717234172, 0.0, -0.004315702598660149, 0.0, -0.0019592854893251766, array([[-1.33351355]])]
[4.049999999999994, 1.2339605449972386, 0.5447211861610413, 0.5057255029678345, 0.0, 0.0002005456846772926, 0.0, -0.009711154576433123, 0.0, -0.002591266027160981, array([[-9554.2870484]])]
[4.099999999999993, 9554.500416226389, 0.5867913961410522, 0.9859625101089478, 0.0, 7.44021363319992e-05, 0.0, -0.009123456854699542, 0.0, -0.0030469150807671324, array([[-9107.43378605]])]
[4.149999999999993, 9107.842108391225, 0.6209558844566345, 1.4106271266937256, 0.0, 0.0001122146237927945, 0.0, -0.005993669827123808, 0.0, -0.003174346740366365, array([[-0.00023187]])]
[4.199999999999993, 0.20127423647090348, 0.7618184089660645, 2.3921799659729004, 0.0, 6.368825157692786e-05, 0.0, -0.004292074660493909, 0.0, -0.0034507087438895275, array([[ -4.10207970e-14]])]
[4.249999999999993, -0.10870862170188905, 0.8288498520851135, 2.3226184844970703, 0.0, -2.2126851419042485e-05, 0.0, -0.002824108367199655, 0.0, -0.0036400291824908145, array([[ -5.99774922e-21]])]
[4.299999999999993, -0.3538773559276648, 0.9766753911972046, 1.7139712572097778, 0.0, 3.6117406804264747e-05, 0.0, -0.0008907296486258736, 0.0, -0.0038105153408600338, array([[ -2.35252040e-14]])]
[4.3499999999999925, -0.36852960282904157, 1.0215115547180176, 1.4462159872055054, 0.0, 0.0001534112627500782, 0.0, 0.0005661779219755941, 0.0, -0.0038827796893041062, array([[ -4.80722090e-05]])]
[4.399999999999992, -0.29582440776147917, 1.1023049354553223, 0.7557177543640137, 0.0, 0.0003333364335388958, 0.0, 0.002747906940764517, 0.0, -0.0040260053751154734, array([[-1.21739817]])]
[4.449999999999992, 1.0676072634940852, 1.1202794313430786, 0.4874403774738312, 0.0, 0.00042454475855142914, 0.0, 0.004164659125103399, 0.0, -0.004069754313154575, array([[-4876.33626253]])]
[4.499999999999992, 4876.51226975569, 1.1358281373977661, 0.427420973777771, 0.0, 0.00044580590433847863, 0.0, 0.004956965473265901, 0.0, -0.004084372911364935, array([[-8112.87964241]])]
[4.549999999999992, 8113.288350362833, 1.187766671180725, 1.3088947534561157, 0.0, 0.0002405199993468235, 0.0, 0.0024115218074937123, 0.0, -0.004042272580208447, array([[-0.00198885]])]
[4.599999999999992, 0.24095874615153134, 1.2524696588516235, 1.9107520580291748, 0.0, 0.00016355429066500465, 0.0, 0.0020176846613939353, 0.0, -0.003998563913922658, array([[ -1.08574004e-12]])]
[4.6499999999999915, 0.016513171260582073, 1.3831714391708374, 2.170649766921997, 0.0, 0.0001973549011310237, 0.0, 0.0007490543016792806, 0.0, -0.003856196575057925, array([[ -4.15081523e-18]])]
[4.699999999999991, -0.19673482939722386, 1.5203129053115845, 1.5743517875671387, 0.0, 0.00021730218917329598, 0.0, -0.00017735394584156424, 0.0, -0.0037261398872789828, array([[ -2.84108376e-12]])]
[4.749999999999991, -0.21079973032554183, 1.5611072778701782, 1.3075228929519653, 0.0, 0.00020695444626734667, 0.0, -0.0007432524776047393, 0.0, -0.003581718064926222, array([[-0.00056436]])]
[4.799999999999991, -0.11826030646716458, 1.631712555885315, 0.6167768836021423, 0.0, 0.0002923107969194889, 0.0, -0.0015812490860590497, 0.0, -0.003402411669263807, array([[-291.20663321]])]
[4.849999999999991, 291.10670382769257, 1.6458686590194702, 0.34736520051956177, 0.0, 0.00027147827549662857, 0.0, -0.0020616635159097017, 0.0, -0.0032781277508159377, array([[-1664.6503005]])]
[4.899999999999991, 1664.8057581093055, 1.6561425924301147, 0.29197850823402405, 0.0, 0.00023562920304376613, 0.0, -0.002301565591119088, 0.0, -0.003153111729815191, array([[-2117.45484206]])]
[4.94999999999999, 2117.8298121594385, 1.701165795326233, 1.1862963438034058, 0.0, 0.00012252030708142386, 0.0, -0.001411927810166805, 0.0, -0.0030284236759154978, array([[-0.00726862]])]
[4.99999999999999, 0.20248076083955838, 1.7617594003677368, 1.7931559085845947, 0.0, 7.725995171456463e-05, 0.0, -0.0012656632561217306, 0.0, -0.002972414857682091, array([[ -1.82961182e-11]])]
[5.04999999999999, -0.03605564039985714, 1.8905655145645142, 2.195908546447754, 0.0, 0.00016788509860502093, 0.0, -0.0007901870217512814, 0.0, -0.0028891497078455284, array([[ -1.19923681e-19]])]
[5.09999999999999, -0.3144705345152579, 2.030993700027466, 1.6140143871307373, 0.0, 0.00016360459774021456, 0.0, -0.00021814186766412272, 0.0, -0.002746054364264284, array([[ -3.41570439e-09]])]
[5.14999999999999, -0.33542455392210124, 2.0729939937591553, 1.3469585180282593, 0.0, 0.00013073571970487964, 0.0, 0.00033402512214186243, 0.0, -0.0026081100997937846, array([[ -1.25113575e-05]])]
[5.1999999999999895, -0.24321608016834267, 2.1462836265563965, 0.6555966734886169, 0.0, 0.00014473051122932404, 0.0, 0.001055880010842576, 0.0, -0.002389650618112513, array([[-0.0977313]])]
[5.249999999999989, -0.09966666825212137, 2.1613526344299316, 0.38662075996398926, 0.0, 7.643424153844321e-05, 0.0, 0.0014807929187507628, 0.0, -0.002284050784221472, array([[-70.51298718]])]
[5.299999999999989, 70.5989799169045, 2.169672727584839, 0.00224175862967968, 0.0, 2.882342690572217e-05, 0.0, 0.0017526902451491305, 0.0, -0.002222210753015699, array([[-83.28618565]])]
[5.349999999999989, 83.71658534348082, 2.159712076187134, -0.07112409174442291, 0.0, -0.00010207774164707122, 0.0, 0.002436546267287266, 0.0, -0.0018505411270511255, array([[-56.54938167]])]
[5.399999999999989, 57.195162339899774, 2.195345163345337, 1.0465977191925049, 0.0, 1.3178933953643857e-05, 0.0, 0.0010839224257248464, 0.0, -0.0016958981567164956, array([[-24.87703516]])]
[5.449999999999989, 25.316880977155435, 2.23117995262146, 1.476963758468628, 0.0, -5.4383455824005464e-05, 0.0, 0.0010351059642166264, 0.0, -0.0016939946195439087, array([[ -8.43563462e-08]])]
[5.4999999999999885, -0.035136490973471615, 2.3769850730895996, 2.484362840652466, 0.0, -4.5406735164462366e-05, 0.0, 0.0005252404794524672, 0.0, -0.0017411827073992104, array([[ -3.97373957e-18]])]
[5.549999999999988, -0.3954391736928187, 2.4745898246765137, 2.2831976413726807, 0.0, 6.271538324067452e-05, 0.0, 0.0005377388063320186, 0.0, -0.001734326206796974, array([[ -2.69920083e-23]])]
[5.599999999999988, -0.6124659124001115, 2.595888614654541, 1.724513292312622, 0.0, 0.00032719947298355377, 0.0, 0.0006956407631212002, 0.0, -0.0018031816319594735, array([[ -4.66838161e-18]])]
[5.649999999999988, -0.6423939233195483, 2.6408262252807617, 1.4556218385696411, 0.0, 0.000444706515477739, 0.0, 0.0008880253056904232, 0.0, -0.001799979193388587, array([[ -6.87586822e-09]])]
[5.699999999999988, -0.4024541436578824, 2.722062587738037, 0.7635682225227356, 0.0, 0.0005337817600184765, 0.0, 0.0012487114939321925, 0.0, -0.0017544091623572663, array([[-0.02575345]])]
[5.749999999999988, -0.1089655529632959, 2.7403151988983154, 0.4945570230484009, 0.0, 0.0007002163646873829, 0.0, 0.0015807118291946295, 0.0, -0.0017523348463932846, array([[-0.36760738]])]
[5.799999999999987, 0.564282683400383, 2.7532379627227783, 0.11008024960756302, 0.0, 0.0007705879676368814, 0.0, 0.0017269869513225824, 0.0, -0.0017517172543457455, array([[-1.03553605]])]
[5.849999999999987, 1.497850634544005, 2.746335029602051, -0.27977463603019714, 0.0, 0.0009838204073006707, 0.0, 0.0022755615030509886, 0.0, -0.001777057751577924, array([[-0.078135]])]
[5.899999999999987, 0.6474655780210096, 2.7421152591705322, 0.12857313454151154, 0.0, 0.0008535005785495336, 0.0, 0.0020867923780525303, 0.0, -0.0017445803233392082, array([[-1.17775983]])]
[5.949999999999987, 1.4823377202015366, 2.78505802154541, 0.8232539892196655, 0.0, 0.0005180228156977996, 0.0, 0.0009557607304230817, 0.0, -0.0017537361621182363, array([[-0.0054311]])]
[5.999999999999987, -0.08010633362531525, 2.8567099571228027, 1.5361113548278809, 0.0, 0.00036697421525492673, 0.0, 0.0005366567812474646, 0.0, -0.0016916762254980692, array([[ -1.17530208e-05]])]
[6.0499999999999865, -0.32319851728216764, 2.90055775642395, 1.438018560409546, 0.0, -1.8879264604315733e-05, 0.0, 0.000433677962265232, 0.0, -0.0016462602080455173, array([[ -1.10522641e-09]])]
[6.099999999999986, -0.5446961864368097, 2.9844608306884766, 1.087713599205017, 0.0, -0.00029880475575810655, 0.0, 0.0005281072897241483, 0.0, -0.001545266835470529, array([[ -8.01953275e-06]])]
[6.149999999999986, -0.5170340082667944, 3.0040385723114014, 0.5170773267745972, 0.0, -0.000516195240426997, 0.0, 0.000721223589498881, 0.0, -0.001580271794434573, array([[-0.02456572]])]
[6.199999999999986, -0.2677644124564676, 3.019232749938965, -0.17417339980602264, 0.0, -0.0008879696274835703, 0.0, 0.0010605209754230584, 0.0, -0.0014400389957826773, array([[-0.016665]])]
[6.249999999999986, -0.16807347693407595, 3.0115675926208496, -0.4433620870113373, 0.0, -0.0010665983211796861, 0.0, 0.0014208167947846139, 0.0, -0.001381151921972855, array([[-0.00065326]])]
[6.299999999999986, 0.016785826988127122, 2.9875071048736572, -0.8273886442184448, 0.0, -0.0011326578109525842, 0.0, 0.0015940508646692599, 0.0, -0.001372024766400778, array([[ -5.49003081e-07]])]
[6.349999999999985, 0.09416808289363406, 2.9223058223724365, -1.4017196893692017, 0.0, -0.0012847123321714656, 0.0, 0.0024497260847568423, 0.0, -0.0010946110285257812, array([[ -6.27333170e-14]])]
[6.399999999999985, 0.23875384127855612, 2.8597562313079834, -1.772165298461914, 0.0, -0.0012843185835078603, 0.0, 0.0025948674100108554, 0.0, -0.0010126017093779651, array([[ -1.09160829e-19]])]
[6.449999999999985, 0.2929519856591597, 2.7406551837921143, -2.2802348136901855, 0.0, -0.0010524786426334926, 0.0, 0.002400314534142365, 0.0, -0.0009987113587509057, array([[ -1.89260851e-29]])]
[6.499999999999985, 0.40179338660037517, 2.5609543323516846, -2.776972770690918, 0.0, -0.0008380769766039967, 0.0, 0.0016981570669365102, 0.0, -0.000872561739069037, array([[ -6.64182138e-36]])]
[6.549999999999985, 0.42711317229115964, 2.4471275806427, -2.982192277908325, 0.0, -0.0005906446700770787, 0.0, 0.0010622391920977717, 0.0, -0.0007880384404153335, array([[ -1.60713511e-46]])]
[6.5999999999999845, 0.5250306797618418, 2.2621614933013916, -3.2457876205444336, 0.0, -0.0003394832871516378, 0.0, 0.0004127219507649316, 0.0, -0.0006997920479988887, array([[ -6.14338861e-54]])]
[6.649999999999984, 0.5726200423731133, 2.171295642852783, -3.321154832839966, 0.0, -0.0002288543021375417, 0.0, 8.18287780609321e-05, 0.0, -0.0007295713220325605, array([[ -4.75279282e-56]])]
[6.699999999999984, 0.5519227902233079, 2.037886142730713, -3.4012374877929688, 0.0, -0.00015823306120171793, 0.0, -9.198541222348868e-06, 0.0, -0.0007327643910905796, array([[ -3.51201470e-58]])]
[6.749999999999984, 0.5505112728215604, 1.8328156471252441, -3.488556385040283, 0.0, 7.213278983531313e-05, 0.0, -5.5810223242261654e-05, 0.0, -0.000785956416897347, array([[ -2.09023424e-60]])]
[6.799999999999984, 0.5781844265765324, 1.6926134824752808, -3.5581507682800293, 0.0, 0.00010211307060856987, 0.0, -1.4485373296597177e-06, 0.0, -0.000804499088711217, array([[ -2.36938615e-62]])]
[6.849999999999984, 0.599071327361837, 1.4791555404663086, -3.6439576148986816, 0.0, -0.00011326685749720253, 0.0, 1.9867410445148316e-05, 0.0, -0.0007146430703262029, array([[ -9.19984292e-65]])]
[6.8999999999999835, 0.6361401242456585, 1.3343980312347412, -3.6771202087402344, 0.0, -0.00011628182045984829, 0.0, -2.5264926932042536e-05, 0.0, -0.0007415301937401049, array([[ -1.63025890e-65]])]
[6.949999999999983, 0.6407443615515007, 1.1154721975326538, -3.694056749343872, 0.0, -0.00020696439475572604, 0.0, -0.00011778422899151741, 0.0, -0.00069313489536404, array([[ -1.62942001e-65]])]
[6.999999999999983, 0.6501267764376252, 0.9696256518363953, -3.6766819953918457, 0.0, -0.00016813566019384575, 0.0, -5.6486123017179675e-05, 0.0, -0.0006808354562268781, array([[ -1.88584744e-64]])]
[7.049999999999983, 0.6344158901107013, 0.7524300813674927, -3.6405227184295654, 0.0, -9.839103439963428e-05, 0.0, -6.671869735920845e-05, 0.0, -0.0007529923222790304, array([[ -1.35439339e-62]])]
[7.099999999999983, 0.6294118092576116, 0.6090693473815918, -3.6152050495147705, 0.0, -7.828172622245307e-05, 0.0, -7.466134481027637e-05, 0.0, -0.0007673226095033361, array([[ -2.41680018e-61]])]
[7.149999999999983, 0.6251155856239795, 0.39535579085350037, -3.593268871307373, 0.0, -0.0002046944160417337, 0.0, 2.1688504546956318e-05, 0.0, -0.0007052875952997363, array([[ -3.55631051e-60]])]
[7.199999999999982, 0.6439606559437494, 0.1403704732656479, -3.5789668560028076, 0.0, -9.983650157130964e-05, 0.0, -2.8944225955806348e-05, 0.0, -0.0006896053040281242, array([[ -2.70424402e-59]])]
[7.249999999999982, 0.6757195549271404, 0.041920386254787445, -3.5657472610473633, 0.0, -0.00015188315279181168, 0.0, -9.968491234575971e-05, 0.0, -0.0006794839355869767, array([[ -1.00496385e-58]])]
[7.299999999999982, 1.5735441562574506, -0.09802324324846268, -3.5236423015594482, 0.0, -0.00020530811852287226, 0.0, -7.442787156817767e-05, 0.0, -0.0006936452057629639, array([[ -4.58248253e-57]])]
[7.349999999999982, 1.6102725159652382, -0.11663631349802017, 0.20337089896202087, 0.0, -1.598629281707621e-05, 0.0, 0.028096978614041587, 0.0, -6.041623504258726e-05, array([[-53974.5685754]])]
[7.399999999999982, 53974.86147416331, -0.06482289731502533, 1.1674573421478271, 0.0, 3.6407316919984036e-05, 0.0, 0.030462306821640375, 0.0, 0.0006022284377736085, array([[-625.70911768]])]
[7.4499999999999815, 625.9999472433244, -0.025068383663892746, 1.572054147720337, 0.0, -0.00026797010331270266, 0.0, 0.01614421825196187, 0.0, 0.0005988704770979426, array([[ -8.84745416e-07]])]
[7.499999999999981, 0.13941155259370902, 0.051032859832048416, 2.1327219009399414, 0.0, -0.0003483594074029871, 0.0, 0.013242779922327972, 0.0, 0.0005202414420508976, array([[ -1.01273444e-16]])]
[7.549999999999981, -0.05421924714609228, 0.19882549345493317, 2.4075520038604736, 0.0, -0.00023127405120099113, 0.0, 0.005174292755016277, 0.0, -8.60626850384418e-06, array([[ -7.21568786e-23]])]
[7.599999999999981, -0.28268588111492987, 0.35410550236701965, 1.7735146284103394, 0.0, -0.0002700960351544266, 0.0, -0.0009007069101447182, 0.0, -0.00034455533449833444, array([[ -2.13677081e-15]])]
[7.649999999999981, -0.28653340148672246, 0.4017455577850342, 1.506011962890625, 0.0, -0.0004529961510975449, 0.0, -0.00538386646495199, 0.0, -0.000599543935392252, array([[ -1.39301803e-05]])]
[7.699999999999981, -0.18221546928346136, 0.4566756784915924, 1.1224174499511719, 0.0, -0.0005515218753118769, 0.0, -0.008072158992861983, 0.0, -0.0007428520915077788, array([[-0.76964541]])]
[7.7499999999999805, 0.6293189410165547, 0.5103082060813904, 0.5460474491119385, 0.0, -0.0007529781582035481, 0.0, -0.016939933331326915, 0.0, -0.0011749565200131192, array([[-8643.06324381]])]
[7.79999999999998, 8643.211769893976, 0.5423696041107178, 0.43966221809387207, 0.0, -0.0008899730347503238, 0.0, -0.018242580591170093, 0.0, -0.001446683410852532, array([[-25584.58314544]])]
[7.84999999999998, 25584.972241940824, 0.5611904263496399, 0.8122772574424744, 0.0, -0.0008787567886822555, 0.0, -0.013171947352071127, 0.0, -0.0016132768483206493, array([[-323.84368448]])]
[7.89999999999998, 324.27619857977066, 0.661952555179596, 1.8982837200164795, 0.0, -0.00067432335316566, 0.0, -0.00935972129099856, 0.0, -0.001568854786617178, array([[ -7.05368329e-12]])]
[7.94999999999998, 0.27467076850271765, 0.7219406366348267, 2.304771900177002, 0.0, -0.0007395959364170422, 0.0, -0.007026762816315021, 0.0, -0.0014131230650665538, array([[ -2.46373208e-20]])]
[7.99999999999998, -0.18059486699339747, 0.8239555954933167, 2.574341058731079, 0.0, -0.0006444786928182759, 0.0, -0.0059645943315584935, 0.0, -0.0013601860024966014, array([[ -6.90444364e-27]])]
[8.04999999999998, -0.41635668248823277, 0.9720689654350281, 2.1725211143493652, 0.0, -0.00033618656185751373, 0.0, -0.0030135853767367694, 0.0, -0.0011934307490012689, array([[ -1.49677591e-17]])]
[8.09999999999998, -0.390951944693923, 1.108108401298523, 1.4885421991348267, 0.0, -0.00018200104116642297, 0.0, -0.0012071945594367866, 0.0, -0.0009759270073720319, array([[ -2.85675727e-10]])]
[8.14999999999998, -0.3675968504754696, 1.1477028131484985, 1.2189807891845703, 0.0, 7.237413208978645e-06, 0.0, 0.0001251899538563052, 0.0, -0.0009149233634069884, array([[-0.03207259]])]
[8.199999999999982, -0.07090801109653559, 1.2146457433700562, 0.526633620262146, 0.0, 0.0002894308377288016, 0.0, 0.002362578084117772, 0.0, -0.0008317218142072182, array([[-95.42539413]])]
[8.249999999999982, 95.55644185872332, 1.2273563146591187, 0.2576373815536499, 0.0, 0.00047569209706917924, 0.0, 0.0038225299700114478, 0.0, -0.0007473673707687068, array([[-15397.08631681]])]
[8.299999999999983, 15397.488009177428, 1.2597981691360474, 0.8495979905128479, 0.0, 0.00024387873310528324, 0.0, 0.0030567101926617496, 0.0, -0.0007199177690214992, array([[-11293.58732466]])]
[8.349999999999984, 11294.051613730846, 1.2913480997085571, 1.2794795036315918, 0.0, 0.00011900908629826924, 0.0, 0.0012742835789571634, 0.0, -0.0008437042592706621, array([[-0.00470432]])]
[8.399999999999984, 0.08591833898268998, 1.4263654947280884, 2.2558999061584473, 0.0, -4.2252143349108626e-05, 0.0, 0.0006854660634133604, 0.0, -0.0009774842955615002, array([[ -4.19372104e-12]])]
[8.449999999999985, -0.15312417361267752, 1.4905922412872314, 2.1427395343780518, 0.0, -0.0002985065056434588, 0.0, -0.0004003617713643174, 0.0, -0.0010499025448219383, array([[ -1.57998944e-17]])]
[8.499999999999986, -0.25416010720139737, 1.627643346786499, 1.5054947137832642, 0.0, -0.0005584754666237726, 0.0, -0.0014783001578292623, 0.0, -0.0011115056863866147, array([[ -1.70985823e-06]])]
[8.549999999999986, -0.15071828651026314, 1.6680611371994019, 1.2377207279205322, 0.0, -0.0007423084429296158, 0.0, -0.002292169281792095, 0.0, -0.001113259840816101, array([[-0.00330278]])]
[8.599999999999987, 0.08546946317212682, 1.7367242574691772, 0.5456243753433228, 0.0, -0.0009233488471951049, 0.0, -0.0032987149142126057, 0.0, -0.0011357693447669502, array([[-10.29972677]])]
[8.649999999999988, 10.52116909874102, 1.7501163482666016, 0.28010261058807373, 0.0, -0.0010876408159112517, 0.0, -0.003873014429747286, 0.0, -0.0011767435433031666, array([[-1716.41825109]])]
[8.699999999999989, 1716.7249446572132, 1.7813804149627686, 0.8086917996406555, 0.0, -0.0008788758378417295, 0.0, -0.0033580420387965717, 0.0, -0.0010913094958408319, array([[-14.84240348]])]
[8.74999999999999, 15.1338380932246, 1.811897873878479, 1.240984320640564, 0.0, -0.0007757005533920628, 0.0, -0.002483186630488733, 0.0, -0.0010539734559135263, array([[-0.00148316]])]
[8.79999999999999, -0.08849243235174865, 1.9452595710754395, 2.263497829437256, 0.0, -0.0005086197471887942, 0.0, -0.0019617708495821297, 0.0, -0.0009297668402075449, array([[ -1.95554275e-12]])]
[8.84999999999999, -0.22490404448321108, 2.010430097579956, 2.1618735790252686, 0.0, -0.0005312807389169883, 0.0, -0.0014342709464137265, 0.0, -0.0008989487490995305, array([[ -4.61504754e-19]])]
[8.899999999999991, -0.29727174489063024, 2.093480110168457, 1.8094713687896729, 0.0, -0.0005159398771123269, 0.0, -0.001159653353148905, 0.0, -0.0008932985458504489, array([[ -2.07102476e-12]])]
[8.949999999999992, -0.1736775791540446, 2.190009593963623, 1.2368013858795166, 0.0, -0.0004997037414182449, 0.0, 0.0004541282793288374, 0.0, -0.0008946382086636639, array([[-0.00016831]])]
[8.999999999999993, 0.13774703197213106, 2.2590887546539307, 0.54584801197052, 0.0, -0.0004125832147722334, 0.0, 0.001620575197790224, 0.0, -0.0009721566528844048, array([[-18.63977229]])]
[9.049999999999994, 18.819255589679848, 2.2726728916168213, 0.2969675362110138, 0.0, -0.00036950280939275764, 0.0, 0.0023874897772085185, 0.0, -0.0009393049490995467, array([[-63.37282811]])]
[9.099999999999994, 63.66457974321671, 2.297537326812744, 0.6516480445861816, 0.0, -0.0003700381372104012, 0.0, 0.0018516281417245682, 0.0, -0.000895626313273917, array([[-75.8900053]])]
[9.149999999999995, 76.09811740843956, 2.3237221240997314, 1.08519446849823, 0.0, -0.0002829210706403522, 0.0, 0.0008477724831661718, 0.0, -0.000882169278604482, array([[-0.00248979]])]
[9.199999999999996, -0.22974639676976277, 2.445465326309204, 2.1151344776153564, 0.0, -0.0003278406668487582, 0.0, 0.0004384004266458073, 0.0, -0.0008039808555881992, array([[ -2.61450238e-11]])]
[9.249999999999996, -0.37894824891256446, 2.5061049461364746, 2.0136775970458984, 0.0, -0.0004492343572067574, 0.0, -3.152185625622104e-05, 0.0, -0.0007734719233960058, array([[ -1.50509778e-17]])]
[9.299999999999997, -0.517429427831307, 2.6328954696655273, 1.358160138130188, 0.0, -0.0005768732893978255, 0.0, -0.0005216137179621345, 0.0, -0.0006922380173715634, array([[ -1.59382340e-11]])]
[9.349999999999998, -0.2816789759965152, 2.669067144393921, 1.0899373292922974, 0.0, -0.00064230603484044, 0.0, -0.0008352015449334285, 0.0, -0.0006703725253879519, array([[-0.00013979]])]
[9.399999999999999, -0.015809004860895245, 2.7074646949768066, 0.7057065963745117, 0.0, -0.0006678000037283022, 0.0, -0.0009435354103394726, 0.0, -0.0007001656771790803, array([[-0.09142572]])]
[9.45, 0.19150204465628506, 2.7357702255249023, 0.1278311312198639, 0.0, -0.0006454602523837807, 0.0, -0.0013139927314813101, 0.0, -0.0007351229005281572, array([[-1.58226342]])]
[9.5, 1.8487585977146435, 2.7357091903686523, -0.22823230922222137, 0.0, -0.000703729596003065, 0.0, -0.0013437397485015008, 0.0, -0.0007144222223378896, array([[-0.22152148]])]
[9.55, 0.5161419692441691, 2.717352867126465, -0.20528347790241241, 0.0, -0.0005522045907357684, 0.0, -0.0012437471440522787, 0.0, -0.0006826885545464882, array([[-0.2914259]])]
[9.600000000000001, 0.4644263437423158, 2.7246127128601074, 0.07385830581188202, 0.0, -0.0003819808052369695, 0.0, -0.0009989858711991159, 0.0, -0.0006633692851002423, array([[-1.80825605]])]
[9.650000000000002, 1.773126422800334, 2.7290236949920654, 0.02000761218369007, 0.0, -0.00034171789575614716, 0.0, -0.000978556009693699, 0.0, -0.0006227633214615423, array([[-1.21995905]])]
[9.700000000000003, 1.1089220444878034, 2.7344534397125244, 0.20244421064853668, 0.0, -0.00032351008187320933, 0.0, -0.000962529547197, 0.0, -0.0006628986255919566, array([[-1.84071033]])]
[9.750000000000004, 1.5799816618453564, 2.7785542011260986, 1.1201683282852173, 0.0, -0.000408867720775074, 0.0, -0.0009012232350777996, 0.0, -0.0006553679118094612, array([[ -2.59208193e-05]])]
[9.800000000000004, -0.6913861295027088, 2.902730941772461, 2.1785144805908203, 0.0, -0.00039103763513741825, 0.0, -0.0008485759715229701, 0.0, -0.0006311096540723114, array([[ -1.58391877e-13]])]
[9.850000000000005, -0.9759350637996995, 2.9658868312835693, 2.1294126510620117, 0.0, -0.000506210934276348, 0.0, -0.0006557634580804004, 0.0, -0.0005473216036000094, array([[ -1.05456425e-21]])]
[9.900000000000006, -1.1652655274723767, 3.100893259048462, 1.4814598560333252, 0.0, -0.0006882789713838555, 0.0, 2.2935075699904928e-06, 0.0, -0.00042391381038262574, array([[ -1.96161675e-15]])]
[9.950000000000006, -1.003313845376251, 3.140392780303955, 1.2135398387908936, 0.0, -0.000711877952131039, 0.0, 0.0004657906791114077, 0.0, -0.00030446606782642897, array([[ -7.59121330e-08]])]
[10.000000000000007, -0.7361422947998492, 3.208348035812378, 0.5228484272956848, 0.0, -0.000715178711393959, 0.0, 0.0013267205929704039, 0.0, -0.00015127587929811544, array([[-0.00425076]])]
[10.050000000000008, -0.5416154346275351, 3.225285530090332, 0.13898763060569763, 0.0, -0.0008690731707097647, 0.0, 0.001845959248230743, 0.0, -8.8046155409823e-05, array([[-0.01155207]])]
[10.100000000000009, -0.2960668688436144, 3.228036880493164, -0.12951987981796265, 0.0, -0.0009428766779136779, 0.0, 0.002133541107427854, 0.0, -2.5231211275089767e-06, array([[-0.00356932]])]
[10.15000000000001, -0.2639338182069541, 3.2079570293426514, -0.7056395411491394, 0.0, -0.0010509195293250783, 0.0, 0.003396028061730288, 0.0, 0.0002311193730167722, array([[ -8.02990796e-07]])]
[10.20000000000001, -0.1301082410567687, 3.1749351024627686, -1.0898305177688599, 0.0, -0.0011171900213479049, 0.0, 0.0037356320219752185, 0.0, 0.00030449005231692416, array([[ -7.83396137e-11]])]
[10.25000000000001, -0.07159505484202083, 3.078664779663086, -1.7803688049316406, 0.0, -0.0012080650310289484, 0.0, 0.005234720730930477, 0.0, 0.0005032763733751702, array([[ -4.86773820e-21]])]
[10.300000000000011, 0.15702441534096, 2.960068702697754, -2.3536550998687744, 0.0, -0.0013768946019722505, 0.0, 0.006395920141573425, 0.0, 0.0005806824064442617, array([[ -2.62648932e-32]])]
[10.350000000000012, 0.35624799150705333, 2.893427610397339, -2.5983922481536865, 0.0, -0.0014152785416979474, 0.0, 0.006944455708234154, 0.0, 0.000687984364035708, array([[ -4.63359807e-38]])]
[10.400000000000013, 0.4407469029198735, 2.7863779067993164, -2.9063560962677, 0.0, -0.0013472360711255967, 0.0, 0.006898608908177136, 0.0, 0.0006993782855046493, array([[ -5.59273001e-46]])]
[10.450000000000014, 0.5377710045930296, 2.6067214012145996, -3.2146668434143066, 0.0, -0.0008149490063462162, 0.0, 0.004365341552158763, 0.0, 0.0007974959918264334, array([[ -1.30990799e-54]])]
[10.500000000000014, 0.6212234044184982, 2.372121810913086, -3.411508083343506, 0.0, -0.00028109759021882597, 0.0, 0.0019462128813899533, 0.0, 0.0008118123191349409, array([[ -5.13686250e-60]])]
[10.550000000000015, 0.614448636433646, 2.278463363647461, -3.421889305114746, 0.0, -0.00020821806286481874, 0.0, 0.0010546020400562582, 0.0, 0.0008104585030978149, array([[ -5.93294099e-60]])]
[10.600000000000016, 0.5864929377360344, 2.0386617183685303, -3.4236674308776855, 0.0, -0.00016224164074692482, 0.0, 9.178118388937257e-05, 0.0, 0.0006133134854362595, array([[ -2.97252631e-59]])]
[10.650000000000016, 0.5208760203809738, 1.9460439682006836, -3.4382803440093994, 0.0, -0.00016552470805150223, 0.0, -0.0002495036504197195, 0.0, 0.0005547574414975324, array([[ -5.07835668e-59]])]
[10.700000000000017, 0.4920551928912848, 1.7021050453186035, -3.5637576580047607, 0.0, -0.00022734111707508044, 0.0, -0.0003405602641841868, 0.0, 0.00044097905978322647, array([[ -2.59668021e-60]])]
[10.750000000000018, 0.5020823162672072, 1.604074239730835, -3.6436474323272705, 0.0, -0.00028652641052957865, 0.0, -0.00029810651049308354, 0.0, 0.0003216231510113804, array([[ -4.03776348e-65]])]
[10.800000000000018, 0.5889391776446253, 1.4594807624816895, -3.764160394668579, 0.0, -0.00023916747444057936, 0.0, -0.0003388779422039998, 0.0, 0.0002750908490540601, array([[ -3.67495277e-69]])]
[10.85000000000002, 0.6722823671139926, 1.2338465452194214, -3.8951168060302734, 0.0, -0.00022829302116829142, 0.0, -0.00036359279742325437, 0.0, 0.00018051430316560387, array([[ -1.24244669e-73]])]
[10.90000000000002, 0.7571551964834481, 0.9597280025482178, -3.820671319961548, 0.0, -0.00020687482080030146, 0.0, -0.00038595848797999766, 0.0, 0.00017326346515747083, array([[ -7.00053153e-70]])]
[10.95000000000002, 0.7614774797448516, 0.8561296463012695, -3.717358350753784, 0.0, -7.886551625378511e-05, 0.0, -0.00031957362652819177, 0.0, 0.00015140407106108353, array([[ -1.17053505e-65]])]
[11.000000000000021, 0.6887074703260119, 0.6046774387359619, -3.4169936180114746, 0.0, -0.0002514350271075523, 0.0, -0.00021387189394583584, 0.0, 0.00017603212938214336, array([[ -4.17849036e-54]])]
[11.050000000000022, 0.6049028231972009, 0.5129460096359253, -3.330514907836914, 0.0, -0.00018937625330053368, 0.0, -0.0003173842275524519, 0.0, 0.00010387988893292107, array([[ -5.44790171e-51]])]
[11.100000000000023, 0.9523284969135075, 0.28366991877555847, -3.1464853286743164, 0.0, -0.00010170411205838789, 0.0, -0.0003828410333049891, 0.0, 1.9238431503154613e-05, array([[ -1.58233768e-44]])]
[11.150000000000023, 1.3624874044629856, 0.20189395546913147, -2.8476920127868652, 0.0, -0.0002120170766713589, 0.0, -0.00044161399499597953, 0.0, -4.479743272074102e-05, array([[ -2.22101823e-35]])]
[11.200000000000024, 1.4044417697199583, 0.03562118858098984, -1.8712266683578491, 0.0, -0.0002634417491070892, 0.0, -0.0004163894506578074, 0.0, 2.230838357734533e-05, array([[ -6.77130301e-22]])]
[11.250000000000025, 1.3997682958836704, -0.00877457857131958, -1.4511915445327759, 0.0, -0.00026458730248612615, 0.0, -0.000421034131939129, 0.0, -2.051196228088302e-05, array([[ -1.53445105e-05]])]
[11.300000000000026, 1.2496771768619896, -0.06820309907197952, -0.3213730752468109, 0.0, -0.00038549909529333185, 0.0, -0.0004355124712218967, 0.0, 7.611686081228323e-05, array([[-63.94130102]])]
[11.350000000000026, 64.98762939446192, -0.06892376393079758, 0.12774114310741425, 0.0, -0.0003091300382052492, 0.0, -0.00042490019682378993, 0.0, 7.070379399213589e-05, array([[-74637.20158319]])]
[11.400000000000027, 74637.77240538126, -0.01319579966366291, 1.2559032440185547, 0.0, -0.0002218672499101197, 0.0, -0.0004934350188588982, 0.0, -5.675921421319046e-05, array([[-0.02192619]])]
[11.450000000000028, 0.22269696357837637, 0.03076145425438881, 1.675527572631836, 0.0, -0.00038317658082313594, 0.0, -0.0005110429028221399, 0.0, -5.654745551375643e-05, array([[ -3.23850466e-08]])]
[11.500000000000028, -0.276230820176256, 0.11104680597782135, 2.0108449459075928, 0.0, -0.00041767852672664455, 0.0, -0.000476472603858126, 0.0, -4.558767836886057e-05, array([[ -4.58964800e-14]])]
[11.55000000000003, -0.44499906723287574, 0.2267584353685379, 1.6025285720825195, 0.0, -7.154357611297944e-05, 0.0, -0.00047729224881303434, 0.0, 4.958176828426072e-05, array([[ -6.08656652e-07]])]
[11.60000000000003, -0.14943671654322013, 0.28681448101997375, 1.2252618074417114, 0.0, -5.30489431324602e-05, 0.0, -0.0004289877760548898, 0.0, 8.211343401153818e-05, array([[-0.07654486]])]
[11.65000000000003, 0.26386366405234335, 0.3481523096561432, 0.6503649950027466, 0.0, 0.0002315938093224314, 0.0, 1.8894656676388406e-05, 0.0, 0.00021259089466927426, array([[-3448.1566245]])]
[11.700000000000031, 3448.6967725374834, 0.37053382396698, 0.3210102617740631, 0.0, 0.0003241235965448727, 0.0, 0.00013857453770014795, 0.0, 0.00026858217933238446, array([[-72929.52682698]])]
[11.750000000000032, 72930.10607784102, 0.3905545473098755, 0.4710918068885803, 0.0, 0.0002510124254437571, 0.0, 0.0001607225199407616, 0.0, 0.00036400035762574647, array([[-29036.28057479]])]
[11.800000000000033, 29036.691089420958, 0.4247668981552124, 1.0776678323745728, 0.0, 0.00010634044292127182, 0.0, -2.390677603679603e-05, 0.0, 0.00031795455680025175, array([[-4.0434469]])]
[11.850000000000033, 4.09208964274101, 0.5240193605422974, 1.9729849100112915, 0.0, -7.632657531903097e-05, 0.0, -0.0002525577103002291, 0.0, 0.0002808762398695418, array([[ -4.85812628e-13]])]
[11.900000000000034, -0.42107800541370205, 0.6191370487213135, 2.5399930477142334, 0.0, -0.0001835127183576454, 0.0, -0.0003449875592159612, 0.0, 0.00027718933357945606, array([[ -1.13006950e-25]])]
[11.950000000000035, -0.650919165793836, 0.818661630153656, 2.460664749145508, 0.0, -0.00019673170351121926, 0.0, -0.0005185486344719233, 0.0, 0.00033149382680712226, array([[ -8.77105957e-24]])]
[12.000000000000036, -0.5064549152079969, 0.8870372176170349, 2.1996657848358154, 0.0, -0.0001782605743954539, 0.0, -0.00047940091392132767, 0.0, 0.00034008350547079833, array([[ -9.33010445e-18]])]
[12.050000000000036, -0.2056380388968587, 1.0079642534255981, 1.6249947547912598, 0.0, -0.0001484857020980051, 0.0, 6.531445852037457e-05, 0.0, 0.0004587214498673018, array([[ -3.48692365e-07]])]
[12.100000000000037, 0.15239193542297946, 1.0691903829574585, 1.2409435510635376, 0.0, -0.00012684897258301577, 0.0, 0.00018584142381151625, 0.0, 0.0005037273444741971, array([[-0.04599794]])]
[12.150000000000038, 0.2950918549876028, 1.1418007612228394, 0.6001619696617126, 0.0, 5.2890022469582e-05, 0.0, 0.0008742679162403998, 0.0, 0.0006270840016419022, array([[-4201.09919296]])]
[12.200000000000038, 4201.483576328789, 1.172760248184204, 0.26040494441986084, 0.0, -5.149930791586081e-05, 0.0, 0.0008271665042515702, 0.0, 0.0006600827129167028, array([[-36450.54287742]])]
[12.250000000000039, 36450.88078669352, 1.187905192375183, 0.5713114142417908, 0.0, -0.00012105457553215765, 0.0, 0.00027961406640283383, 0.0, 0.0006570524593018958, array([[-5259.27515668]])]
[12.30000000000004, 5259.4291765800235, 1.27678644657135, 1.6561620235443115, 0.0, -0.0002556044431818191, 0.0, -0.0001470544100007466, 0.0, 0.0006271638899002476, array([[-0.16649305]])]
[12.35000000000004, -0.04381006161982898, 1.3322077989578247, 2.0637006759643555, 0.0, -0.00019892397829686823, 0.0, -0.00039608109966880886, 0.0, 0.000578125562984502, array([[ -2.37924981e-15]])]
[12.400000000000041, -0.6179048036908632, 1.4979734420776367, 1.9965900182724, 0.0, -0.0004501842096609582, 0.0, -0.0004242425886497473, 0.0, 0.0005646104010773866, array([[ -2.92596412e-14]])]
[12.450000000000042, -0.5460584921455388, 1.5534056425094604, 1.7352330684661865, 0.0, -0.0006015824620528502, 0.0, -0.00020520207858294132, 0.0, 0.0005146747624453707, array([[ -1.20261433e-09]])]
[12.500000000000043, -0.16373480591022846, 1.6193618774414062, 1.3530858755111694, 0.0, -0.0006722798949753222, 0.0, -8.124836298181243e-05, 0.0, 0.00048648625556912647, array([[-0.00035806]])]
[12.550000000000043, 0.18343361937227987, 1.6893913745880127, 0.777410089969635, 0.0, -0.000765607487552519, 0.0, 0.0006641403785382411, 0.0, 0.0003670134510735557, array([[-66.00902133]])]
[12.600000000000044, 66.43491288296548, 1.7171653509140015, 0.42490509152412415, 0.0, -0.0008388808474483308, 0.0, 0.0009324314156811714, 0.0, 0.00031073700460825334, array([[-2225.66710334]])]
[12.650000000000045, 2226.120841782433, 1.7479928731918335, 0.6125097274780273, 0.0, -0.0006994687953761895, 0.0, 0.0005939738316751257, 0.0, 0.00021887159757138486, array([[-389.4022571]])]
[12.700000000000045, 389.6683755940083, 1.78983473777771, 1.2187989950180054, 0.0, -0.0006173800041102209, 0.0, 0.0002734836406659322, 0.0, 0.00018477166632825158, array([[-0.00603975]])]
[12.750000000000046, -0.0901428865818534, 1.8970292806625366, 2.103692054748535, 0.0, -0.0005167652460749084, 0.0, -0.0002952749949025658, 0.0, 0.0002661914871956031, array([[ -2.93799246e-17]])]
[12.800000000000047, -0.5606156084292978, 2.0613105297088623, 1.9428682327270508, 0.0, -0.00013491573571687159, 0.0, -0.0004405237126415166, 0.0, 0.0003033184415409083, array([[ -1.76030169e-14]])]
[12.850000000000048, -0.5957698550055147, 2.1151223182678223, 1.680373191833496, 0.0, 0.0001860526867157247, 0.0, -0.00028113399769149987, 0.0, 0.0003831729956619586, array([[ -4.71110318e-10]])]
[12.900000000000048, -0.23654498257920625, 2.2180750370025635, 0.9911284446716309, 0.0, 0.0005795285453455795, 0.0, 8.835863170970475e-05, 0.0, 0.0004048039376744888, array([[-0.07876077]])]
[12.950000000000049, 0.1911880231745416, 2.244798421859741, 0.7222945690155029, 0.0, 0.0008899109128800929, 0.0, 0.0003798986641858335, 0.0, 0.000439507824359926, array([[-5.25369396]])]
[13.00000000000005, 5.687775880611303, 2.280083179473877, 0.10154672712087631, 0.0, 0.0013325205382551783, 0.0, 0.0008380064981712974, 0.0, 0.0005525136401875124, array([[-114.43695176]])]
[13.05000000000005, 114.94705196788763, 2.288857936859131, 0.3410475254058838, 0.0, 0.0010662862653870193, 0.0, 0.0006605834116474184, 0.0, 0.0005770897516931407, array([[-94.50727339]])]
[13.100000000000051, 94.90545826767872, 2.3186399936676025, 0.9400447607040405, 0.0, 0.000722261762126469, 0.0, 0.00028330401434015657, 0.0, 0.0005325013416367739, array([[-0.1017544]])]
[13.150000000000052, 0.1431076709885902, 2.408238649368286, 1.8386645317077637, 0.0, 0.0003416872473486553, 0.0, -0.0002844668000331228, 0.0, 0.00046626413211542286, array([[ -1.22569480e-13]])]
[13.200000000000053, -0.43146577774087747, 2.5596401691436768, 1.859635591506958, 0.0, 0.00011578547877949662, 0.0, -0.0005544889555587589, 0.0, 0.0005200600069161833, array([[ -1.60821509e-14]])]
[13.250000000000053, -0.6587601050336647, 2.610826015472412, 1.6061943769454956, 0.0, -1.948959989484593e-05, 0.0, -0.0006888927932961093, 0.0, 0.0004712084788201677, array([[ -1.66613444e-10]])]
[13.300000000000054, -0.46388954253989656, 2.708026647567749, 0.918117105960846, 0.0, -0.00015136871880319904, 0.0, -0.000573218482669767, 0.0, 0.0005162579816075489, array([[ -7.98840539e-06]])]
[13.350000000000055, -0.2663485364409318, 2.732667922973633, 0.6490349769592285, 0.0, -0.00024406098091870495, 0.0, -0.00037693849826221453, 0.0, 0.0004904667258270565, array([[-0.25596561]])]
[13.400000000000055, 0.3894930292166747, 2.762270212173462, -0.028943698853254318, 0.0, -0.0004494365988795432, 0.0, -3.527391731321525e-05, 0.0, 0.0005271807046821829, array([[-1.46426961]])]
[13.450000000000056, 1.8191147762448592, 2.763317108154297, -0.19202002882957458, 0.0, -0.000541249755080863, 0.0, 7.437250997218364e-05, 0.0, 0.0005343176373210128, array([[-0.41055879]])]
[13.500000000000057, 0.8797150235389781, 2.7772867679595947, 0.5324408411979675, 0.0, -0.0004747188294340529, 0.0, -0.00019847811117841392, 0.0, 0.0005535195206377581, array([[-2.17036903]])]
[13.550000000000058, 2.470384759763517, 2.8009135723114014, 0.8650510311126709, 0.0, -0.00042365104428431925, 0.0, -0.0004563296569891169, 0.0, 0.0005507030867298263, array([[-0.00666314]])]
[13.600000000000058, -0.11987589272997072, 2.850220203399658, 1.3677047491073608, 0.0, -0.00045107507917218557, 0.0, -0.0005518685091205449, 0.0, 0.0005337036106683914, array([[ -4.31446939e-08]])]
[13.650000000000059, -0.4532919283540263, 2.9792842864990234, 1.5916050672531128, 0.0, -0.000189392795873802, 0.0, -0.0006198067952075814, 0.0, 0.000538695413637628, array([[ -9.20972138e-12]])]
[13.70000000000006, -0.6704249734444312, 3.0240960121154785, 1.337646722793579, 0.0, -0.00012814434488129655, 0.0, -0.000577349367081716, 0.0, 0.0005626131207429859, array([[ -1.87202000e-08]])]
[13.75000000000006, -0.6925427393376625, 3.094806671142578, 0.7657910585403442, 0.0, 0.00035205936774932573, 0.0, 0.00013999465705952276, 0.0, 0.000598004122303134, array([[-0.00170604]])]
[13.800000000000061, -0.5815649772341928, 3.122652530670166, 0.38162192702293396, 0.0, 0.00043400787018358326, 0.0, 0.00038423545377938725, 0.0, 0.0005951126055902991, array([[-0.04884189]])]
[13.850000000000062, -0.41143302199480586, 3.1373472213745117, -0.19490556418895721, 0.0, 0.0007185876801931667, 0.0, 0.0014642795179926444, 0.0, 0.0006780790575173616, array([[-0.0094276]])]
[13.900000000000063, -0.2586528869058878, 3.1083970069885254, -0.8855487108230591, 0.0, 0.0009487260127412233, 0.0, 0.0023158356457587664, 0.0, 0.0006435855823457609, array([[ -7.22355358e-08]])]
[13.950000000000063, -0.13788358355434607, 3.083841562271118, -1.1545368432998657, 0.0, 0.0011258379994899981, 0.0, 0.002975156702368675, 0.0, 0.0006530972760062486, array([[ -4.54243622e-11]])]
[14.000000000000064, 0.041166637270351907, 2.9842312335968018, -1.8467012643814087, 0.0, 0.001276446670480689, 0.0, 0.004107749369002648, 0.0, 0.0006800916646193567, array([[ -3.87453836e-16]])]
[14.050000000000065, 0.1295131358346347, 2.932107925415039, -2.1112446784973145, 0.0, 0.0013825489278280754, 0.0, 0.004782863292503098, 0.0, 0.0007757761016346657, array([[ -1.40049227e-26]])]
[14.100000000000065, 0.288127197983697, 2.763604164123535, -2.7528750896453857, 0.0, 0.001302853321137343, 0.0, 0.005076872561821977, 0.0, 0.0007514163737179293, array([[ -1.75001435e-34]])]
[14.150000000000066, 0.35035573337239023, 2.6865246295928955, -2.9551138877868652, 0.0, 0.001031262844791005, 0.0, 0.004444940100118722, 0.0, 0.0007203075236850462, array([[ -9.66136343e-47]])]
[14.200000000000067, 0.4830304758044183, 2.5667495727539062, -3.211801052093506, 0.0, 0.0008870323653046752, 0.0, 0.003906931524008358, 0.0, 0.0007213494878995565, array([[ -4.42433547e-54]])]
[14.250000000000068, 0.5258641583074778, 2.372370958328247, -3.496830940246582, 0.0, 0.00017107277648726064, 0.0, 0.0015227528862499372, 0.0, 0.0007904681929525176, array([[ -6.65411213e-63]])]
[14.300000000000068, 0.61204948263067, 2.1221907138824463, -3.677473306655884, 0.0, -0.0002787817746120356, 0.0, 0.00019806884201444024, 0.0, 0.0008346486151016463, array([[ -2.90664103e-66]])]
[14.350000000000069, 0.6272131750530153, 2.0226919651031494, -3.6937804222106934, 0.0, -0.000290153007698574, 0.0, -0.0002851663262889449, 0.0, 0.0007838042052013475, array([[ -1.58205441e-68]])]
[14.40000000000007, 0.6494501693410276, 1.7648556232452393, -3.6874520778656006, 0.0, -0.00031185522710842987, 0.0, -0.0006347684528476084, 0.0, 0.0007186184932988346, array([[ -3.70068383e-67]])]
[14.45000000000007, 0.6323932156336307, 1.6653356552124023, -3.6669533252716064, 0.0, -0.0003333219051313557, 0.0, -0.0007991094622222622, 0.0, 0.0007249747533614912, array([[ -4.65456503e-66]])]
[14.500000000000071, 0.6114346085131317, 1.4104342460632324, -3.6304121017456055, 0.0, -0.00039683374552354744, 0.0, -0.0007344999775319283, 0.0, 0.0006917755929772108, array([[ -1.79749831e-64]])]
[14.550000000000072, 0.5848645558502673, 1.3116472959518433, -3.6321754455566406, 0.0, -0.0003056345912627509, 0.0, -0.0006195502665694108, 0.0, 0.0006939161114696728, array([[ -1.55637210e-63]])]
[14.600000000000072, 0.5834196384733766, 1.0571767091751099, -3.6709890365600586, 0.0, -0.0002855394596984928, 0.0, -0.0006171172339745412, 0.0, 0.0006231028371207738, array([[ -3.46014673e-64]])]
[14.650000000000073, 0.6089558420397936, 0.9581923484802246, -3.697009801864624, 0.0, -0.00027353261818342496, 0.0, -0.0006358561195915485, 0.0, 0.00058972139222462, array([[ -5.71449250e-65]])]
[14.700000000000074, 0.6287773232135474, 0.6993243098258972, -3.734872341156006, 0.0, -0.0003134332453661278, 0.0, -0.00069345456633433, 0.0, 0.0004916252424292155, array([[ -9.24894862e-66]])]
[14.750000000000075, 0.6570622602877914, 0.5983670949935913, -3.7315139770507812, 0.0, -0.0003511016776969328, 0.0, -0.0006124290112630439, 0.0, 0.0005523998572859772, array([[ -1.73581574e-65]])]
[14.800000000000075, 0.6869328176979571, 0.4539644420146942, -3.713402032852173, 0.0, -0.00032267019385778453, 0.0, -0.00056712627532875, 0.0, 0.0005343449905697526, array([[ -1.76436176e-64]])]
[14.850000000000076, 0.6988709661790058, 0.2399536818265915, -3.626404285430908, 0.0, -0.00019981841535496523, 0.0, -0.0005279502914119919, 0.0, 0.0005216621413679269, array([[ -6.05684073e-61]])]
[14.900000000000077, 0.6836141796317957, -0.008378286845982075, -3.4688234329223633, 0.0, -0.00025899131512353634, 0.0, -0.0005015071797896405, 0.0, 0.000493688831187912, array([[ -6.79763075e-55]])]
[14.950000000000077, 0.6575380410604029, -0.10140717029571533, -3.4107112884521484, 0.0, -0.00026104532238696717, 0.0, -0.0005603296030875426, 0.0, 0.0005326407100237025, array([[ -7.79362737e-53]])]
[15.000000000000078, 1.4813088947374373, -0.33307337760925293, -3.246049165725708, 0.0, -0.00023532791721351002, 0.0, -0.0005492801434974082, 0.0, 0.0005334751417130993, array([[ -4.52247227e-47]])]
[15.050000000000079, 1.4966821177225167, -0.35307756066322327, 0.06710561364889145, 0.0, -0.01886232303276315, 0.0, 0.018762793917607486, 0.0, 0.003149306764827398, array([[-81151.34174029]])]
[15.10000000000008, 81151.51018592526, -0.3374757766723633, 0.4364872872829437, 0.0, -0.015385823181918615, 0.0, 0.011327173004539417, 0.0, 0.004946185669241617, array([[-20328.00332191]])]
[15.15000000000008, 20328.13313889245, -0.28070080280303955, 1.193341851234436, 0.0, -0.012986633861243407, 0.0, 0.013278330113308055, 0.0, 0.01445089545838648, array([[-0.0904274]])]
[15.200000000000081, 0.040582297574799656, -0.21765096485614777, 1.7093092203140259, 0.0, -0.007871918881433989, 0.0, 0.009916789403515924, 0.0, 0.015358766859488912, array([[ -1.05346987e-08]])]
[15.250000000000082, -0.18669533445743974, -0.09135415405035019, 1.9962177276611328, 0.0, -0.0069224278232760065, 0.0, 0.0033466784658025806, 0.0, 0.014025643060137993, array([[ -9.60932485e-14]])]
[15.300000000000082, -0.33834192035275407, -0.013618054799735546, 1.6503362655639648, 0.0, -0.0066970925117450925, 0.0, 0.003017348232720362, 0.0, 0.013340604747276512, array([[ -1.54491660e-07]])]
[15.350000000000083, -0.24632497769177114, 0.07533977180719376, 1.0804368257522583, 0.0, -0.004803866219846752, 0.0, 0.0011914105027852986, 0.0, 0.00996881685311132, array([[-3.00330962]])]
[15.400000000000084, 3.0741418974827655, 0.11571241915225983, 0.6968826651573181, 0.0, -0.004341902040095603, 0.0, 0.0007718243494983275, 0.0, 0.00914652041543346, array([[-3113.54320422]])]
[15.450000000000085, 3113.738066461017, 0.15822769701480865, 0.7182485461235046, 0.0, -0.002429787155683132, 0.0, -0.000967182750775031, 0.0, 0.005933441953953892, array([[-2211.00096452]])]
