time, uz, alt, vel_alt, uthe, roll, uphi, pitch, upsi, yaw, F
[0.0, 0.0, 0.026570139452815056, 0.040848132222890854, 0.0, -0.013720334841784068, 0.0, 0.02368945132652379, 0.0, -0.08516867417889401, array([[ 26.9655582]])]
[0.05, -26.969214875234762, 0.02547370456159115, 0.04078834876418114, 0.0, -0.013687120687739703, 0.0, 0.023749951166339222, 0.0, -0.08509420552785021, array([[ 65.03264144]])]
[0.1, -65.03573608808871, 0.02472863532602787, 0.0405147559940815, 0.0, -0.013708151055582094, 0.0, 0.02374048076242222, 0.0, -0.08505414674954519, array([[ 134.97589293]])]
[0.15000000000000002, -134.97842499345853, 0.023450179025530815, 0.039727289229631424, 0.0, -0.013746845968697203, 0.0, 0.0238790420124046, 0.0, -0.0849421497978907, array([[-178.04977672]])]
[0.2, 178.17975694006233, 0.023368095979094505, 0.03959614410996437, 0.0, -0.013742358195369375, 0.0, 0.02386181975172897, 0.0, -0.084976223606123, array([[-1318.90872341]])]
[0.25, 1319.1959716378956, 0.030701274052262306, 0.4696466326713562, 0.0, -0.011771793965026815, 0.0, 0.019224270024783868, 0.0, -0.08251391781916705, array([[-372.05912641]])]
[0.3, 372.4084017313147, 0.0516669824719429, 0.9194037914276123, 0.0, -0.01031673336719473, 0.0, 0.015371818311996637, 0.0, -0.07957117483482916, array([[-0.68383554]])]
[0.35, 0.46010726249888867, 0.1452534943819046, 1.9225525856018066, 0.0, -0.006259097349346194, 0.0, 0.008253932574285952, 0.0, -0.06229292873448379, array([[ -3.76176851e-14]])]
[0.39999999999999997, -1.3585826449608054, 0.20967267453670502, 2.102546215057373, 0.0, -0.005185212380218967, 0.0, 0.006631612688159013, 0.0, -0.0578510704458104, array([[ -9.98113945e-18]])]
[0.44999999999999996, -1.6076081432495266, 0.3395790755748749, 1.6604732275009155, 0.0, -0.0010567492220976663, 0.0, 0.0011697586313131581, 0.0, -0.04119306771348664, array([[ -1.66468528e-09]])]
[0.49999999999999994, -1.2976326107350715, 0.3976042866706848, 1.2820539474487305, 0.0, -1.7894806923497362e-05, 0.0, -0.00014843861004134053, 0.0, -0.03709438596477008, array([[-0.00025878]])]
[0.5499999999999999, -0.8838909778334613, 0.456459105014801, 0.7076217532157898, 0.0, 0.004172630425696554, 0.0, -0.0055523707784281805, 0.0, -0.020885482503018502, array([[-37.7345144]])]
[0.6, 37.32976553225855, 0.4765087068080902, 0.3248215913772583, 0.0, 0.005166958455210663, 0.0, -0.006875330902166465, 0.0, -0.016812117252713425, array([[-1570.39477108]])]
[0.65, 1570.9118353165993, 0.5015547871589661, 0.7860276699066162, 0.0, 0.0065416761012950415, 0.0, -0.007480906316050193, 0.0, -0.003104094374655463, array([[-21.54695404]])]
[0.7000000000000001, 22.18463030143488, 0.5334252715110779, 1.2530136108398438, 0.0, 0.005771585632463792, 0.0, -0.005759673442432476, 0.0, -0.0014580555823864197, array([[-0.00107177]])]
[0.7500000000000001, 0.015430110166861369, 0.6512032747268677, 2.249387264251709, 0.0, 0.0038006453732573843, 0.0, -0.003057860521423316, 0.0, 8.514223183990904e-05, array([[ -2.00315923e-20]])]
[0.8000000000000002, -0.8566327049024403, 0.7271934747695923, 2.413067102432251, 0.0, 0.0029880154314385885, 0.0, -0.002138056267895566, 0.0, -6.118843845265389e-05, array([[ -2.56707964e-24]])]
[0.8500000000000002, -1.700679026963189, 0.8680081963539124, 1.8363118171691895, 0.0, 0.0010300645538680422, 0.0, 0.00019220516408050836, 0.0, -0.000649215426685742, array([[ -3.03543482e-12]])]
[0.9000000000000002, -1.7878932419761462, 0.9199726581573486, 1.5306264162063599, 0.0, 0.0005205866835635462, 0.0, 0.0007342676549994994, 0.0, -0.0008510909920253624, array([[ -1.96222682e-07]])]
[0.9500000000000003, -1.4403152113850226, 0.997686505317688, 0.8783189654350281, 0.0, -0.0016229638281983802, 0.0, 0.0030281973589052916, 0.0, -0.0014770935095713086, array([[-2.94671326]])]
[1.0000000000000002, 2.3910986855887435, 1.0193251371383667, 0.5717846751213074, 0.0, -0.002146322471893634, 0.0, 0.003639098654367562, 0.0, -0.001655559874382543, array([[-142.30660542]])]
[1.0500000000000003, 142.30311560187332, 1.0498766899108887, 0.8000109195709229, 0.0, -0.0028381944726563234, 0.0, 0.004391954034860576, 0.0, -0.0021388708359863086, array([[-9.21112636]])]
[1.1000000000000003, 9.243979990614433, 1.0923376083374023, 1.4112988710403442, 0.0, -0.0021766239857160794, 0.0, 0.003496171100171622, 0.0, -0.002130455494161168, array([[ -5.99192188e-06]])]
[1.1500000000000004, -0.3084971169129702, 1.201519250869751, 2.2920751571655273, 0.0, -0.001473579799240832, 0.0, 0.002276101727575285, 0.0, -0.001617673126544193, array([[ -8.59574727e-22]])]
[1.2000000000000004, -1.315580635657534, 1.2736999988555908, 2.215217113494873, 0.0, -0.001196120587368691, 0.0, 0.00205040241905503, 0.0, -0.0014459369902388394, array([[ -2.93581179e-20]])]
[1.2500000000000004, -1.2713702515140175, 1.3976244926452637, 1.5979011058807373, 0.0, -1.562618923543644e-05, 0.0, 0.0011038060789735158, 0.0, -0.0008453902538454916, array([[ -6.52503656e-09]])]
[1.3000000000000005, -0.8844324473978908, 1.4413073062896729, 1.2913073301315308, 0.0, 0.00033575758942840957, 0.0, 0.0008696304207574212, 0.0, -0.0006973844221898795, array([[ -6.37220214e-05]])]
[1.3500000000000005, -0.609245997793477, 1.501219391822815, 0.6367254853248596, 0.0, 0.0015582915432007342, 0.0, -4.786164341556021e-05, 0.0, -0.0001462026010443055, array([[-18.25546204]])]
[1.4000000000000006, 18.441002017281907, 1.5144083499908447, 0.3291514217853546, 0.0, 0.0018458400878626144, 0.0, -0.0002428670343616797, 0.0, -1.0507981598975469e-05, array([[-143.60894847]])]
[1.4500000000000006, 144.15151618367187, 1.5277622938156128, 0.5756460428237915, 0.0, 0.002123951985946057, 0.0, -0.0005416081064100421, 0.0, 0.0005079690183418857, array([[-31.49891506]])]
[1.5000000000000007, 32.08536098551205, 1.5523555278778076, 1.0776371955871582, 0.0, 0.0015450734902588453, 0.0, -0.0003142389751722848, 0.0, -0.00024756053378138386, array([[-0.00805481]])]
[1.5500000000000007, -0.2801457179122244, 1.6570976972579956, 2.1097302436828613, 0.0, 0.0009866257258955586, 0.0, 6.066968880712028e-05, 0.0, -0.0006878067391709216, array([[ -1.43356267e-18]])]
[1.6000000000000008, -1.4442290889285505, 1.7265371084213257, 2.1938939094543457, 0.0, 0.0007500012355585949, 0.0, 0.00020043909886078854, 0.0, -0.0008914993375398723, array([[ -1.38180172e-20]])]
[1.6500000000000008, -1.2742375053605064, 1.8525112867355347, 1.5970066785812378, 0.0, -0.00040059007450494896, 0.0, 0.0008679611176304746, 0.0, -0.0014434507895275943, array([[ -8.55328591e-10]])]
[1.7000000000000008, -0.9211288007130826, 1.8975155353546143, 1.2910692691802979, 0.0, -0.0006751926124431044, 0.0, 0.0010769984818661718, 0.0, -0.0015784263238397074, array([[ -7.42868246e-06]])]
[1.7500000000000009, -0.8988223451077397, 1.9608460664749146, 0.638580322265625, 0.0, -0.0018324343929561478, 0.0, 0.0020056984346337103, 0.0, -0.0018242692172237762, array([[-1.74792719]])]
[1.800000000000001, 1.4406907937479436, 1.975392460823059, 0.33129552006721497, 0.0, -0.002122209329538175, 0.0, 0.0022538419364969684, 0.0, -0.0017922019768951574, array([[-12.53109032]])]
[1.850000000000001, 12.93773154546041, 1.9992421865463257, 0.7703313827514648, 0.0, -0.001935336842713036, 0.0, 0.002262226828094785, 0.0, -0.0015518462195548575, array([[-0.25525408]])]
[1.900000000000001, 0.03466130040940385, 2.031130075454712, 1.2683024406433105, 0.0, -0.0015798734489001034, 0.0, 0.0018174584164330787, 0.0, -0.0014506140319447743, array([[ -6.10559035e-06]])]
[1.950000000000001, -0.7592774602745485, 2.1347951889038086, 1.4724537134170532, 0.0, -0.0012928263171200732, 0.0, 0.0015261866203410558, 0.0, -0.0006763479754419967, array([[ -9.76061058e-09]])]
[2.000000000000001, -1.0355608404191436, 2.176750898361206, 1.1846047639846802, 0.0, -0.0011084751044983107, 0.0, 0.001381878800350396, 0.0, -0.00042004288071376497, array([[ -2.02873674e-05]])]
[2.0500000000000007, -0.4980242054211834, 2.234855890274048, 0.5369038581848145, 0.0, -0.00040475831858916234, 0.0, 0.0010035819907151973, 0.0, 0.00042792463799437623, array([[-0.78238108]])]
[2.1000000000000005, 0.9057278163321858, 2.247074604034424, 0.23003819584846497, 0.0, -0.00023378951680628872, 0.0, 0.0009667623782366305, 0.0, 0.000738384142595131, array([[-2.54444746]])]
[2.1500000000000004, 2.9159100572490964, 2.2552053928375244, 0.33414390683174133, 0.0, 0.00020577208202867366, 0.0, 0.0008331031582867708, 0.0, 0.0016612618784469983, array([[-2.31481978]])]
[2.2, 2.853770059895159, 2.2727460861206055, 0.7936496138572693, 0.0, 0.00016263714189667248, 0.0, 0.000855087833516475, 0.0, 0.0017843146037746095, array([[-0.02321772]])]
[2.25, 0.06740295290962507, 2.3620917797088623, 1.7968714237213135, 0.0, 6.982573394715764e-05, 0.0, 0.0006200216799924521, 0.0, 0.001998456995559091, array([[ -1.68979297e-14]])]
[2.3, -1.4264224068634044, 2.418696880340576, 1.694379210472107, 0.0, 6.251869540039014e-06, 0.0, 0.0007033659464348755, 0.0, 0.00200273660840364, array([[ -4.66051343e-13]])]
[2.3499999999999996, -1.6339930721647102, 2.513895273208618, 1.0904804468154907, 0.0, -6.927955607744311e-05, 0.0, 0.0009463072389570865, 0.0, 0.0020867424933624368, array([[ -1.79726104e-05]])]
[2.3999999999999995, -1.4699838030771186, 2.543943166732788, 0.7851436734199524, 0.0, -5.570245006380049e-05, 0.0, 0.0010863822583942323, 0.0, 0.002092982746713829, array([[-0.00320276]])]
[2.4499999999999993, -0.7895013791861155, 2.576632499694824, 0.13376325368881226, 0.0, -3.72411149587858e-05, 0.0, 0.001553423720523051, 0.0, 0.0019328262818367426, array([[-0.22973002]])]
[2.499999999999999, 0.27177904461636493, 2.5764942169189453, -0.1731063425540924, 0.0, -1.0576545262397379e-05, 0.0, 0.0016821721079308966, 0.0, 0.0018694576225479187, array([[-0.03892922]])]
[2.549999999999999, 0.45866005703179724, 2.545313835144043, -0.7258291244506836, 0.0, -0.00012776912215750326, 0.0, 0.0021516156456134056, 0.0, 0.0014816623857062203, array([[ -1.81444145e-05]])]
[2.5999999999999988, 1.2775995427711968, 2.512481212615967, -0.9021291732788086, 0.0, -0.00011697018651727894, 0.0, 0.0020736149912038257, 0.0, 0.0013998293019079613, array([[ -3.33237578e-07]])]
[2.6499999999999986, 1.407491759854485, 2.4677300453186035, -0.37663960456848145, 0.0, -4.4566876552726975e-05, 0.0, 0.0012650078779228668, 0.0, 0.0008340580849909585, array([[-0.01317779]])]
[2.6999999999999984, 0.9298253132100813, 2.4638874530792236, 0.14088115096092224, 0.0, -0.0001088129523098691, 0.0, 0.001166605973038995, 0.0, 0.0007113754340440731, array([[-0.44899704]])]
[2.7499999999999982, 0.6050048498442896, 2.5083532333374023, 1.119863748550415, 0.0, -6.30346956040077e-05, 0.0, 0.000723680569231606, 0.0, 0.0004913251706791818, array([[ -9.18111665e-06]])]
[2.799999999999998, -1.2862702074656882, 2.547828435897827, 1.3109380006790161, 0.0, -7.06850881521483e-05, 0.0, 0.0006673319869577543, 0.0, 0.0005243675230207312, array([[ -4.14029156e-08]])]
[2.849999999999998, -1.698399372719189, 2.627239942550659, 0.9335982799530029, 0.0, -7.88265414909085e-05, 0.0, 0.0005789695275971546, 0.0, 0.0004308865607987128, array([[-0.00016011]])]
[2.8999999999999977, -1.372656308491494, 2.651430368423462, 0.6316313743591309, 0.0, -8.528443588695186e-05, 0.0, 0.0005937487573409958, 0.0, 0.0004438652900602326, array([[-0.00855797]])]
[2.9499999999999975, -0.8316211778058583, 2.670095205307007, -0.019746767356991768, 0.0, -0.00019973758093217182, 0.0, 0.0007995706017331171, 0.0, 0.0003979550202921899, array([[-0.05853507]])]
[2.9999999999999973, -0.1427454458367279, 2.6605403423309326, -0.403607040643692, 0.0, -0.00025559244219378307, 0.0, 0.0008982066748189618, 0.0, 0.00038139851935422854, array([[-0.00122171]])]
[3.049999999999997, 0.32057080540003274, 2.6172783374786377, -0.9791206121444702, 0.0, -0.00040507199326999437, 0.0, 0.0013015166926097536, 0.0, 0.00018012494061450386, array([[ -2.23185721e-08]])]
[3.099999999999997, 0.4819040404114725, 2.581080913543701, -1.2148164510726929, 0.0, -0.00044865871155729334, 0.0, 0.0013967940554076876, 0.0, 0.00015546145187282648, array([[ -2.68741579e-11]])]
[3.149999999999997, 0.7228274586413576, 2.4862332344055176, -1.4680951833724976, 0.0, -0.0004649380522887238, 0.0, 0.0012907268687671466, 0.0, 7.590146215624392e-05, array([[ -2.95637125e-14]])]
[3.1999999999999966, 0.788294344414055, 2.439505100250244, -1.3821711540222168, 0.0, -0.0004071715018370111, 0.0, 0.0011569867730089754, 0.0, 0.00010496300727103587, array([[ -5.23711633e-13]])]
[3.2499999999999964, 0.43497100791946264, 2.354834794998169, -0.9942663908004761, 0.0, -0.000226551692166164, 0.0, 0.0007893469357552736, 0.0, 1.5252039172984496e-05, array([[ -1.73921570e-07]])]
[3.2999999999999963, 0.23114363033032403, 2.322986364364624, -0.9704727530479431, 0.0, -0.00030305150717934283, 0.0, 0.0006892392741951919, 0.0, -4.0734000159716126e-05, array([[ -2.68509555e-07]])]
[3.349999999999996, 0.09957889793435064, 2.2455430030822754, -1.3215529918670654, 0.0, -0.0001565261369939848, 0.0, 0.0005242768749311412, 0.0, -0.0002557881112653064, array([[ -4.10139913e-11]])]
[3.399999999999996, 0.6021784596182763, 2.1984171867370605, -1.5834388732910156, 0.0, -0.00011768111922391775, 0.0, 0.0005341466439046565, 0.0, -0.000313351117322831, array([[ -4.53310498e-15]])]
[3.4499999999999957, 0.813660136815165, 2.075301170349121, -1.848088026046753, 0.0, -0.00014227689302880414, 0.0, 0.0004943884440725354, 0.0, -0.00026749906238713304, array([[ -8.11513497e-19]])]
[3.4999999999999956, 1.3062144012143833, 2.0175280570983887, -1.683245301246643, 0.0, -0.00013965564697731106, 0.0, 0.0005592408251567356, 0.0, -0.00019399885830413335, array([[ -5.57499465e-16]])]
[3.5499999999999954, 1.4967511170171206, 1.9256048202514648, -0.8406413793563843, 0.0, -0.00018260735271111, 0.0, 0.0004214917922779507, 0.0, -9.537465262398522e-05, array([[-0.00020996]])]
[3.599999999999995, 0.9035208727696213, 1.9060170650482178, -0.3323401212692261, 0.0, -0.00014858319914415438, 0.0, 0.0004714984148869635, 0.0, -7.901822046353197e-05, array([[-0.84261553]])]
[3.649999999999995, 1.1666577539849885, 1.9137543439865112, 0.6185999512672424, 0.0, -0.00033158015694359277, 0.0, 0.00028069304712037904, 0.0, -1.665239402050568e-05, array([[-2.21841405]])]
[3.699999999999995, 1.2686713314309244, 1.9391950368881226, 1.0775904655456543, 0.0, -0.0003572011350311197, 0.0, 0.00032362741251232594, 0.0, 6.543840088205908e-05, array([[-0.00083854]])]
[3.7499999999999947, -1.5776195812327727, 2.0444746017456055, 2.0988566875457764, 0.0, -0.0002250183109207727, 0.0, 0.0003658015420696227, 0.0, 0.00015261472516519628, array([[ -2.24393066e-19]])]
[3.7999999999999945, -2.2486402094969526, 2.1121878623962402, 2.0977041721343994, 0.0, -0.0002478865040245906, 0.0, 0.00040550559081846296, 0.0, 0.0001480537620063913, array([[ -1.20528792e-19]])]
[3.8499999999999943, -2.4077126290183513, 2.2328383922576904, 1.4899177551269531, 0.0, -0.00040902155155581694, 0.0, 0.0007858877930957267, 0.0, 7.510004350495207e-06, array([[ -2.24872978e-09]])]
[3.899999999999994, -1.7471672440324393, 2.283768892288208, 1.107184648513794, 0.0, -0.0004359555917261448, 0.0, 0.0008625700094974043, 0.0, -6.382976612570273e-05, array([[ -4.51933942e-05]])]
[3.949999999999994, -0.53111717484189, 2.331475019454956, 0.5317306518554688, 0.0, -0.0006031972702461816, 0.0, 0.001550893641226644, 0.0, -0.00016964524984024174, array([[-0.31481017]])]
[3.999999999999994, 0.8807129411189056, 2.343626022338867, 0.14744265377521515, 0.0, -0.0007007368525786662, 0.0, 0.001751173033059679, 0.0, -0.0002006425775862215, array([[-0.91169968]])]
[4.049999999999994, 2.074137869468729, 2.349357843399048, 0.36256203055381775, 0.0, -0.0007118825156489626, 0.0, 0.002015176606274684, 0.0, -0.0002529241780540342, array([[-0.79636927]])]
[4.099999999999993, 1.4778981628147232, 2.366471290588379, 0.8064272403717041, 0.0, -0.0005572245458674183, 0.0, 0.0016354327512004977, 0.0, -0.00022788012590807115, array([[-0.00716324]])]
[4.149999999999993, -0.129640846301662, 2.4541335105895996, 1.8419511318206787, 0.0, -0.00029500603973811547, 0.0, 0.000964580911623115, 0.0, -0.0002572380791814605, array([[ -1.04948686e-15]])]
[4.199999999999993, -1.0703514987975347, 2.515251874923706, 1.928256869316101, 0.0, -0.00020430246469398976, 0.0, 0.0008086389006347616, 0.0, -0.00018552875518744244, array([[ -1.31393865e-17]])]
[4.249999999999993, -1.8554920419724656, 2.624444007873535, 1.3330882787704468, 0.0, 3.677113613166956e-05, 0.0, 0.0006093281194612947, 0.0, 3.4403031813769544e-05, array([[ -1.19946300e-08]])]
[4.299999999999993, -1.9925056058781816, 2.6613550186157227, 1.027584433555603, 0.0, 4.8723900630844e-05, 0.0, 0.0006478633422717587, 0.0, 3.609348615369588e-05, array([[ -1.20599950e-05]])]
[4.3499999999999925, -1.4161474181340852, 2.707456350326538, 0.3747238218784332, 0.0, 0.0002015423412351984, 0.0, 0.0007840472221402303, 0.0, 0.00028836348041272656, array([[-0.03853694]])]
[4.399999999999992, -0.5310494340426725, 2.714081287384033, 0.0674642026424408, 0.0, 0.0002052383529131536, 0.0, 0.0009304010650679662, 0.0, 0.0003419907434589685, array([[-0.03407397]])]
[4.449999999999992, 0.369374188762965, 2.6950109004974365, -0.58536297082901, 0.0, 0.0002949582752740709, 0.0, 0.0012207631878125111, 0.0, 0.0006657631678384471, array([[ -4.68597673e-05]])]
[4.499999999999992, 1.1827169482976125, 2.6716434955596924, -0.8172100186347961, 0.0, 0.0003117799900254934, 0.0, 0.0013274760863149744, 0.0, 0.0007357539059161489, array([[ -2.88931807e-07]])]
[4.549999999999992, 1.1761945009976997, 2.6182587146759033, -0.4002949595451355, 0.0, 0.00025645814298726346, 0.0, 0.0009964409532985446, 0.0, 0.0009003845632792681, array([[-0.00183785]])]
[4.599999999999992, 0.45796367982925484, 2.6128861904144287, 0.10848323255777359, 0.0, 0.00017247584522923356, 0.0, 0.0008087879013249338, 0.0, 0.0008531220687356115, array([[-0.08812775]])]
[4.6499999999999915, -0.32318582583377425, 2.642784357070923, 0.5593598484992981, 0.0, 0.00010615973254927654, 0.0, 0.000533626679147454, 0.0, 0.0005672406304992131, array([[-0.01851078]])]
[4.699999999999991, -1.182105911486387, 2.6574478149414062, 0.36082759499549866, 0.0, 0.00014831637261676072, 0.0, 0.00048684845947826643, 0.0, 0.0004733452317896043, array([[-0.04549183]])]
[4.749999999999991, -1.316489854545999, 2.6593265533447266, -0.2721453011035919, 0.0, 0.0002764435370440068, 0.0, 0.000291545803776746, 0.0, 0.00015345482888124676, array([[-0.00617561]])]
[4.799999999999991, -0.7104716694963017, 2.645061731338501, -0.578398585319519, 0.0, 0.00028698917306197705, 0.0, 0.0003275273708815277, 0.0, -2.2289313574499347e-06, array([[ -5.10160441e-05]])]
[4.849999999999991, -0.04081124224243906, 2.581136703491211, -1.2323662042617798, 0.0, 0.00042543140197007933, 0.0, 0.0004528405409913138, 0.0, -0.0004606530213594257, array([[ -1.23609460e-11]])]
[4.899999999999991, 1.0982062527509615, 2.5357837677001953, -1.5398045778274536, 0.0, 0.0004338901381227628, 0.0, 0.0005534074372636316, 0.0, -0.0005565555112639365, array([[ -6.63678088e-17]])]
[4.94999999999999, 1.5629809234407728, 2.4270761013031006, -1.247971773147583, 0.0, 0.0003119975789222218, 0.0, 0.0008527298955408171, 0.0, -0.0009175725219704418, array([[ -3.33596340e-11]])]
[4.99999999999999, 1.380128797267861, 2.388568639755249, -0.6336260437965393, 0.0, 0.00033032072961938183, 0.0, 0.0007248466344050858, 0.0, -0.0009223062775819215, array([[-0.00014445]])]
[5.04999999999999, 0.03885610385445746, 2.3780102729797363, 0.3133694529533386, 0.0, -3.7278460984793596e-05, 0.0, 0.0005350273843233839, 0.0, -0.0007994514335461843, array([[-0.65390977]])]
[5.09999999999999, -0.6070211171871439, 2.3898158073425293, 0.20710389316082, 0.0, -5.915647089489828e-05, 0.0, 0.0006453439935383146, 0.0, -0.0007817588737809183, array([[-0.52136726]])]
[5.14999999999999, -0.8471644425794749, 2.3854117393493652, -0.33628758788108826, 0.0, 4.9944519522678466e-05, 0.0, 0.0008294387711460188, 0.0, -0.0007614043247551421, array([[-0.0264414]])]
[5.1999999999999895, -1.1472062937823293, 2.3693273067474365, -0.6420376896858215, 0.0, 6.201601604741715e-05, 0.0, 0.0009645905245739894, 0.0, -0.000789380634905117, array([[-0.00012816]])]
[5.249999999999989, -0.16888266278172115, 2.3019533157348633, -1.295030117034912, 0.0, 4.8282767905674726e-05, 0.0, 0.0013655453442002951, 0.0, -0.0006245834771080529, array([[ -2.02368142e-11]])]
[5.299999999999989, 0.589550365021833, 2.2549009323120117, -1.6025874614715576, 0.0, -2.4517237494169583e-05, 0.0, 0.0015381811583015125, 0.0, -0.0005919293888930365, array([[  2.74872011e-16]])]
[5.349999999999989, 1.6848686947587699, 2.1301252841949463, -1.8875391483306885, 0.0, -0.00015049455054588095, 0.0, 0.0019340725635016186, 0.0, -0.0004098130752060124, array([[ -2.15293075e-20]])]
[5.399999999999989, 2.304352198381093, 2.0725388526916504, -1.6084613800048828, 0.0, -0.00012519891058022193, 0.0, 0.0016972289085418458, 0.0, -0.0003539713074064485, array([[  1.88124168e-15]])]
[5.449999999999989, 2.283304512032335, 1.996138095855713, -0.5805405974388123, 0.0, 3.5205317796674393e-06, 0.0, 0.0008438410553708294, 0.0, -0.00018224150555299222, array([[-0.01056759]])]
[5.4999999999999885, 1.1551492929114795, 1.985061764717102, -0.07142305374145508, 0.0, -8.286005887192947e-05, 0.0, 0.0006664751428918271, 0.0, -0.00014349548662641713, array([[-3.24171044]])]
[5.549999999999988, 3.5706202784595016, 2.015599250793457, 1.0060088634490967, 0.0, -6.0557812619034735e-05, 0.0, 0.00041845949603729537, 0.0, -3.263433042414464e-05, array([[-0.00232204]])]
[5.599999999999988, -1.105051200598411, 2.0551955699920654, 1.4944679737091064, 0.0, -6.18007236968017e-05, 0.0, 0.00037939266314535627, 0.0, -5.9270190876547444e-05, array([[ -3.55149051e-09]])]
[5.649999999999988, -1.6559592906870737, 2.1674509048461914, 1.4816462993621826, 0.0, -0.00038978907371430433, 0.0, 0.00033904812103889386, 0.0, -0.00017514408251253927, array([[ -3.48823782e-09]])]
[5.699999999999988, -1.804850025646303, 2.2102015018463135, 1.1856862306594849, 0.0, -0.000499407383750205, 0.0, 0.00035833755464887123, 0.0, -0.00020332159307720168, array([[ -8.41552081e-06]])]
[5.749999999999988, -1.0287988557942083, 2.2688772678375244, 0.5373875498771667, 0.0, -0.0008239445905311971, 0.0, 0.0008385776165365686, 0.0, -0.00019531681936827585, array([[-0.35361852]])]
[5.799999999999987, -0.1547598354129075, 2.2811737060546875, 0.23132988810539246, 0.0, -0.0009316177084049992, 0.0, 0.0010088042532567887, 0.0, -0.000179931231394978, array([[-0.97331127]])]
[5.849999999999987, 0.940979051041196, 2.274906873703003, -0.4203312397003174, 0.0, -0.0014084858604917405, 0.0, 0.0019483208444392728, 0.0, -0.0002478470311139112, array([[-0.01652677]])]
[5.899999999999987, 0.323654589895616, 2.2606277465820312, -0.3594396114349365, 0.0, -0.0015143598148183088, 0.0, 0.002205216328648758, 0.0, -0.000242581338610948, array([[-0.02469299]])]
[5.949999999999987, -0.06734107774110715, 2.2479934692382812, -0.22689485549926758, 0.0, -0.000641641282098058, 0.0, 0.001100104600454862, 0.0, -0.0004364043234491691, array([[-0.2109224]])]
[5.999999999999987, -0.32937956149922654, 2.237332344055176, -0.45346948504447937, 0.0, -0.00043460952885842957, 0.0, 0.0006940532638465961, 0.0, -0.000434347673358263, array([[-0.00670081]])]
[6.0499999999999865, -0.5123570539490268, 2.184476375579834, -1.0886276960372925, 0.0, 0.00017688316482846107, 0.0, -0.0005915107767955016, 0.0, -0.00045734563962497625, array([[ -1.24377789e-08]])]
[6.099999999999986, -0.16387215070546285, 2.1445980072021484, -1.3951375484466553, 0.0, 0.00035812781503426634, 0.0, -0.0009288385837142878, 0.0, -0.0004966562370876717, array([[  3.15367642e-12]])]
[6.149999999999986, 0.49891783661592165, 2.027202606201172, -2.0478568077087402, 0.0, 0.0009812208819977282, 0.0, -0.0017224830974298608, 0.0, -0.0005175656898965442, array([[  1.03429979e-23]])]
[6.199999999999986, 1.3159387633390722, 1.9578814506530762, -2.239936590194702, 0.0, 0.0011288356446923235, 0.0, -0.0018243741095108827, 0.0, -0.0005491076467496979, array([[  1.39023823e-26]])]
[6.249999999999986, 2.1199403173243625, 1.8174384832382202, -1.647436499595642, 0.0, 0.0006130522774280844, 0.0, -0.0010840183895230767, 0.0, -0.0005092134339011142, array([[  1.82903209e-15]])]
[6.299999999999986, 1.90860716221039, 1.772001028060913, -1.1697138547897339, 0.0, 0.0005369999692181496, 0.0, -0.0008782491889508588, 0.0, -0.000492089592729091, array([[  7.54575907e-08]])]
[6.349999999999985, 1.4789171944551904, 1.7276337146759033, -0.10347535461187363, 0.0, 0.00020486740221811332, 0.0, -0.00036251001026177653, 0.0, -0.0004487324637298691, array([[-13.85565466]])]
[6.399999999999985, 14.677288861943152, 1.7321652173995972, 0.4038924276828766, 0.0, 0.00013111935123916667, 0.0, -0.00019483929191534184, 0.0, -0.0004873146142424215, array([[-13.61566973]])]
[6.449999999999985, 13.221532954424463, 1.7949464321136475, 1.4570863246917725, 0.0, 4.1794541460253356e-05, 0.0, -0.00018183406164547133, 0.0, -0.0002867709600465101, array([[ -5.99999943e-08]])]
[6.499999999999985, -1.9244194053409123, 1.8488738536834717, 1.9321718215942383, 0.0, -2.5771295542272317e-05, 0.0, -4.0111254772357903e-05, 0.0, -0.00029317296430005925, array([[ -6.15043488e-16]])]
[6.549999999999985, -2.671049819660838, 1.9898163080215454, 1.9061492681503296, 0.0, -7.263173674817303e-06, 0.0, 0.0004989461798922708, 0.0, -0.0002785081898928222, array([[ -1.18379678e-15]])]
[6.5999999999999845, -2.6838378857099436, 2.0459272861480713, 1.6089919805526733, 0.0, -8.178240464523697e-05, 0.0, 0.0007300096156286326, 0.0, -0.0002616774895132586, array([[ -6.22480771e-11]])]
[6.649999999999984, -2.208813855385558, 2.1327764987945557, 0.9589111804962158, 0.0, -0.0001478743615430816, 0.0, 0.0016771160897480904, 0.0, -0.00021945625925507583, array([[-0.00228299]])]
[6.699999999999984, -0.9243946926216673, 2.1631734371185303, 0.5745498538017273, 0.0, -0.0001553391691457089, 0.0, 0.001975650009095629, 0.0, -0.00019655784753478946, array([[-0.29777071]])]
[6.749999999999984, 0.32808010384085007, 2.1796700954437256, -0.0013692904030904174, 0.0, -0.00033878573753130705, 0.0, 0.0034046700711592827, 0.0, -0.00011344614650129861, array([[-1.47811643]])]
[6.799999999999984, 2.42697443250185, 2.1749320030212402, -0.24575191736221313, 0.0, -0.0003708608283430225, 0.0, 0.003745170297062588, 0.0, -3.9048168371922405e-05, array([[-0.11813198]])]
[6.849999999999984, 1.173741426987501, 2.1605777740478516, 0.1472586989402771, 0.0, -0.0003046795481790164, 0.0, 0.0027623083509359415, 0.0, -1.9218321095511665e-05, array([[-2.54489009]])]
[6.8999999999999835, 2.896167625218999, 2.1730613708496094, 0.6479225754737854, 0.0, -0.0001886536687392968, 0.0, 0.0020071977320064256, 0.0, 4.322194215613408e-05, array([[-0.12464653]])]
[6.949999999999983, -0.38166088091478134, 2.2522199153900146, 1.6739760637283325, 0.0, -0.00020101600616838488, 0.0, 0.0011677071083136337, 0.0, 0.00013289811448190882, array([[ -2.04890635e-12]])]
[6.999999999999983, -1.9060664204510862, 2.3057522773742676, 1.6006526947021484, 0.0, -0.0002475835670328922, 0.0, 0.0009342270487480818, 0.0, 0.00013880037691400084, array([[ -1.32699462e-11]])]
[7.049999999999983, -2.1601207621542287, 2.394191026687622, 0.9844962358474731, 0.0, -0.00031459530339846583, 0.0, 0.0004814981668912119, 0.0, 0.00016665719664306982, array([[-0.0002039]])]
[7.099999999999983, -1.7214327877413298, 2.4207780361175537, 0.67820805311203, 0.0, -0.00035982384789434116, 0.0, 0.00043807827528829515, 0.0, 0.00020711509457670363, array([[-0.01399942]])]
[7.149999999999983, -0.5803504022253675, 2.4445180892944336, 0.025044821202754974, 0.0, -0.0006080408025210116, 0.0, 0.00045405798944559496, 0.0, 0.00020031237137833769, array([[-0.21568567]])]
[7.199999999999982, 0.5346981683631689, 2.440446615219116, -0.2820783853530884, 0.0, -0.0006772031112471321, 0.0, 0.000495843405629083, 0.0, 0.0002002825209187613, array([[-0.00936751]])]
[7.249999999999982, 1.1745279508851525, 2.405787467956543, -0.6341710686683655, 0.0, -0.0007197070663631658, 0.0, 0.0007213548824242341, 0.0, 0.00015804399660379734, array([[ -7.55494932e-05]])]
[7.299999999999982, 1.4515832639305475, 2.3901305198669434, -0.3012843430042267, 0.0, -0.0006577067321417548, 0.0, 0.0005979178865041615, 0.0, 0.00014411419636248176, array([[-0.00974729]])]
[7.349999999999982, 0.827452828010367, 2.4055848121643066, 0.7576391696929932, 0.0, -0.00027624707470846297, 0.0, 0.00016532772283320648, 0.0, 0.0002218381777980576, array([[-0.00794508]])]
[7.399999999999982, -0.5592059533000144, 2.436558961868286, 1.1466013193130493, 0.0, -0.0003925753376254497, 0.0, 0.00011312550913320815, 0.0, 0.00023144828980672642, array([[ -2.72324024e-06]])]
[7.4499999999999815, -1.240528774729982, 2.5148298740386963, 0.9213265180587769, 0.0, -0.00046959404514402805, 0.0, 0.00011261716814004534, 0.0, 0.00031152306482798366, array([[-0.00024028]])]
[7.499999999999981, -1.4664564765582169, 2.544262647628784, 0.5451056957244873, 0.0, -0.0004904277147439788, 0.0, 0.00024686812576368963, 0.0, 0.00030710569930205567, array([[-0.01829255]])]
[7.549999999999981, -1.2765416425799967, 2.559706449508667, -0.02927415445446968, 0.0, -0.0005512989384500893, 0.0, 0.0008118656870908352, 0.0, 0.00028266588364193017, array([[-0.05863487]])]
[7.599999999999981, -0.6001197295509045, 2.5537807941436768, -0.3361109495162964, 0.0, -0.0005483420290120033, 0.0, 0.001002541043963948, 0.0, 0.00028564937961977503, array([[-0.00140793]])]
[7.649999999999981, 0.10629271874243126, 2.5077028274536133, -0.9894106984138489, 0.0, -0.0006383227081464382, 0.0, 0.0020396008602927064, 0.0, 0.0002950514795933751, array([[  2.78857793e-09]])]
[7.699999999999981, 0.6463552381850659, 2.471022129058838, -1.2820860147476196, 0.0, -0.0006495188565916782, 0.0, 0.002245856534634561, 0.0, 0.0003067742535235798, array([[  9.29906465e-12]])]
[7.7499999999999805, 1.1612570465449386, 2.371742010116577, -1.4608159065246582, 0.0, -0.0005146378744493072, 0.0, 0.0020881380540310555, 0.0, 0.0003196103352662116, array([[  5.04290663e-14]])]
[7.79999999999998, 0.9697412046603353, 2.329568386077881, -1.105501651763916, 0.0, -0.00042308346242180873, 0.0, 0.0017589355419991037, 0.0, 0.00027391969719657724, array([[  5.90706109e-09]])]
[7.84999999999998, 0.2361808204626119, 2.287682056427002, -0.10072649270296097, 0.0, -0.00018534351916030484, 0.0, 0.0007215732578371399, 0.0, 0.00028290708631658945, array([[-0.27138642]])]
[7.89999999999998, -0.40138201224263353, 2.286862850189209, -0.013136757537722588, 0.0, -8.943000896273701e-05, 0.0, 0.000582945194294407, 0.0, 0.00022950568318698175, array([[-0.23404788]])]
[7.94999999999998, -1.3139760763938788, 2.269179344177246, -0.5464961528778076, 0.0, 0.00014274632140435673, 0.0, 0.00017578674418485414, 0.0, 6.314852392320694e-05, array([[-0.00062844]])]
[7.99999999999998, -1.1924006328343917, 2.2464239597320557, -0.8510952591896057, 0.0, 0.00018149062240504252, 0.0, 0.0001063815854791019, 0.0, 9.315418644004782e-05, array([[  5.14130246e-06]])]
[8.04999999999998, -0.24209725159358658, 2.1676690578460693, -1.5029146671295166, 0.0, 0.00021537600774030826, 0.0, 6.732453880642006e-05, 0.0, 5.960289233007428e-05, array([[  1.18212083e-13]])]
[8.09999999999998, 0.9513510796985337, 2.10050106048584, -1.8880804777145386, 0.0, 0.00019891724669702046, 0.0, 0.00014112641318862483, 0.0, 2.6566550134234092e-05, array([[  1.22073126e-19]])]
[8.14999999999998, 1.7010346992034462, 1.9891258478164673, -1.6054741144180298, 0.0, 3.942855940398219e-05, 0.0, 0.00027635799445688465, 0.0, 1.7756157917731473e-06, array([[  1.84963895e-14]])]
[8.199999999999982, 1.6834057508455404, 1.9453116655349731, -1.148219347000122, 0.0, 0.00014788632815223345, 0.0, 0.0002452687812077899, 0.0, -1.911653279455628e-05, array([[  7.85407155e-08]])]
[8.249999999999982, 0.7743336272030592, 1.9039268493652344, -0.09342674165964127, 0.0, -3.7554254109150774e-05, 0.0, -7.8675964725514e-05, 0.0, -3.666627997407237e-05, array([[-2.66735664]])]
[8.299999999999983, 2.5007376587857317, 1.9072321653366089, 0.24874506890773773, 0.0, 0.00011328335878746558, 0.0, -2.804982944431997e-05, 0.0, -1.3235698890607316e-05, array([[-3.52325806]])]
[8.349999999999984, 3.0347217635775494, 1.9492847919464111, 1.0773141384124756, 0.0, 0.0002190044351207877, 0.0, -0.0002464911522649113, 0.0, -2.691668000333957e-05, array([[-0.00041428]])]
[8.399999999999984, -0.8609344200621913, 1.991669774055481, 1.5586977005004883, 0.0, 0.00016102746931062666, 0.0, -0.00022279600004701473, 0.0, -2.640186464418256e-05, array([[ -2.65171674e-10]])]
[8.449999999999985, -1.719677107972348, 2.1097614765167236, 1.5406969785690308, 0.0, 5.85242195803132e-05, 0.0, 2.3820488690892097e-05, 0.0, -0.00010089885568607593, array([[ -3.98689804e-10]])]
[8.499999999999986, -1.634302971430039, 2.1976723670959473, 0.8627898097038269, 0.0, -0.00017023249000502715, 0.0, 0.0006460498866864706, 0.0, -0.00012472536395550696, array([[ -1.15520439e-06]])]
[8.549999999999986, -1.0514058806735331, 2.2183444499969482, 0.5943050384521484, 0.0, -0.0003524273357106254, 0.0, 0.0010655093815576553, 0.0, -5.6074486469892674e-05, array([[-0.15311658]])]
[8.599999999999987, -0.3139433426808981, 2.234762668609619, 0.21073469519615173, 0.0, -0.00042062375580270565, 0.0, 0.0013275271920590564, 0.0, -4.807373187405983e-05, array([[-0.40408922]])]
[8.649999999999988, 0.41544340116589773, 2.2308061122894287, -0.3643309772014618, 0.0, -0.0008877439491793154, 0.0, 0.002606086209607783, 0.0, -7.11206039321259e-05, array([[-0.0106496]])]
[8.699999999999989, 0.653405971395295, 2.2159464359283447, -0.5627089142799377, 0.0, -0.0009980249859968158, 0.0, 0.002974808471751149, 0.0, -4.236695808211657e-05, array([[ 0.00127043]])]
[8.74999999999999, 1.0231311331774053, 2.173482656478882, -0.6101945042610168, 0.0, -0.0006954610608948026, 0.0, 0.002072993364833901, 0.0, -1.993981795927691e-05, array([[ 0.00025882]])]
[8.79999999999999, 0.7714039517583701, 2.1576383113861084, -0.3280641734600067, 0.0, -0.0005195923696310655, 0.0, 0.0016837139889533382, 0.0, -1.3671537147197564e-05, array([[ 0.02263062]])]
[8.84999999999999, 0.07797242704041277, 2.166175127029419, 0.42485010623931885, 0.0, -0.00041142967514738916, 0.0, 0.0006342360773824767, 0.0, 0.0001594375058018049, array([[-0.71961857]])]
[8.899999999999991, -0.2641325802408945, 2.1803886890411377, 0.3580895960330963, 0.0, -0.00031348343249371085, 0.0, 0.0004451577803952615, 0.0, 0.0001571379658902309, array([[-0.36427048]])]
[8.949999999999992, -0.6145953053387777, 2.1866166591644287, -0.23968560993671417, 0.0, -5.258630235755321e-05, 0.0, 0.0001270519419158099, 0.0, 0.0001253413835735433, array([[-0.06482435]])]
[8.999999999999993, -0.0595405385131033, 2.1746251583099365, -0.5449680685997009, 0.0, 1.4748750569830345e-05, 0.0, 6.50336801794894e-05, 0.0, 0.00010342884314703442, array([[ 0.00279579]])]
[9.049999999999994, 0.6099440773491751, 2.116305351257324, -1.1949028968811035, 0.0, 0.00015917304940938585, 0.0, 0.00010838495028070971, 0.0, -6.548757494161072e-05, array([[  4.21252597e-09]])]
[9.099999999999994, 1.5063235941220399, 2.076014995574951, -1.3001419305801392, 0.0, 0.00023984284937977215, 0.0, 0.00010708641990164133, 0.0, -4.6601571321650325e-05, array([[  4.16075158e-10]])]
[9.149999999999995, 2.097252270908321, 2.0031211376190186, -0.6491352319717407, 0.0, 0.00022733866492866142, 0.0, 2.549683637789892e-05, 0.0, -6.852787572821445e-05, array([[ 0.00141328]])]
[9.199999999999996, 1.858573218606542, 1.990497350692749, -0.14958027005195618, 0.0, 0.00021202893665028165, 0.0, -6.441330140556958e-05, 0.0, -6.027682058580393e-05, array([[ 0.34551398]])]
[9.249999999999996, 0.33569747045869086, 2.018433094024658, 0.9068778157234192, 0.0, 5.0162226614690214e-05, 0.0, -0.00020484088044651352, 0.0, -2.0319918110532678e-05, array([[-0.00602353]])]
[9.299999999999997, -0.3568085892797808, 2.0504250526428223, 0.9820032715797424, 0.0, 0.00015560015431711889, 0.0, -0.00020298652284175684, 0.0, -2.707406843244341e-05, array([[-0.00053796]])]
[9.349999999999998, -1.1314472536076856, 2.1038711071014404, 0.47712472081184387, 0.0, 0.0002786699216669498, 0.0, 5.191451739722411e-05, 0.0, -4.5595655432167334e-05, array([[-0.63847699]])]
[9.399999999999999, -0.4390338663262464, 2.1146645545959473, 0.17316097021102905, 0.0, 0.0002854754371759305, 0.0, 0.00015275659945500794, 0.0, -8.53677087652012e-05, array([[-0.19153712]])]
[9.45, -0.30282779072902133, 2.105013370513916, -0.4782973825931549, 0.0, 0.00016691083177861193, 0.0, 0.000905935010905712, 0.0, -6.752794665290456e-05, array([[ 0.00523664]])]
[9.5, 0.35869872280439435, 2.0849575996398926, -0.7851455211639404, 0.0, 0.00018611052968897852, 0.0, 0.0011617079997739452, 0.0, -8.24997283536146e-05, array([[ 0.00014151]])]
[9.55, 1.359385703723039, 2.0140764713287354, -1.248596429824829, 0.0, 4.90823454747061e-05, 0.0, 0.0018319548129246209, 0.0, -3.755004702390227e-05, array([[  2.76578189e-09]])]
[9.600000000000001, 1.5622520800496118, 1.9774774312973022, -0.9816274046897888, 0.0, 4.346290049669485e-05, 0.0, 0.0016663589819948998, 0.0, -3.317551598464733e-05, array([[  5.48273174e-06]])]
[9.650000000000002, 1.2243087719908161, 1.9473166465759277, 0.0618470273911953, 0.0, -3.466450631850024e-05, 0.0, 0.0006355807363913191, 0.0, -8.93623363595799e-05, array([[ 0.06145871]])]
[9.700000000000003, 0.2324907539143905, 1.9579565525054932, 0.5642058849334717, 0.0, -1.396374783804043e-05, 0.0, 0.0004574045051971804, 0.0, -0.00014330248068505726, array([[-0.16016322]])]
[9.750000000000004, -0.7630481175347255, 2.013056516647339, 0.7211700677871704, 0.0, 5.533354044323477e-05, 0.0, -0.00029105495713166636, 0.0, -0.0001691012112675054, array([[-0.08375318]])]
[9.800000000000004, -1.6308730086881509, 2.032374143600464, 0.45460548996925354, 0.0, 5.4290636061044326e-05, 0.0, -0.0004058622534977663, 0.0, -0.000203327417256043, array([[-0.119184]])]
[9.850000000000005, -1.3791131924997748, 2.042217254638672, -0.18870072066783905, 0.0, 9.58811705928992e-06, 0.0, -0.0003940298917257837, 0.0, -0.000280868490439658, array([[ 0.00182286]])]
[9.900000000000006, -1.2196807134984662, 2.031497001647949, -0.4954427182674408, 0.0, -4.9299807796392565e-05, 0.0, -0.0003874255965675176, 0.0, -0.0003064823352135966, array([[ 0.02616235]])]
[9.950000000000006, -0.16151940148498123, 1.9759975671768188, -1.1486046314239502, 0.0, -0.0001880583183855091, 0.0, 0.000120351963203526, 0.0, -0.00026890821307532675, array([[  6.94714715e-08]])]
[10.000000000000007, 0.48664806226787666, 1.9343819618225098, -1.4567735195159912, 0.0, -0.00027972923302084724, 0.0, 0.0003132874748762484, 0.0, -0.00028495651671581895, array([[  1.25701373e-11]])]
[10.050000000000008, 1.2946715607740942, 1.8200842142105103, -1.8437758684158325, 0.0, -0.0004640182253505923, 0.0, 0.0008693699215097511, 0.0, -0.0003188319061187202, array([[  1.39568381e-17]])]
[10.100000000000009, 1.5038845158554612, 1.7640776634216309, -1.6079668998718262, 0.0, -0.0003668340868215738, 0.0, 0.000757995998502536, 0.0, -0.00033765102329097674, array([[  2.92822628e-13]])]
[10.15000000000001, 1.471710846796339, 1.6896116733551025, -0.5951133370399475, 0.0, -0.00016218550878628835, 0.0, 9.65678778893253e-05, 0.0, -0.00023619877295469506, array([[ 0.05988846]])]
[10.20000000000001, 0.7405005576388669, 1.6790919303894043, -0.09320139139890671, 0.0, -0.00015410948375026287, 0.0, -3.959439332297603e-05, 0.0, -0.000184094385990684, array([[ 9.92570241]])]
[10.25000000000001, -10.400890050434288, 1.7019511461257935, 0.6045936942100525, 0.0, -9.436150650179614e-05, 0.0, -0.00015364079682855014, 0.0, -0.00012795058520607717, array([[-0.98693868]])]
[10.300000000000011, -0.24648456383784279, 1.735332727432251, -0.11998235434293747, 0.0, -2.2509324422085358e-05, 0.0, 0.00013649676385964934, 0.0, -0.00010368277650379783, array([[ 6.80407776]])]
[10.350000000000012, -7.091242548907713, 1.726869821548462, -0.4264453649520874, 0.0, -2.655360131229784e-05, 0.0, 0.0002961022838024178, 0.0, -0.00014010004610062767, array([[ 0.4157416]])]
[10.400000000000013, -0.702906383900108, 1.726869821548462, -0.4264453649520874, 0.0, -2.655360131229784e-05, 0.0, 0.0002961022838024178, 0.0, -0.00014010004610062767, array([[ 0.66027006]])]
[10.450000000000014, -0.7366386391013363, 1.676841139793396, -1.0795929431915283, 0.0, -4.4533387000843205e-05, 0.0, 0.0011257089033721577, 0.0, -0.00012359963802599148, array([[  5.31494176e-06]])]
[10.500000000000014, 0.6188005269549244, 1.6378905773162842, -1.3870905637741089, 0.0, -6.366508367327189e-05, 0.0, 0.0013972057635761382, 0.0, -0.00010338856826611756, array([[  1.57788677e-09]])]
[10.550000000000015, 1.685421438278404, 1.5311778783798218, -1.6363779306411743, 0.0, -8.762488987673716e-05, 0.0, 0.001980278489094295, 0.0, -0.00011396760017015755, array([[  6.08675999e-13]])]
[10.600000000000016, 2.266162777412074, 1.4827524423599243, -1.34233558177948, 0.0, -6.467169756528713e-05, 0.0, 0.0016300098215066674, 0.0, -0.00011258482829437011, array([[  2.05544244e-08]])]
[10.650000000000016, 2.0863807601573456, 1.4260265827178955, -0.311886727809906, 0.0, -7.938787690178539e-05, 0.0, 0.0006220055400762051, 0.0, -0.00012654952574432486, array([[ 8.77555899]])]
[10.700000000000017, -7.6584916563200744, 1.424153447151184, 0.19095471501350403, 0.0, -9.741937301250761e-06, 0.0, 0.00043355510401372674, 0.0, -0.00013967676407517648, array([[ 59.57273183]])]
[10.750000000000018, -59.65734184962699, 1.444652795791626, 0.09922093898057938, 0.0, -3.832897816797841e-06, 0.0, -2.0093887725785963e-05, 0.0, -2.3517902370445468e-05, array([[ 35.92477598]])]
[10.800000000000018, -36.34529433334396, 1.4431545734405518, -0.19911453127861023, 0.0, -8.285631583111812e-05, 0.0, -1.484581311774396e-05, 0.0, 2.284420635472592e-05, array([[ 31.22025678]])]
[10.85000000000002, -31.624905278740236, 1.4078772068023682, -0.8489369750022888, 0.0, -0.00032325107835227523, 0.0, 0.00024985514335765257, 0.0, 8.804652815286303e-05, array([[ 0.00631862]])]
[10.90000000000002, 0.5680227991076873, 1.3759320974349976, -1.156472086906433, 0.0, -0.0003439606163056684, 0.0, 0.00037578123487353165, 0.0, 0.0001047124357052449, array([[  8.45522012e-06]])]
[10.95000000000002, 1.4598731560786509, 1.2827763557434082, -1.4589695930480957, 0.0, -0.0005037818010497906, 0.0, 0.000829021766922464, 0.0, 0.00023109310399632604, array([[  1.86354859e-09]])]
[11.000000000000021, 1.8966393527193273, 1.2382529973983765, -1.2389030456542969, 0.0, -0.0004390067265546586, 0.0, 0.0007058703466236734, 0.0, 0.000246151265505761, array([[  2.27108656e-06]])]
[11.050000000000022, 1.6974565106810757, 1.1881343126296997, -0.2141161412000656, 0.0, -0.00022425996823014207, 0.0, 0.00012133080297252328, 0.0, 0.00016183028223484326, array([[ 66.25822908]])]
[11.100000000000023, -65.5003072943913, 1.18936026096344, 0.2877122163772583, 0.0, -0.0001363254258910883, 0.0, 7.575569632632663e-06, 0.0, 0.0001584716364098761, array([[ 204.63189073]])]
[11.150000000000023, -205.1491432698364, 1.2246862649917603, 0.38966691493988037, 0.0, -0.0001502830257342752, 0.0, -0.0001233277789031024, 0.0, 2.5465961824710275e-05, array([[ 116.91873482]])]
[11.200000000000024, -117.87086834909918, 1.2326239347457886, 0.09505696594715118, 0.0, -0.00026285023297835646, 0.0, -1.237435567742338e-05, 0.0, -4.804577776438993e-05, array([[ 414.34606488]])]
[11.250000000000025, -415.00204779918545, 1.2162152528762817, -0.5559343695640564, 0.0, -0.0005476194925589617, 0.0, 0.0008434627483687839, 0.0, -0.00010846406618668608, array([[ 2.87415978]])]
[11.300000000000026, -2.8376375114023538, 1.1932110786437988, -0.8629071116447449, 0.0, -0.0006551318407443371, 0.0, 0.0010732310944251168, 0.0, -0.00011263077914326019, array([[ 0.02275672]])]
[11.350000000000026, 1.0602712427244616, 1.1121429204940796, -1.516221523284912, 0.0, -0.0010310996003652887, 0.0, 0.002326406776894393, 0.0, -0.00025323772747787445, array([[  8.85654908e-10]])]
[11.400000000000027, 2.2783094742978314, 1.0631089210510254, -1.4360218048095703, 0.0, -0.001127293337964492, 0.0, 0.0026610185883853017, 0.0, -0.00033985511997015546, array([[  1.93460025e-08]])]
[11.450000000000028, 2.487792918782111, 0.9985525012016296, -0.4432182312011719, 0.0, -0.0004116254065145368, 0.0, 0.001116366104494952, 0.0, -0.00035274606511057267, array([[ 30.96334508]])]
[11.500000000000028, -28.903864807293445, 0.9927104115486145, 0.057884685695171356, 0.0, -0.00039279696046508875, 0.0, 0.0009427204461509012, 0.0, -0.000277342851018528, array([[ 377.41516696]])]
[11.55000000000003, -376.52020614780764, 1.0089489221572876, 0.06419788300991058, 0.0, -0.0002601155862504458, 0.0, 0.000636298382941865, 0.0, -0.0001027524802062137, array([[-110.44530093]])]
[11.60000000000003, 110.91210353079727, 1.0067318677902222, -0.23194999992847443, 0.0, -0.00023781795053240068, 0.0, 0.0006908765038090235, 0.0, -7.712659177928509e-05, array([[ 75.42315777]])]
[11.65000000000003, -74.71942723119007, 0.9925201535224915, 0.09397440403699875, 0.0, -0.0001784618733165235, 0.0, 0.0006705260837862215, 0.0, -1.5569872190173945e-05, array([[-576.60162078]])]
[11.700000000000031, 577.0503834156542, 0.9984620809555054, 0.1008559837937355, 0.0, -9.85815223043145e-05, 0.0, 0.00048324784182358704, 0.0, 2.2566891533026684e-05, array([[-462.13480516]])]
[11.750000000000032, 461.833959855126, 1.0062094926834106, 0.40022221207618713, 0.0, 7.394313481539946e-05, 0.0, -5.633632154837219e-05, 0.0, 0.00014683752724111291, array([[-413.85027858]])]
[11.800000000000033, 413.4442999041794, 1.027680516242981, 0.8875351548194885, 0.0, 5.243882605940107e-06, 0.0, -8.117892992779657e-05, 0.0, 0.00014700798461875515, array([[-1.58102556]])]
[11.850000000000033, 0.29449621408365156, 1.124492883682251, 1.9009008407592773, 0.0, 0.00013584315770308786, 0.0, -0.00031371766722123066, 0.0, 7.567443298524032e-05, array([[ -9.98392845e-14]])]
[11.900000000000034, -1.5519246906227362, 1.1891921758651733, 2.0033445358276367, 0.0, 5.848497193914644e-05, 0.0, -0.00026378201167697726, 0.0, 1.229916633359056e-05, array([[ -8.99440882e-16]])]
[11.950000000000035, -1.7164743842836458, 1.3122539520263672, 1.487243413925171, 0.0, -0.00023066597775542539, 0.0, -0.0001551749372572662, 0.0, -8.427580162518297e-05, array([[ -3.09826578e-07]])]
[12.000000000000036, -1.354545206228499, 1.3556749820709229, 1.1822681427001953, 0.0, -0.00033324183369839696, 0.0, -7.314005496323963e-05, 0.0, -0.00012086497678782924, array([[-0.00144571]])]
[12.050000000000036, -0.7170001782788495, 1.4172111749649048, 0.5306602120399475, 0.0, -0.0006207700838569401, 0.0, 0.0005131421009046133, 0.0, -0.00017953626149249673, array([[-57.82534752]])]
[12.100000000000037, 57.559718068993746, 1.4306458234786987, 0.22335705161094666, 0.0, -0.0007108743067219011, 0.0, 0.0006984321396247093, 0.0, -0.00023155017580464104, array([[-216.92539791]])]
[12.150000000000038, 217.1852172044937, 1.447493314743042, 0.5369570255279541, 0.0, -0.0006236803256117038, 0.0, 0.000871867876680366, 0.0, -0.0003141816404112847, array([[-52.9749954]])]
[12.200000000000038, 52.61448989596227, 1.473652720451355, 1.0235099792480469, 0.0, -0.000451083054305532, 0.0, 0.0005264505942480011, 0.0, -0.00026159778762284327, array([[-0.03703127]])]
[12.250000000000039, -1.1699796995224168, 1.58048415184021, 2.0183122158050537, 0.0, -0.00018293338610930995, 0.0, -1.999129464394699e-05, 0.0, -0.0002055062075954119, array([[ -1.52169498e-09]])]
[12.30000000000004, -2.0939962188397465, 1.6461548805236816, 1.940154790878296, 0.0, -3.041992724418048e-05, 0.0, -8.992375662618102e-05, 0.0, -0.00023231204460364452, array([[ -3.09540424e-15]])]
[12.35000000000004, -2.521241554003206, 1.7601630687713623, 1.3218975067138672, 0.0, 0.00035215153802967727, 0.0, 0.0001578825917241653, 0.0, -0.0002992148280167074, array([[ -7.74863817e-06]])]
[12.400000000000041, -1.6619811693421682, 1.798563003540039, 1.0150091648101807, 0.0, 0.00044462677533587373, 0.0, 0.00029844603580313943, 0.0, -0.00028939820995494775, array([[-0.0100599]])]
[12.450000000000042, -0.9537184432829748, 1.8496910333633423, 0.36254122853279114, 0.0, 0.0007214959481031143, 0.0, 0.0011194591204402343, 0.0, -0.00022112003333547896, array([[-24.79911486]])]
[12.500000000000043, 24.68903865049249, 1.8581163883209229, 0.05608152970671654, 0.0, 0.0007842697221404686, 0.0, 0.0013588753585445548, 0.0, -0.0002009291270853848, array([[-23.90352479]])]
[12.550000000000043, 24.637472692595217, 1.8640427589416504, 0.36956796050071716, 0.0, 0.0006807111952215696, 0.0, 0.0016227536895754044, 0.0, -0.0002169255010649015, array([[-22.49321502]])]
[12.600000000000044, 22.801767252966826, 1.8850351572036743, 0.857757031917572, 0.0, 0.0004948975822591439, 0.0, 0.0011078332209319781, 0.0, -0.00018348616109018352, array([[-0.11537656]])]
[12.650000000000045, -0.5756593479484833, 1.981109619140625, 1.8718390464782715, 0.0, 0.0004659158768840371, 0.0, 0.0003816970962556729, 0.0, -0.00017608490996378853, array([[ -1.05005942e-14]])]
[12.700000000000045, -1.4814252403750912, 2.043897867202759, 1.8694117069244385, 0.0, 0.0003415794360356449, 0.0, 0.0002407190731104501, 0.0, -0.00017528978001388301, array([[ -7.42867336e-15]])]
[12.750000000000046, -2.1598147592693486, 2.154115676879883, 1.261451005935669, 0.0, -0.00012909067613893485, 0.0, 0.00019774292519322142, 0.0, -0.00012594753810800797, array([[ -4.03788296e-06]])]
[12.800000000000047, -1.9659166986832246, 2.1907882690429688, 0.9551092386245728, 0.0, -0.00031875273266136333, 0.0, 0.00025675595220465985, 0.0, -0.00014106427218504698, array([[-0.00310399]])]
[12.850000000000048, -1.1216737017073122, 2.236480951309204, 0.3025021255016327, 0.0, -0.001020273615735724, 0.0, 0.0007228696654362815, 0.0, -7.834044337070893e-05, array([[-2.72345612]])]
[12.900000000000048, 2.1982766517499206, 2.242567539215088, -0.005133728496730328, 0.0, -0.0012010848600545736, 0.0, 0.0009105451300021018, 0.0, -0.00011105588295105887, array([[-1.6312399]])]
[12.950000000000049, 1.7373137983372138, 2.243927001953125, 0.3086414933204651, 0.0, -0.0012702036443699065, 0.0, 0.0010835378687616892, 0.0, -0.00021251828297959852, array([[-2.52251595]])]
[13.00000000000005, 2.502578937234824, 2.2629575729370117, 0.798042356967926, 0.0, -0.0008457741526454117, 0.0, 0.0005975821774087973, 0.0, -0.00018713186238342194, array([[-0.02652487]])]
[13.05000000000005, -1.0731487195883265, 2.355029821395874, 1.81443190574646, 0.0, -0.0006456206944830958, 0.0, 0.00017529563011074292, 0.0, -0.00011697195181005842, array([[ -8.92525473e-15]])]
[13.100000000000051, -2.388014742452642, 2.41582989692688, 1.8114094734191895, 0.0, -0.000573834270200395, 0.0, 0.0001743158865877633, 0.0, -0.000134329870009022, array([[ -5.95683194e-15]])]
[13.150000000000052, -2.4185363390482904, 2.5218889713287354, 1.2026050090789795, 0.0, -0.00019551333357901445, 0.0, 0.0005487194109404365, 0.0, -4.161043256772597e-05, array([[ -1.20044895e-06]])]
[13.200000000000053, -1.9697596664240158, 2.556628465652466, 0.896907389163971, 0.0, -8.111369724367253e-05, 0.0, 0.0006847249829561163, 0.0, -3.1469318488303255e-05, array([[-0.00055936]])]
[13.250000000000053, -1.4660120687961553, 2.599108934402466, 0.24349136650562286, 0.0, 0.0002811009283959823, 0.0, 0.0016359130117906799, 0.0, 0.00016822731859414037, array([[-0.18114452]])]
[13.300000000000054, -0.6667948097464966, 2.6033880710601807, -0.06426196545362473, 0.0, 0.0003542525970796518, 0.0, 0.0019381779114773115, 0.0, 0.00019649482902683063, array([[-0.06924319]])]
[13.350000000000055, -0.1576263753236518, 2.579698324203491, -0.7182656526565552, 0.0, 0.0005948440272624274, 0.0, 0.003317563368829114, 0.0, 0.000187276041627276, array([[ -4.82946465e-06]])]
[13.400000000000055, 0.27894366742873383, 2.5531342029571533, -1.025823712348938, 0.0, 0.0006708559581650483, 0.0, 0.0037968936174012325, 0.0, 0.00024336553568817334, array([[  5.52122521e-09]])]
[13.450000000000056, 0.9990588611193274, 2.466615915298462, -1.561902642250061, 0.0, 0.0007954745502332406, 0.0, 0.00488277859959516, 0.0, 0.0004105148748533854, array([[  1.57914358e-15]])]
[13.500000000000057, 1.6515811400674267, 2.4203696250915527, -1.327620506286621, 0.0, 0.0007409808019803673, 0.0, 0.004489170774438197, 0.0, 0.000438980004104707, array([[  7.86868951e-12]])]
[13.550000000000058, 1.2771538997362841, 2.3674938678741455, -0.30454808473587036, 0.0, 0.00041388354061484015, 0.0, 0.0017428793775598232, 0.0, 0.00032076114129715987, array([[-0.0489437]])]
[13.600000000000058, 0.5238188864213104, 2.367238998413086, 0.19594717025756836, 0.0, 0.0004128918741832326, 0.0, 0.001516255660435225, 0.0, 0.0003259396752446338, array([[-1.05248766]])]
[13.650000000000059, 0.2263779037449366, 2.4058070182800293, 0.5644950866699219, 0.0, 0.00023325763024537459, 0.0, 7.118495158948806e-05, 0.0, 0.0002689894810578709, array([[-0.15916394]])]
[13.70000000000006, -1.3124922207867962, 2.424624443054199, 0.4343724548816681, 0.0, 0.0002074333926671167, 0.0, -0.00016450449233576484, 0.0, 0.00028110240881646417, array([[-0.33891321]])]
[13.75000000000006, -1.2393385784228412, 2.441058397293091, -0.14103245735168457, 0.0, 0.0001243937846003738, 0.0, -0.0007232606912130878, 0.0, 0.00011737614220553547, array([[-0.15361004]])]
[13.800000000000061, -0.9161589700962655, 2.4337801933288574, -0.4462936520576477, 0.0, 0.0001032142898305775, 0.0, -0.0008050122965978889, 0.0, 0.00010996173663276313, array([[-0.00286304]])]
[13.850000000000062, -0.3539332407514465, 2.3856518268585205, -1.0981299877166748, 0.0, 8.224220321927942e-07, 0.0, -0.0007486123731530715, 0.0, -1.6018881761177763e-06, array([[  5.22511031e-09]])]
[13.900000000000063, 0.1866711355648753, 2.3473293781280518, -1.4055571556091309, 0.0, -6.564527286607336e-05, 0.0, -0.0006552371821738558, 0.0, -3.175721904533709e-05, array([[  1.55475541e-12]])]
[13.950000000000063, 0.7991600388086685, 2.2345094680786133, -2.005797863006592, 0.0, -0.00025691315484095657, 0.0, -0.0003056326200872642, 0.0, -0.00012024784197339578, array([[  2.91452055e-22]])]
[14.000000000000064, 1.4652072594501075, 2.1697170734405518, -2.060452938079834, 0.0, -0.00027211247993021354, 0.0, -0.00019014716696739642, 0.0, -0.0001652740646367212, array([[  5.37712812e-23]])]
[14.050000000000065, 1.7414946914277971, 2.0559511184692383, -1.289706826210022, 0.0, -0.00011648965564218241, 0.0, -0.0004020084708231885, 0.0, -0.000203545857594409, array([[  8.40226370e-10]])]
[14.100000000000065, 0.9581332496533298, 2.024319887161255, -0.8029279708862305, 0.0, -0.00016778524350229655, 0.0, -0.00033947616211954805, 0.0, -0.0001814558451013743, array([[ 0.00013481]])]
[14.150000000000066, 0.2884909000307226, 2.008676528930664, 0.20321059226989746, 0.0, -9.688771835817813e-05, 0.0, -0.0005296739023132883, 0.0, -3.638921828422426e-05, array([[-12.28873443]])]
[14.200000000000067, 11.549418621625247, 2.019865036010742, 0.3026936650276184, 0.0, -4.7426580351280355e-05, 0.0, -0.000576031216394663, 0.0, -1.8025191875272724e-05, array([[-9.05558651]])]
[14.250000000000068, 8.449272108921086, 2.053311586380005, 0.8334980607032776, 0.0, 0.00010485591531978848, 0.0, -0.0006512786179722835, 0.0, -0.00014822246683858316, array([[-0.05972561]])]
[14.300000000000068, -1.1528247293556344, 2.089305877685547, 1.3145371675491333, 0.0, 0.00015060713096729043, 0.0, -0.0006392385011152275, 0.0, -0.0001312091315626883, array([[ -1.20357227e-06]])]
[14.350000000000069, -1.6127308810074967, 2.2000679969787598, 1.4847720861434937, 0.0, -0.00010626864755216028, 0.0, -0.00025819254972952603, 0.0, 1.535517071355655e-05, array([[ -3.74665767e-09]])]
[14.40000000000007, -1.4879265925260792, 2.2444350719451904, 1.1927874088287354, 0.0, -0.00021021754633952867, 0.0, -3.108013960980416e-05, 0.0, 3.034899568216923e-05, array([[ -1.05038982e-05]])]
[14.45000000000007, -0.8297041543807394, 2.309868574142456, 0.5446643829345703, 0.0, -0.0007729770225308177, 0.0, 0.001092377233278261, 0.0, 0.00016968252045467588, array([[-0.3598579]])]
[14.500000000000071, 0.42646162676727173, 2.3273394107818604, 0.1609741896390915, 0.0, -0.0008806494788123986, 0.0, 0.0014382219687030906, 0.0, 0.00019880567228775957, array([[-1.26153917]])]
[14.550000000000072, 1.9266572675973594, 2.328627586364746, -0.2059289664030075, 0.0, -0.0012199116505407718, 0.0, 0.0024330314248380176, 0.0, 0.00020166394123459364, array([[-0.17465738]])]
[14.600000000000072, 1.2554384232723632, 2.3279950618743896, 0.08950621634721756, 0.0, -0.0009886628251943885, 0.0, 0.002020634746889261, 0.0, 0.00020164330633504356, array([[-1.08419122]])]
[14.650000000000073, 1.6361806597115292, 2.3744523525238037, 1.1221516132354736, 0.0, -0.00047749956190301944, 0.0, 0.0007098129624874286, 0.0, 0.00022497900943677915, array([[ -2.33977857e-05]])]
[14.700000000000074, -0.4908860547644569, 2.4203288555145264, 1.598841905593872, 0.0, -0.00041157085471346547, 0.0, 0.0004918562930532872, 0.0, 0.00021257179252658282, array([[ -1.51850662e-11]])]
[14.750000000000075, -1.7853444839675865, 2.540081739425659, 1.4829487800598145, 0.0, -3.4206416199045474e-05, 0.0, 3.955943796320315e-05, 0.0, 8.791764714277656e-05, array([[ -3.04468638e-10]])]
[14.800000000000075, -2.2004425314190605, 2.584740161895752, 1.1841151714324951, 0.0, 3.318033941818825e-05, 0.0, 7.654177351534776e-05, 0.0, 5.403352826602709e-05, array([[ -9.37062259e-07]])]
[14.850000000000076, -1.6448584644282804, 2.6494197845458984, 0.5334979891777039, 0.0, 0.00024475256980051297, 0.0, 0.00044068959399528045, 0.0, -9.949692365217128e-05, array([[-0.02611218]])]
[14.900000000000077, -0.8699779533740398, 2.6641643047332764, 0.2264329195022583, 0.0, 0.0002831385037819223, 0.0, 0.0006432178949821939, 0.0, -0.0001207018149640131, array([[-0.08457897]])]
[14.950000000000077, -0.20926913101625644, 2.663295269012451, -0.42594537138938904, 0.0, 0.00040632553325712994, 0.0, 0.0016069990442110326, 0.0, -0.0002452211323901143, array([[-0.00065101]])]
[15.000000000000078, 0.43727463334300737, 2.647138833999634, -0.7330963611602783, 0.0, 0.00041852702347567065, 0.0, 0.0019038595381095152, 0.0, -0.00025071263436603387, array([[ -1.62925567e-07]])]
[15.050000000000079, 0.8535352781973733, 2.584348440170288, -1.1806210279464722, 0.0, 0.00036792009844393534, 0.0, 0.002768576858900549, 0.0, -0.00029620478367419834, array([[  9.27095056e-11]])]
[15.10000000000008, 1.05011636335445, 2.5496222972869873, -1.0612187385559082, 0.0, 0.0002998635519200487, 0.0, 0.002395745768092902, 0.0, -0.0003108533434927037, array([[  3.80182365e-09]])]
[15.15000000000008, 0.5669010652581442, 2.50897479057312, -0.17610692977905273, 0.0, 0.0003659632811959026, 0.0, 0.000842658663618694, 0.0, -0.00022566863566875065, array([[-0.05555963]])]
[15.200000000000081, -0.6209090495912408, 2.5103960037231445, 0.07454825937747955, 0.0, 0.00036636143004867776, 0.0, 0.0005930984021802464, 0.0, -0.0001796898217244574, array([[-0.24378355]])]
[15.250000000000082, -0.8948419571907882, 2.5187394618988037, -0.18912042677402496, 0.0, 6.26338514691656e-06, 0.0, -0.0003952614786426132, 0.0, -0.0001993558256436295, array([[-0.0447524]])]
[15.300000000000082, -1.2369239471874078, 2.5105059146881104, -0.48724257946014404, 0.0, -0.00018036355782536758, 0.0, -0.00047929065093088753, 0.0, -0.00023656917722886478, array([[-0.00052546]])]
[15.350000000000083, -0.6501830845856011, 2.460808753967285, -1.1374547481536865, 0.0, -0.0007287170110650462, 0.0, -0.0006412569973326493, 0.0, -0.000360796274358517, array([[  1.21021790e-09]])]
[15.400000000000084, 0.07797362607022598, 2.421720027923584, -1.4452897310256958, 0.0, -0.0008680156587325958, 0.0, -0.0005791958907681155, 0.0, -0.0003837064647622052, array([[  2.25548947e-13]])]
[15.450000000000085, 1.056223666779471, 2.306779146194458, -2.08134388923645, 0.0, -0.0013157253013187514, 0.0, -0.00040423545010610996, 0.0, -0.0003432309588050797, array([[  4.62277169e-24]])]
[15.500000000000085, 1.716672837026417, 2.2272369861602783, -1.8867021799087524, 0.0, -0.001274904312026799, 0.0, -0.00039272618840264893, 0.0, -0.00033633446152829115, array([[  8.54470764e-20]])]
