time, uz, alt, vel_alt, uthe, roll, uphi, pitch, upsi, yaw, F
[0.0, 0.0, -0.05425633117556572, -0.03491700068116188, 0.0, -0.005538606265918547, 0.0, 0.02767144200795732, 0.0, -0.08024342422115044]
[0.05, 2.1937633854400365, -0.05452699214220047, -0.03518972918391228, 0.0, -0.005630075280582212, 0.0, 0.027671156942113025, 0.0, -0.08018690403972772]
[0.1, 2.19389952057302, -0.05464776232838631, -0.035549040883779526, 0.0, -0.005647785742483258, 0.0, 0.027680484319641138, 0.0, -0.08015832673189907]
[0.15000000000000002, 2.194012303258851, -0.04086807742714882, 0.5721988677978516, 0.0, -0.005464300460383615, 0.0, 0.023161669108809096, 0.0, -0.07824752776941898]
[0.2, 2.057025506209955, -0.01849985308945179, 0.9715955853462219, 0.0, -0.004826035410789412, 0.0, 0.015294283565137061, 0.0, -0.07230940526037538]
[0.25, 1.9632430753363297, 0.09089094400405884, 2.0362331867218018, 0.0, -0.0033680281550749337, 0.0, 0.01030555897010877, 0.0, -0.05980147854557987]
[0.3, 1.69920641861558, 0.1542687714099884, 2.432781219482422, 0.0, -0.0021370472622103073, 0.0, 0.006482110283165581, 0.0, -0.050860848955742326]
[0.35, 1.59447083876431, 0.3658425807952881, 3.39683198928833, 0.0, -0.000606971431770987, 0.0, 0.004003280901904452, 0.0, -0.040711050879669065]
[0.39999999999999997, 1.3236164337873464, 0.4665614068508148, 3.75547194480896, 0.0, -0.000319172840517969, 0.0, 0.002935146911514913, 0.0, -0.03587647927700322]
[0.44999999999999996, 1.2166413589328526, 0.7701058983802795, 4.636551856994629, 0.0, 9.354951527130432e-05, 0.0, 0.0019471618616855796, 0.0, -0.029391325888946423]
[0.49999999999999994, 0.9379942482054233, 0.9049295783042908, 4.96354866027832, 0.0, 0.000140746303050559, 0.0, 0.0014401548736226624, 0.0, -0.02540038608303091]
[0.5499999999999999, 0.8283212234437468, 1.291303038597107, 5.691301345825195, 0.0, 0.00033403843916394137, 0.0, 0.0010686371343712306, 0.0, -0.021063944515675406]
[0.6, 0.5598701574683195, 1.4537729024887085, 5.872892379760742, 0.0, 0.00038643719793893114, 0.0, 0.0009012630426936798, 0.0, -0.018292572558086626]
[0.65, 0.4742364784598354, 1.8865314722061157, 5.993042945861816, 0.0, 0.00036134925030182876, 0.0, 0.0008940527157739087, 0.0, -0.014614137193611534]
[0.7000000000000001, 0.3257557602524759, 2.053008794784546, 5.900425434112549, 0.0, 0.00037131041207954667, 0.0, 0.0007290573333600498, 0.0, -0.012771121248202063]
[0.7500000000000001, 0.2990424471616746, 2.4654898643493652, 5.508584499359131, 0.0, 0.00026740054172718996, 0.0, 0.00045585894771374967, 0.0, -0.010006991091533255]
[0.8000000000000002, 0.26841220593452464, 2.6175289154052734, 5.3201904296875, 0.0, 0.0001727663559143363, 0.0, 0.0003589380551905243, 0.0, 0.0005424609653904149]
[0.8500000000000002, 0.2667498830795292, 2.98311448097229, 4.804480075836182, 0.0, 0.00025885763323377556, 0.0, 0.00017979407339309135, 0.0, 0.0016515054531240924]
[0.9000000000000002, 0.2764856454133988, 3.115121603012085, 4.597169876098633, 0.0, 0.00041556617211402504, 0.0, 0.0001797808206025189, 0.0, 0.002140507596070335]
[0.9500000000000003, 0.2846209686040879, 3.428631067276001, 4.071691036224365, 0.0, 0.0006282075520461003, 0.0, 0.00027089225406872863, 0.0, 0.002212120913095255]
[1.0000000000000002, 0.3111971127748492, 3.540783405303955, 3.8728625774383545, 0.0, 0.0007619788800361336, 0.0, 0.0003183765694465686, 0.0, 0.0019929090559010717]
[1.0500000000000003, 0.323079940223694, 3.804020881652832, 3.383457899093628, 0.0, 0.000697227035922283, 0.0, 0.0003309216053285497, 0.0, 0.001437238805518237]
[1.1000000000000003, 0.3559476252079011, 3.8992273807525635, 3.2025680541992188, 0.0, 0.0005784349993199178, 0.0, 0.0003159137858501498, 0.0, 0.0010598318243734165]
[1.1500000000000004, 0.36868570654392263, 4.1201066970825195, 2.771273136138916, 0.0, 0.00037252940545760225, 0.0, 0.00043652636661733606, 0.0, 0.0006603538533683738]
[1.2000000000000004, 0.4007850625991822, 4.197877883911133, 2.614874839782715, 0.0, 0.0002866526549652842, 0.0, 0.0005178863010384441, 0.0, 0.0004566932026365644]
[1.2500000000000004, 0.4130814834594728, 4.377121448516846, 2.249955177307129, 0.0, 3.338949824912888e-05, 0.0, 0.0005201962856037889, 0.0, 0.00014018909895505821]
[1.3000000000000005, 0.4423984312534332, 4.440073013305664, 2.121614933013916, 0.0, -3.2321439404558445e-05, 0.0, 0.0005269100990990867, 0.0, -1.020805233103625e-05]
[1.3500000000000005, 0.45273371801376355, 4.5853118896484375, 1.8244398832321167, 0.0, -5.696125612973715e-07, 0.0, 0.0005919525804824159, 0.0, -0.00031348844382642977]
[1.4000000000000006, 0.4768141191244125, 4.63643741607666, 1.7209712266921997, 0.0, 1.185854349648611e-05, 0.0, 0.0005340501939421625, 0.0, -0.0004663938782776229]
[1.4500000000000006, 0.48504101879596717, 4.754997253417969, 1.4904417991638184, 0.0, -9.771209793012282e-05, 0.0, 0.0005718290037501297, 0.0, -0.0006623235298465243]
[1.5000000000000007, 0.5020575213432312, 4.799031734466553, 1.4124796390533447, 0.0, -0.0001498553879135977, 0.0, 0.00045359628708009484, 0.0, -0.0007878429184347089]
[1.5500000000000007, 0.5067003004074098, 4.901001453399658, 1.2384464740753174, 0.0, -4.930201075932678e-05, 0.0, 0.0005640788862889506, 0.0, -0.0010415469247739711]
[1.6000000000000008, 0.5160275118827821, 4.937340259552002, 1.1793227195739746, 0.0, -7.033535215697479e-05, 0.0, 0.0005649311177769304, 0.0, -0.0012114047150901335]
[1.6500000000000008, 0.5187171691417696, 5.022396564483643, 1.0406436920166016, 0.0, -0.00014958497660508513, 0.0, 0.0005532128063230617, 0.0, -0.001517918160802447]
[1.7000000000000008, 0.525076481294632, 5.052931785583496, 0.9910899996757507, 0.0, -0.00019775875537726383, 0.0, 0.0005804773451764527, 0.0, -0.0016611491973147405]
[1.7500000000000009, 0.5273086470007897, 5.12434720993042, 0.874549150466919, 0.0, -9.824282469147882e-05, 0.0, 0.00044871764257476776, 0.0, -0.0018010414752823868]
[1.800000000000001, 0.5326705186843872, 5.149887561798096, 0.833377480506897, 0.0, -0.00014455526265129195, 0.0, 0.0005343948273158899, 0.0, -0.0017299984231434393]
[1.850000000000001, 0.5344770730733872, 5.209997177124023, 0.7357639670372009, 0.0, -0.00012640488055026735, 0.0, 0.0005283344058283791, 0.0, -0.0017429744150768848]
[1.900000000000001, 0.5388854881167412, 5.231760025024414, 0.7012755274772644, 0.0, -0.00012317675096906657, 0.0, 0.00047473328730264654, 0.0, -0.0016269820332354577]
[1.950000000000001, 0.540294804418087, 5.282651424407959, 0.6185766458511353, 0.0, -9.269506476241075e-05, 0.0, 0.00046548742896486894, 0.0, -0.0014101709192962776]
[2.000000000000001, 0.5440392174482347, 5.300914764404297, 0.5898289084434509, 0.0, -0.00010797878354031508, 0.0, 0.000430947740462149, 0.0, -0.0012809503492777084]
[2.0500000000000007, 0.5451792310595514, 5.343686580657959, 0.520014226436615, 0.0, -6.450102320850673e-05, 0.0, 0.00042620091275306714, 0.0, -0.0011412661491387302]
[2.1000000000000005, 0.5483941626906395, 5.358922481536865, 0.4951992332935333, 0.0, -2.6819535252779125e-06, 0.0, 0.00036390849128528727, 0.0, -0.0011667095836135272]
[2.1500000000000004, 0.5495275513708592, 5.395015716552734, 0.43742698431015015, 0.0, -2.725121465280147e-05, 0.0, 0.00044875576910145755, 0.0, -0.0011038321234519471]
[2.2, 0.5519905536532402, 5.40799617767334, 0.4167567491531372, 0.0, 3.491656176620697e-05, 0.0, 0.0003974748218436845, 0.0, -0.0010422846797137582]
[2.25, 0.5528529509782791, 5.437688827514648, 0.36696282029151917, 0.0, 8.67321597625133e-06, 0.0, 0.0005179321619597775, 0.0, -0.0010426265476170217]
[2.3, 0.555375586348772, 5.448541164398193, 0.349712610244751, 0.0, 3.201896615922137e-05, 0.0, 0.00043829870441346164, 0.0, -0.0010931979878009426]
[2.3499999999999996, 0.5560897676467895, 5.4738569259643555, 0.30859604477882385, 0.0, 5.5263319772941846e-05, 0.0, 0.000375197607500478, 0.0, -0.0012882503196114047]
[2.3999999999999995, 0.5579476559937001, 5.482860565185547, 0.2938631772994995, 0.0, 3.8103069508261622e-06, 0.0, 0.00042799625587014705, 0.0, -0.0012524350038170364]
[2.4499999999999993, 0.5586324266195297, 5.504061698913574, 0.2592793107032776, 0.0, 3.663161035012576e-05, 0.0, 0.0003981441700249084, 0.0, -0.0011923270819496103]
[2.499999999999999, 0.5602212133526803, 5.511719226837158, 0.24687987565994263, 0.0, 8.923703276786462e-05, 0.0, 0.00039219424231794, 0.0, -0.0010065335965251656]
[2.549999999999999, 0.5607749694943428, 5.529667854309082, 0.21664376556873322, 0.0, 2.3575923512073733e-05, 0.0, 0.0004770710479486219, 0.0, -0.0009554634965199937]
[2.5999999999999988, 0.5623297800689936, 5.536318302154541, 0.20609824359416962, 0.0, -1.647830254508339e-05, 0.0, 0.0004152172206283988, 0.0, -0.0009494033955724213]
[2.6499999999999986, 0.5627618279546499, 5.5520920753479, 0.18133875727653503, 0.0, -2.7113877929802457e-05, 0.0, 0.00037377906238540064, 0.0, -0.0009505851534962313]
[2.6999999999999984, 0.5637312192857266, 5.558113098144531, 0.17292502522468567, 0.0, 2.5847472594958923e-05, 0.0, 0.0003232791498007037, 0.0, -0.0008841524048854694]
[2.7499999999999982, 0.5638740918695927, 5.5723724365234375, 0.15214034914970398, 0.0, 6.1593528633467495e-06, 0.0, 0.00038841707643334344, 0.0, -0.0009035430104154522]
[2.799999999999998, 0.5644005247056484, 5.577397346496582, 0.14402447640895844, 0.0, -6.562037038235227e-05, 0.0, 0.0003099845928014411, 0.0, -0.0008937762336432789]
[2.849999999999998, 0.564759368750453, 5.588967800140381, 0.12444726377725601, 0.0, -8.405582313811516e-05, 0.0, 0.0003631943306200034, 0.0, -0.0007500605580732557]
[2.8999999999999977, 0.5657804392531515, 5.593118190765381, 0.11737801134586334, 0.0, -1.4444170308199885e-06, 0.0, 0.00034628765101921507, 0.0, -0.0006417281815255945]
[2.9499999999999975, 0.5661569502621889, 5.602667808532715, 0.09995650500059128, 0.0, 8.517875534061303e-05, 0.0, 0.00037043189048917925, 0.0, -0.000613810916480749]
[2.9999999999999973, 0.5672764030560851, 5.606077671051025, 0.09334482252597809, 0.0, 3.7992678589507e-05, 0.0, 0.00047823863597712646, 0.0, -0.00045247948085320924]
[3.049999999999997, 0.5677617573291064, 5.613880157470703, 0.07914425432682037, 0.0, -1.7573510539733745e-05, 0.0, 0.0004213936781103058, 0.0, -0.0003912950459625552]
[3.099999999999997, 0.5686690398484469, 5.6172404289245605, 0.07393602281808853, 0.0, -0.00010504023633517483, 0.0, 0.00042880755732835503, 0.0, -0.00036079954653847607]
[3.149999999999997, 0.5688610379174353, 5.624811172485352, 0.06295867264270782, 0.0, 8.214165470989524e-06, 0.0, 0.00031859324715431697, 0.0, -0.0002444503952350745]
[3.1999999999999966, 0.5691278566986322, 5.627561092376709, 0.0591481477022171, 0.0, 3.963690341406232e-05, 0.0, 0.0003422884814423592, 0.0, -0.00021443638444412904]
[3.2499999999999964, 0.5691860592752696, 5.633359432220459, 0.048450589179992676, 0.0, 0.00010800978189014165, 0.0, 0.000450080563454088, 0.0, -0.00019882451908942342]
[3.2999999999999963, 0.5698919532537461, 5.635285377502441, 0.044681522995233536, 0.0, 3.9667685542033336e-05, 0.0, 0.00038707120141860446, 0.0, -0.00011893072627102101]
[3.349999999999996, 0.5701736843951046, 5.639371395111084, 0.035278476774692535, 0.0, 3.2665103453845716e-05, 0.0, 0.0003963759798441048, 0.0, -4.475347815960209e-05]
[3.399999999999996, 0.5710794687464833, 5.640936851501465, 0.03223250433802605, 0.0, 7.265687251823007e-05, 0.0, 0.0003962775454125472, 0.0, -6.565039216894873e-05]
[3.4499999999999957, 0.5713046083711087, 5.6442155838012695, 0.02437984012067318, 0.0, 2.972373277877356e-05, 0.0, 0.00037001013662806085, 0.0, -0.00015602212992397467]
[3.4999999999999956, 0.5720987557064743, 5.64614200592041, 0.022380918264389038, 0.0, -5.049410742530887e-05, 0.0, 0.0002618388923070368, 0.0, -0.00020138424712438536]
[3.5499999999999954, 0.571992690628767, 5.650304794311523, 0.016832057386636734, 0.0, 4.73129136728345e-05, 0.0, 0.0003323432258246564, 0.0, -0.0003490523250220849]
[3.599999999999995, 0.5720327359981835, 5.651965141296387, 0.015064476989209652, 0.0, 2.100950309246719e-05, 0.0, 0.00031820149687910394, 0.0, -0.000417671909587806]
[3.649999999999995, 0.571951120151393, 5.655462741851807, 0.010594209656119347, 0.0, 1.5821162728256275e-05, 0.0, 0.00041373074938987, 0.0, -0.0004908389027655093]
[3.699999999999995, 0.5719427360605448, 5.656759738922119, 0.008723612874746323, 0.0, -5.324680882096387e-05, 0.0, 0.00039614645829726044, 0.0, -0.0005449693168215981]
[3.7499999999999947, 0.5719862544827163, 5.659040927886963, 0.003594940062612295, 0.0, -2.9262927032428786e-05, 0.0, 0.00037136716233150945, 0.0, -0.0006610365929327146]
[3.7999999999999945, 0.5724654541837984, 5.659759998321533, 0.001624361495487392, 0.0, 2.0345579063432132e-05, 0.0, 0.00033228280500579064, 0.0, -0.0007466701660643863]
[3.8499999999999943, 0.5726940173063195, 5.661309719085693, -0.0029680272564291954, 0.0, -5.044582087240564e-05, 0.0, 0.00039440834907078764, 0.0, -0.0008734612697104834]
[3.899999999999994, 0.5732622642712668, 5.662797451019287, -0.004425737075507641, 0.0, 4.336279351069175e-07, 0.0, 0.0003265230668165696, 0.0, -0.0008549066390261627]
[3.949999999999994, 0.5731615159967914, 5.665737628936768, -0.0068113310262560844, 0.0, 4.4409067946955985e-05, 0.0, 0.0002539811004389155, 0.0, -0.0008063478362873942]
[3.999999999999994, 0.5728539488459007, 5.666741847991943, -0.008040576241910458, 0.0, 6.568992615165687e-05, 0.0, 0.0003280746331772764, 0.0, -0.0007368847030312965]
[4.049999999999994, 0.5728396625088528, 5.668416976928711, -0.010925947688519955, 0.0, -1.1371798761682436e-05, 0.0, 0.0003027923925818757, 0.0, -0.000634396075014165]
[4.099999999999993, 0.5729986699568108, 5.669123649597168, -0.012556989677250385, 0.0, -1.1171769215715567e-05, 0.0, 0.00022301666920938987, 0.0, -0.0005539794178860446]
[4.149999999999993, 0.5731563744580374, 5.6706109046936035, -0.016397099941968918, 0.0, -5.4421598194981315e-05, 0.0, 0.00031037200497598555, 0.0, -0.0006010224974302666]
[4.199999999999993, 0.573577506492287, 5.671408176422119, -0.017350416630506516, 0.0, -1.0824545731314646e-05, 0.0, 0.00027317073157550714, 0.0, -0.0006300968270928727]
[4.249999999999993, 0.5735612130381167, 5.673308372497559, -0.021222777664661407, 0.0, -3.3957461982753634e-05, 0.0, 0.00019660718872993704, 0.0, -0.0005019722807997235]
[4.299999999999993, 0.5738728347525001, 5.675051689147949, -0.022518005222082138, 0.0, -2.916065586377934e-05, 0.0, 0.00016526902224402358, 0.0, -0.00047196279872657975]
[4.3499999999999925, 0.5736643512971699, 5.677855491638184, -0.024431083351373672, 0.0, -1.735907853759547e-05, 0.0, 0.00030654828407950777, 0.0, -0.0003508330301085845]
[4.399999999999992, 0.5732918019644916, 5.678815841674805, -0.025006495416164398, 0.0, 2.2161556875060128e-06, 0.0, 0.0002708967070042992, 0.0, -0.0003400404761544184]
[4.449999999999992, 0.5731467103913427, 5.680332183837891, -0.02832445129752159, 0.0, 4.619024312050193e-05, 0.0, 0.00031501111738188635, 0.0, -0.0003899353689352736]
[4.499999999999992, 0.5734452793367206, 5.6808247566223145, -0.03073226474225521, 0.0, 3.4463012445655955e-05, 0.0, 0.00027506967516278556, 0.0, -0.0003334611281704538]
[4.549999999999992, 0.5738335371840746, 5.681207180023193, -0.034863051027059555, 0.0, -6.537271891777062e-05, 0.0, 0.0002592952788841186, 0.0, -0.00031661560420651687]
[4.599999999999992, 0.5746302212543786, 5.681518077850342, -0.03658880293369293, 0.0, -4.9218618591351145e-05, 0.0, 0.0002177385697437354, 0.0, -0.00035943368477864057]
[4.6499999999999915, 0.5749203944653274, 5.6819257736206055, -0.039239149540662766, 0.0, -7.894876331534217e-06, 0.0, 0.00021901758459995753, 0.0, -0.0002680548240703982]
[4.699999999999991, 0.5753857278563083, 5.682769298553467, -0.03953057527542114, 0.0, -1.640879260000193e-05, 0.0, 0.00024300464650468627, 0.0, -0.00021174776345810766]
[4.749999999999991, 0.5752114230036736, 5.68437385559082, -0.03959384188055992, 0.0, -1.9202887815512747e-05, 0.0, 0.00018085567981125525, 0.0, -0.00025878338931751015]
[4.799999999999991, 0.574772311938554, 5.685008525848389, -0.03999876230955124, 0.0, 8.430199053675533e-06, 0.0, 0.00019514117662057295, 0.0, -0.0002699075755536502]
[4.849999999999991, 0.5746818220987916, 5.685548305511475, -0.041421160101890564, 0.0, -9.52926761389896e-05, 0.0, 0.00029078860003694103, 0.0, -0.00021707011855764754]
[4.899999999999991, 0.5748409474164249, 5.685764789581299, -0.04207341745495796, 0.0, -3.2344999420866765e-05, 0.0, 0.00022303518782601338, 0.0, -0.00024184221655975454]
[4.94999999999999, 0.5749226783238351, 5.686019420623779, -0.043862659484148026, 0.0, -7.617713723524931e-05, 0.0, 0.0002886413926214583, 0.0, -0.0002807932898439484]
[4.99999999999999, 0.5752426399849355, 5.6863017082214355, -0.044512055814266205, 0.0, -1.3144011269390418e-05, 0.0, 0.00031339557965501464, 0.0, -0.0003318663334591651]
[5.04999999999999, 0.5753051679924132, 5.686456680297852, -0.04646722972393036, 0.0, -1.117072265038766e-05, 0.0, 0.0001642366775499872, 0.0, -0.00033683853320041053]
[5.09999999999999, 0.5756896024614573, 5.686928749084473, -0.04654540866613388, 0.0, 1.822730176265369e-05, 0.0, 0.0002543323886692055, 0.0, -0.0002739522003994016]
[5.14999999999999, 0.5755734586313367, 5.687575340270996, -0.04714589938521385, 0.0, -2.088698052700321e-05, 0.0, 0.00028251453184711196, 0.0, -0.00033549186717966525]
[5.1999999999999895, 0.5755224334068596, 5.68806266784668, -0.0474480539560318, 0.0, -5.83715630919441e-05, 0.0, 0.00011343670681403393, 0.0, -0.00028828775749095714]
[5.249999999999989, 0.5754510326832533, 5.688475131988525, -0.04792431369423866, 0.0, 1.2228423191416679e-05, 0.0, 0.00021654241238302943, 0.0, -0.00018510763731327683]
[5.299999999999989, 0.5754388949386775, 5.68899393081665, -0.04838746041059494, 0.0, 3.9686285607377545e-06, 0.0, 0.0002342778040153923, 0.0, -0.00015290829094668243]
[5.349999999999989, 0.5753938671603799, 5.689565658569336, -0.04962827265262604, 0.0, 2.2579318657482015e-05, 0.0, 0.0002277387590142896, 0.0, -0.00013925060680721214]
[5.399999999999989, 0.5755042062968015, 5.689911842346191, -0.05052880570292473, 0.0, -2.105965696426276e-06, 0.0, 0.0002295582377224701, 0.0, -0.00011683129781180781]
[5.449999999999989, 0.5756036953546108, 5.690126419067383, -0.05197930335998535, 0.0, 4.881245599176701e-05, 0.0, 0.00020419629209852605, 0.0, -8.900915435529278e-05]
[5.4999999999999885, 0.5758607793331146, 5.690906524658203, -0.05221577733755112, 0.0, 2.039044951796094e-05, 0.0, 0.000186286999970936, 0.0, -0.00010098194292464963]
[5.549999999999988, 0.5756923433259129, 5.692254543304443, -0.05221712589263916, 0.0, -8.22924787765315e-05, 0.0, 0.00017456165964328728, 0.0, -9.020143224898523e-05]
[5.599999999999988, 0.5753120929956436, 5.69289493560791, -0.05250270664691925, 0.0, -8.281194827871292e-05, 0.0, 0.00016203585559818094, 0.0, -8.43004005617601e-05]
[5.649999999999988, 0.5751938524335622, 5.693207263946533, -0.05282784625887871, 0.0, -2.8143526491994907e-05, 0.0, 0.00022911656812819536, 0.0, -3.9621259007859694e-05]
[5.699999999999988, 0.575176887718588, 5.693510055541992, -0.053275059908628464, 0.0, -2.7627533497821304e-05, 0.0, 0.00012838813064568674, 0.0, -8.901591154026459e-05]
[5.749999999999988, 0.5751893494404853, 5.693783760070801, -0.05463525652885437, 0.0, -5.4850456844823e-05, 0.0, 0.00011572263947971128, 0.0, -0.0002218641871683141]
[5.799999999999987, 0.5754099657118321, 5.69392204284668, -0.055266957730054855, 0.0, -0.00010837214199793789, 0.0, 9.91989961720478e-05, 0.0, -0.00027261119434961113]
[5.849999999999987, 0.5755092710472643, 5.6944580078125, -0.05738311633467674, 0.0, -2.0604332388219272e-05, 0.0, 0.00014074743769557915, 0.0, -0.00035504650420608175]
[5.899999999999987, 0.5758214068718255, 5.69581937789917, -0.05687493085861206, 0.0, -4.386945592926221e-05, 0.0, 0.00019946719349679025, 0.0, -0.0002783421657912736]
[5.949999999999987, 0.5753257994771004, 5.697939872741699, -0.05735543742775917, 0.0, 3.454879817465802e-05, 0.0, 0.00028372528799437094, 0.0, -0.00026366578608540603]
[5.999999999999987, 0.5748324147216975, 5.698872089385986, -0.0573723167181015, 0.0, -1.4528979433645404e-05, 0.0, 0.00020983240896484245, 0.0, -0.00026114337867164534]
[6.0499999999999865, 0.5745729465276004, 5.700568675994873, -0.05897495523095131, 0.0, -0.00010969180345730671, 0.0, 0.00016695234807685084, 0.0, -0.00028509044292814603]
[6.099999999999986, 0.5744449779622257, 5.701330184936523, -0.06024571880698204, 0.0, -5.4972230116358045e-05, 0.0, 0.00019699118815307885, 0.0, -0.0003904538208495164]
[6.149999999999986, 0.5745083012111485, 5.701981544494629, -0.0643261969089508, 0.0, -8.592323297246305e-05, 0.0, 0.00014922342135325058, 0.0, -0.00044566716850156715]
[6.199999999999986, 0.5752180471122265, 5.702317714691162, -0.0659441351890564, 0.0, -5.395555817107413e-05, 0.0, 9.491920448790217e-05, 0.0, -0.00046505086715607427]
[6.249999999999986, 0.5754774747490884, 5.701946258544922, -0.0695127546787262, 0.0, -3.101721379591012e-05, 0.0, 0.00016673614020985003, 0.0, -0.00046412368125923987]
[6.299999999999986, 0.5763638644874096, 5.702754497528076, -0.07039469480514526, 0.0, -9.883719913224568e-05, 0.0, 0.00013215396974589283, 0.0, -0.00044541442618662927]
[6.349999999999985, 0.5763288435101509, 5.703855991363525, -0.07170449197292328, 0.0, -9.063976910667032e-05, 0.0, 0.0001117058382910862, 0.0, -0.0003735947297450188]
[6.399999999999985, 0.5763047373801471, 5.7044901847839355, -0.07156264781951904, 0.0, -5.404067323812607e-05, 0.0, 0.0002041124890068489, 0.0, -0.00026106308684738526]
[6.449999999999985, 0.5760946407079697, 5.704854488372803, -0.07098817825317383, 0.0, -0.00011051862269729824, 0.0, 0.00022104785670338796, 0.0, -2.2518631492938914e-05]
[6.499999999999985, 0.5758659889698029, 5.705168724060059, -0.07092340290546417, 0.0, -9.309194405106159e-05, 0.0, 8.839810263247723e-05, 0.0, 4.40814878558534e-05]
[6.549999999999985, 0.5757630944341421, 5.705101490020752, -0.07316392660140991, 0.0, 6.724268998343824e-05, 0.0, 0.00012319000474347223, 0.0, 9.31372457580737e-07]
[6.5999999999999845, 0.5762727492928506, 5.705252170562744, -0.07430995255708694, 0.0, -4.840502136568232e-05, 0.0, 0.00022969927163262556, 0.0, -5.639804118019522e-05]
[6.649999999999984, 0.5764811918601394, 5.70477294921875, -0.07576855272054672, 0.0, -5.6364713942110534e-05, 0.0, 0.00011240829895186574, 0.0, -0.00010781480361863193]
[6.699999999999984, 0.5769359094813467, 5.705626964569092, -0.0753839835524559, 0.0, -3.7339882126257134e-05, 0.0, 0.0002141147680587775, 0.0, -0.00018317419604132917]
[6.749999999999984, 0.5766106003001332, 5.70689058303833, -0.07538638263940811, 0.0, -0.00010182943673982325, 0.0, 0.0001519512971056235, 0.0, -0.0003011891062004915]
[6.799999999999984, 0.5762544062063099, 5.707683086395264, -0.07500044256448746, 0.0, -7.376651410477536e-05, 0.0, 0.00011456951657440622, 0.0, -0.0002644335450942207]
[6.849999999999984, 0.5759461616322399, 5.708954811096191, -0.07441623508930206, 0.0, 2.8030594226495532e-05, 0.0, 4.684846848930844e-05, 0.0, -0.0002824675131759921]
[6.8999999999999835, 0.5754592123121024, 5.709645748138428, -0.07466262578964233, 0.0, -7.87201318974007e-05, 0.0, 0.00012928095559726002, 0.0, -0.0003531113728233954]
[6.949999999999983, 0.5753181203484535, 5.710430145263672, -0.07712425291538239, 0.0, -6.822157027159195e-05, 0.0, 0.00017107449594059996, 0.0, -0.000478878307127772]
[6.999999999999983, 0.5756357813805342, 5.7108941078186035, -0.07801823318004608, 0.0, -6.5677286123349e-05, 0.0, 0.00011134546042278021, 0.0, -0.0005361958369210263]
[7.049999999999983, 0.5757005864292383, 5.711401462554932, -0.0801997035741806, 0.0, -5.8268670551904935e-05, 0.0, 9.34269936928345e-05, 0.0, -0.0005714296641908937]
[7.099999999999983, 0.5760351022034883, 5.71254301071167, -0.08031071722507477, 0.0, -0.00010213983840436039, 0.0, 1.3769690622932116e-05, 0.0, -0.00044903320846694666]
[7.149999999999983, 0.5757371551483871, 5.713807106018066, -0.08135566860437393, 0.0, -3.463141470143832e-05, 0.0, 7.472575593539456e-05, 0.0, -0.0004333551726886277]
[7.199999999999982, 0.5756091453954577, 5.714439868927002, -0.08166112750768661, 0.0, -2.7870534949929117e-05, 0.0, 2.2036583426564808e-05, 0.0, -0.0003922188644818266]
[7.249999999999982, 0.5754974119260906, 5.714868545532227, -0.08417725563049316, 0.0, 2.6763895885379727e-05, 0.0, 4.4793309447212717e-05, 0.0, -0.00041632595373379885]
[7.299999999999982, 0.5759274285793304, 5.715080261230469, -0.08557023853063583, 0.0, -3.891068561767814e-06, 0.0, 6.958928864152708e-05, 0.0, -0.000342654001851924]
[7.349999999999982, 0.576172724492848, 5.714302062988281, -0.08913709223270416, 0.0, 4.7626949296557575e-05, 0.0, 0.00011687957950168782, 0.0, -0.00020339790181204086]
[7.399999999999982, 0.5771735508173704, 5.713839530944824, -0.09009996056556702, 0.0, 0.00011642187169392131, 0.0, 7.757094435080859e-05, 0.0, -0.00018721178037492978]
[7.4499999999999815, 0.5775149917781354, 5.711928367614746, -0.09186241030693054, 0.0, 2.7648370684417352e-05, 0.0, 5.930775755141819e-05, 0.0, -0.00021907849231800824]
[7.499999999999981, 0.5784404896795751, 5.712255001068115, -0.09110067784786224, 0.0, -4.974965508946189e-05, 0.0, -3.0971068148780842e-06, 0.0, -0.00012391164909925467]
[7.549999999999981, 0.5781814616471529, 5.712315559387207, -0.08897662907838821, 0.0, -1.2247241117370304e-05, 0.0, -2.154779508511005e-05, 0.0, -6.237719963506223e-05]
[7.599999999999981, 0.5776991993531585, 5.712438106536865, -0.08802152425050735, 0.0, -0.00015759358472965609, 0.0, 3.717041555517069e-05, 0.0, -0.00011295647521058506]
[7.649999999999981, 0.5774554363355041, 5.711954593658447, -0.08677008002996445, 0.0, -4.161374856724932e-05, 0.0, 0.00017376887610009236, 0.0, -0.00018747278462065515]
[7.699999999999981, 0.5773178657367826, 5.711971759796143, -0.08615224808454514, 0.0, -1.3870795919854207e-05, 0.0, 5.7047253692470187e-05, 0.0, -0.0002186582485909618]
[7.7499999999999805, 0.5771777145400644, 5.7113423347473145, -0.08555660396814346, 0.0, -2.2016215477149846e-05, 0.0, 3.918821036239972e-05, 0.0, -0.00022506460533810364]
[7.79999999999998, 0.5772249551698566, 5.711198329925537, -0.0854819044470787, 0.0, -2.406931097178031e-05, 0.0, -1.6436464710847958e-05, 0.0, -0.0001738133933377074]
[7.84999999999998, 0.5772492485359311, 5.7098307609558105, -0.08555196970701218, 0.0, -3.0211194204152443e-05, 0.0, 5.43222256815366e-05, 0.0, -0.0002456326359547747]
[7.89999999999998, 0.5776506575480104, 5.710530757904053, -0.08557156473398209, 0.0, -1.2908699446446085e-05, 0.0, 4.9831409061496696e-05, 0.0, -0.0001787029468350135]
[7.94999999999998, 0.577457339720428, 5.711120128631592, -0.0845232605934143, 0.0, -2.7399954167494653e-05, 0.0, 8.058312895961874e-05, 0.0, -0.00019556246731682072]
[7.99999999999998, 0.5770613817572594, 5.7115559577941895, -0.08385753631591797, 0.0, -6.995021415812825e-05, 0.0, 8.348103275741212e-06, 0.0, -0.0001340272723337622]
[8.04999999999998, 0.5767925535678864, 5.711254596710205, -0.0838746502995491, 0.0, 4.03941247528258e-05, 0.0, 8.031471061335325e-05, 0.0, -8.496641871774366e-05]
[8.09999999999998, 0.5768813757643103, 5.711175918579102, -0.0842665582895279, 0.0, 0.00010891904169146837, 0.0, 9.966365370733991e-05, 0.0, -6.978974878228832e-05]
[8.14999999999998, 0.5769894144505262, 5.710297584533691, -0.08563891798257828, 0.0, 6.637227265361364e-05, 0.0, 6.502339813068547e-05, 0.0, -5.849766391133609e-05]
[8.199999999999982, 0.5775379149243236, 5.7099833488464355, -0.08528118580579758, 0.0, -5.388836481001176e-05, 0.0, 5.131360602137151e-05, 0.0, -4.231681565928078e-05]
[8.249999999999982, 0.5775482803121209, 5.709060192108154, -0.08495905250310898, 0.0, -7.938706095254152e-05, 0.0, 2.974803103140483e-05, 0.0, 1.1294173837474039e-05]
[8.299999999999983, 0.577738340266049, 5.710206985473633, -0.08404650539159775, 0.0, -4.951006901528356e-05, 0.0, -2.666441263107991e-05, 0.0, -7.03002784860963e-05]
[8.349999999999984, 0.5772147526815533, 5.711612224578857, -0.08191082626581192, 0.0, -0.00013481736816570606, 0.0, 4.777442619019464e-05, 0.0, -7.114709588841258e-05]
[8.399999999999984, 0.5763503399536013, 5.71220588684082, -0.08167488127946854, 0.0, -0.000169472987886371, 0.0, 1.5675193353614137e-05, 0.0, 2.663547820681184e-05]
[8.449999999999985, 0.5761310771450401, 5.712179183959961, -0.08154967427253723, 0.0, -7.20505073344608e-05, 0.0, 8.712608857488394e-05, 0.0, 7.973869996548643e-05]
[8.499999999999986, 0.5761111950337887, 5.712247848510742, -0.08183535188436508, 0.0, -8.38242182647719e-05, 0.0, 9.953690488668504e-05, 0.0, 6.0855873340701555e-05]
[8.549999999999986, 0.5761543744280935, 5.71166467666626, -0.08421225845813751, 0.0, -9.594572543710247e-05, 0.0, 4.206239676558997e-05, 0.0, 4.180765305426487e-05]
[8.599999999999987, 0.576839546379447, 5.711654186248779, -0.08540776371955872, 0.0, -6.713837491313695e-05, 0.0, 8.097414871337012e-06, 0.0, -1.2307150761991549e-05]
[8.649999999999988, 0.5771043234765529, 5.710930347442627, -0.08776918053627014, 0.0, -7.607553821177382e-05, 0.0, 3.2856978276746955e-05, 0.0, -0.00011278620872514462]
[8.699999999999989, 0.5778258134543895, 5.711986064910889, -0.0877608060836792, 0.0, -0.0001280989669633753, 0.0, 1.458495317857032e-05, 0.0, -7.5359494198029e-05]
[8.74999999999999, 0.5775259504079819, 5.713175296783447, -0.08711768686771393, 0.0, -0.0001692226383271648, 0.0, 7.491291501180596e-06, 0.0, -1.1633163255558339e-05]
[8.79999999999999, 0.5770493871420621, 5.713766098022461, -0.0864379033446312, 0.0, -9.253747377975065e-05, 0.0, 7.011473820697125e-05, 0.0, 2.225029039731859e-05]
[8.84999999999999, 0.5767337313607336, 5.714358806610107, -0.08591111749410629, 0.0, -4.131329652393845e-05, 0.0, -1.7206685836619773e-05, 0.0, 4.585612352362793e-05]
[8.899999999999991, 0.576451043625176, 5.714643478393555, -0.08631835877895355, 0.0, -7.764404342720586e-05, 0.0, 3.250883335907511e-06, 0.0, 4.450694282424121e-05]
[8.949999999999992, 0.5764598666220904, 5.714127540588379, -0.08880264312028885, 0.0, -6.23171887883609e-05, 0.0, -2.2787208918241746e-05, 0.0, 9.828715406263175e-05]
[8.999999999999993, 0.5771495741352439, 5.713700771331787, -0.08974925428628922, 0.0, -7.123720129877932e-05, 0.0, 2.485991333282376e-05, 0.0, 9.103630112933471e-05]
[9.049999999999994, 0.5774773589417338, 5.712094306945801, -0.09197206795215607, 0.0, -1.6247571821216983e-05, 0.0, 0.00011856875720420105, 0.0, 3.455945022626147e-05]
[9.099999999999994, 0.5784176600307226, 5.712623596191406, -0.09159835427999496, 0.0, -9.582416943891825e-05, 0.0, 8.878136530711185e-05, 0.0, 1.8877533163365636e-05]
[9.149999999999995, 0.5781863983824849, 5.7129902839660645, -0.09049734473228455, 0.0, -3.425804609652364e-05, 0.0, 2.0397317954711e-05, 0.0, 5.1418802331373535e-05]
[9.199999999999996, 0.5778417613327503, 5.71318244934082, -0.08979708701372147, 0.0, -0.00011026305565254493, 0.0, -2.4363126471689943e-05, 0.0, 0.00010351399607272267]
[9.249999999999996, 0.5776341566070914, 5.712480068206787, -0.08856730908155441, 0.0, -1.8935465956807305e-05, 0.0, 2.059772194403056e-05, 0.0, 0.0001632766916674483]
[9.299999999999997, 0.5775631174340844, 5.712231159210205, -0.08896531164646149, 0.0, -0.00010197411088814374, 0.0, -1.1228078947268299e-05, 0.0, 0.00011708451458509298]
[9.349999999999998, 0.5777205470055342, 5.71090841293335, -0.08897069841623306, 0.0, -8.716684673615854e-05, 0.0, 4.964464222744801e-05, 0.0, 0.00010106597642943139]
[9.399999999999999, 0.5780951379820705, 5.710352420806885, -0.08896041661500931, 0.0, -3.0016169193120352e-05, 0.0, -2.4654928236413174e-05, 0.0, 8.083802339951903e-05]
[9.45, 0.5782498428449035, 5.708956241607666, -0.08865469694137573, 0.0, -0.00012538929386938762, 0.0, -0.0001113785388698846, 0.0, 0.00010950449241894542]
[9.5, 0.5785770316243171, 5.71027946472168, -0.08832016587257385, 0.0, -7.130574785379489e-05, 0.0, -1.6724854669518064e-05, 0.0, 9.550535255136305e-05]
[9.55, 0.5781302234351635, 5.711825370788574, -0.08712881803512573, 0.0, -9.44337263550735e-05, 0.0, 0.00011165973167786268, 0.0, 0.00010460320306767994]
[9.600000000000001, 0.5774329089760781, 5.712518692016602, -0.08674795180559158, 0.0, -8.239499191420583e-05, 0.0, 2.5368617793582623e-05, 0.0, 0.00011607137263936745]
[9.650000000000002, 0.5771537746891379, 5.712886810302734, -0.08687731623649597, 0.0, -7.638934642539574e-05, 0.0, -5.937895903564903e-05, 0.0, 0.0001651336159165779]
[9.700000000000003, 0.5770781857073307, 5.713109970092773, -0.08765114843845367, 0.0, -3.1383647884114204e-05, 0.0, -5.2387629576389026e-05, 0.0, 0.00014439592119023343]
[9.750000000000004, 0.5771846569508314, 5.712686061859131, -0.08915791660547256, 0.0, -3.184028393575725e-05, 0.0, -1.1762945118024328e-05, 0.0, 5.8921479993897324e-05]
[9.800000000000004, 0.5776343084737658, 5.712643146514893, -0.08922803401947021, 0.0, -3.246493815086486e-05, 0.0, 1.811474619423835e-05, 0.0, 4.442248316389822e-05]
[9.850000000000005, 0.5776617791891099, 5.711740493774414, -0.0901472419500351, 0.0, 8.635339798498854e-06, 0.0, 3.4728533825881045e-05, 0.0, 5.875285528269639e-05]
[9.900000000000006, 0.5781179045945407, 5.712611675262451, -0.08965051919221878, 0.0, -4.3428422557776785e-05, 0.0, -6.002779021630027e-05, 0.0, 1.4246937895735553e-05]
[9.950000000000006, 0.577763187776506, 5.7131667137146, -0.08831901103258133, 0.0, -7.480190910746775e-05, 0.0, -1.9104283662929787e-05, 0.0, 6.71827893375542e-05]
[10.000000000000007, 0.5773149001345038, 5.71356201171875, -0.08781380206346512, 0.0, -0.00015639945373915133, 0.0, 7.04498310099389e-05, 0.0, 9.364478582063545e-05]
[10.050000000000008, 0.5770926667436957, 5.7130279541015625, -0.08851286768913269, 0.0, -4.119944958113717e-05, 0.0, -4.231629767373275e-05, 0.0, 1.98941845409668e-05]
[10.100000000000009, 0.5773965265810489, 5.71297025680542, -0.0894688218832016, 0.0, -0.00010608935671153468, 0.0, -4.16809915835671e-05, 0.0, 1.601801231256379e-05]
[10.15000000000001, 0.5776221684962511, 5.711658477783203, -0.09125914424657822, 0.0, -0.00011218830108324422, 0.0, 1.8158919503401837e-05, 0.0, 7.544183830095189e-05]
[10.20000000000001, 0.5783845643118024, 5.71135139465332, -0.09137244522571564, 0.0, -0.00012608081018034999, 0.0, 3.0837033877692857e-05, 0.0, -1.0875830622809037e-05]
[10.25000000000001, 0.5784960667937994, 5.709798812866211, -0.09138252586126328, 0.0, -4.95166965044228e-05, 0.0, 5.765879449213257e-05, 0.0, 2.8068372867126694e-05]
[10.300000000000011, 0.5789365682914853, 5.7103047370910645, -0.09062033891677856, 0.0, -0.00017424520688811686, 0.0, -1.2448737907536478e-05, 0.0, 2.4699137174193074e-05]
[10.350000000000012, 0.578626826941967, 5.710758209228516, -0.08808682858943939, 0.0, -7.005057383290854e-05, 0.0, -2.6436283870813265e-05, 0.0, -3.093486009183151e-05]
[10.400000000000013, 0.5779439729958773, 5.711049556732178, -0.0875517800450325, 0.0, -8.758794405514074e-05, 0.0, -3.4119477236332405e-05, 0.0, -8.285920782345689e-05]
[10.450000000000014, 0.5777445499643683, 5.710631847381592, -0.08702115714550018, 0.0, -0.0001972148046455095, 0.0, 2.652359794062619e-05, 0.0, -0.00012163841703078591]
[10.500000000000014, 0.5777462628990411, 5.710489749908447, -0.08737769722938538, 0.0, -0.00015569133316168656, 0.0, -2.2908353236595832e-05, 0.0, -4.947861558720891e-05]
[10.550000000000015, 0.5778644592940807, 5.709023952484131, -0.08755684643983841, 0.0, -4.4178023522718986e-05, 0.0, -5.546027930419625e-05, 0.0, -2.443292089806024e-06]
[10.600000000000016, 0.5783174875840544, 5.708434104919434, -0.08802755922079086, 0.0, -5.4783833245956256e-05, 0.0, -8.191514935357725e-05, 0.0, 1.3236353913658049e-05]
[10.650000000000016, 0.5785870876505971, 5.706890106201172, -0.08771275728940964, 0.0, -0.0001191508937627871, 0.0, -1.1117247308924398e-05, 0.0, 3.3633846581396146e-05]
[10.700000000000017, 0.57895401686579, 5.708273410797119, -0.08668065816164017, 0.0, -7.634687438477992e-05, 0.0, -5.67892990964822e-05, 0.0, -1.9301088291588152e-05]
[10.750000000000018, 0.5783374802693725, 5.71009635925293, -0.08430139720439911, 0.0, -0.00010500663420198324, 0.0, -0.00010817305241504067, 0.0, -9.013745911478364e-06]
[10.800000000000018, 0.5773018037706613, 5.710632801055908, -0.08362525701522827, 0.0, -0.00013800948586876774, 0.0, -5.8673907463336e-06, 0.0, -3.177831810149617e-05]
[10.85000000000002, 0.5770022915482521, 5.71071195602417, -0.08402157574892044, 0.0, -0.00014587516815446478, 0.0, 9.82737400473026e-05, 0.0, 2.605936692975028e-06]
[10.90000000000002, 0.5770667399033904, 5.710754871368408, -0.08486109972000122, 0.0, -0.00010206021815188686, 0.0, 2.8506029886622014e-05, 0.0, 6.397745975017886e-05]
[10.95000000000002, 0.5772384806513786, 5.7097320556640625, -0.08754325658082962, 0.0, -4.061437036272337e-05, 0.0, -3.438643308289664e-05, 0.0, 0.00018350807159924954]
[11.000000000000021, 0.5781146138772368, 5.70941162109375, -0.08847703039646149, 0.0, 2.9013097036868878e-05, 0.0, 6.695540589095168e-06, 0.0, 0.00012365894740693514]
[11.050000000000022, 0.5784095690220594, 5.707817077636719, -0.08932554721832275, 0.0, -3.631126209423896e-05, 0.0, -2.8909151362387292e-05, 0.0, -8.302876457664934e-05]
[11.100000000000023, 0.5790455338239671, 5.7082695960998535, -0.08872903883457184, 0.0, -8.610336757713668e-05, 0.0, -8.318544876477339e-05, 0.0, -3.143796692608143e-05]
[11.150000000000023, 0.5787871525257825, 5.708052635192871, -0.08597932755947113, 0.0, -8.724424279786091e-05, 0.0, -5.0079265608542186e-05, 0.0, -2.0144008519456884e-05]
[11.200000000000024, 0.5782462138205767, 5.708178520202637, -0.08562490344047546, 0.0, -0.00010181697223181829, 0.0, -8.795984172438376e-05, 0.0, 6.832267189929858e-06]
[11.250000000000025, 0.5781330576002599, 5.706979751586914, -0.08528202772140503, 0.0, -6.882030325953728e-05, 0.0, -7.041875818243775e-06, 0.0, -3.3885821611211423e-05]
[11.300000000000026, 0.5783963801980019, 5.706284999847412, -0.08554430305957794, 0.0, -0.0001248036390643492, 0.0, 4.558410180030313e-05, 0.0, -6.1031477056010816e-05]
[11.350000000000026, 0.5786499469131231, 5.703588962554932, -0.08544673025608063, 0.0, -0.00011124696241545118, 0.0, 2.871175744441434e-05, 0.0, -8.193506500320355e-05]
[11.400000000000027, 0.5793896697968245, 5.702669620513916, -0.08552584052085876, 0.0, -7.913612296229902e-05, 0.0, -4.134654043962399e-05, 0.0, -8.597792913097781e-05]
[11.450000000000028, 0.5796665252029894, 5.6997785568237305, -0.08398598432540894, 0.0, -0.00022337333073258064, 0.0, 1.1875930615171003e-05, 0.0, -0.0001245874020506212]
[11.500000000000028, 0.5801454439759255, 5.699937343597412, -0.08275217562913895, 0.0, -0.00018197587366629964, 0.0, 6.434623804219988e-05, 0.0, -0.00012391758087071316]
[11.55000000000003, 0.579830414365232, 5.6995744705200195, -0.07869067788124084, 0.0, -0.00016838439541170999, 0.0, 1.0110337053257234e-05, 0.0, -0.00011076276154417594]
[11.60000000000003, 0.5790433854281902, 5.699693202972412, -0.07730139046907425, 0.0, -0.00012114802573561824, 0.0, -3.6525675630361885e-05, 0.0, -4.8045191558787114e-05]
[11.65000000000003, 0.5787056133136153, 5.699883460998535, -0.0749351978302002, 0.0, -1.58207596164919e-05, 0.0, -0.00011278225545222339, 0.0, 4.973417004186535e-05]
[11.700000000000031, 0.5781337072849274, 5.700066089630127, -0.07405879348516464, 0.0, -0.00011549732976232359, 0.0, -0.00014084726637517446, 0.0, 0.00015021949146062203]
[11.750000000000032, 0.5778902186706661, 5.6996355056762695, -0.07283055782318115, 0.0, -5.267932863406696e-05, 0.0, -1.3771168426103702e-05, 0.0, 0.00013402733178805883]
[11.800000000000033, 0.5777427889108658, 5.699774265289307, -0.07286082953214645, 0.0, -3.9187120173743e-05, 0.0, -2.0930107713801892e-05, 0.0, 6.92898243645685e-05]
[11.850000000000033, 0.5777102465763688, 5.699799060821533, -0.07272399216890335, 0.0, -0.00012590459774860057, 0.0, 2.535967852502751e-05, 0.0, 0.0001158179353476287]
[11.900000000000034, 0.577673279415071, 5.700810432434082, -0.07243133336305618, 0.0, -7.762468195134751e-05, 0.0, -3.507010487555874e-05, 0.0, 0.00014953838194993162]
[11.950000000000035, 0.5773236769303679, 5.702367782592773, -0.07241741567850113, 0.0, -2.266896231731772e-05, 0.0, -4.682104888035239e-05, 0.0, 0.0001638674663274411]
[12.000000000000036, 0.5768809890076518, 5.70321798324585, -0.07248726487159729, 0.0, -6.650967904117855e-05, 0.0, -5.9052990150548164e-05, 0.0, 0.00020078955286528883]
[12.050000000000036, 0.5766562743365764, 5.704071521759033, -0.07427305728197098, 0.0, -0.00021232364812954316, 0.0, -2.987138893814613e-05, 0.0, 0.00020618553953454706]
[12.100000000000037, 0.5768064089521765, 5.704250335693359, -0.07481053471565247, 0.0, -0.00012573428148928507, 0.0, -8.507764686727928e-05, 0.0, 0.0001390899391062916]
[12.150000000000038, 0.5768736373364926, 5.7040228843688965, -0.07720055431127548, 0.0, -8.661996701117292e-05, 0.0, -9.827857774965007e-05, 0.0, 0.00015948792015667542]
[12.200000000000038, 0.5774612611368299, 5.704144477844238, -0.077961765229702, 0.0, -7.897240299540837e-05, 0.0, -7.544598604349658e-05, 0.0, 0.00013301842384370774]
[12.250000000000039, 0.5775936404898763, 5.704631328582764, -0.07927239686250687, 0.0, -4.785426287285919e-05, 0.0, 1.6918217494210812e-05, 0.0, 4.6361125434535126e-05]
[12.30000000000004, 0.5777432308539747, 5.706193923950195, -0.07864319533109665, 0.0, -0.0001276096982623189, 0.0, -2.6257628494336347e-05, 0.0, 3.355056452157733e-05]
[12.35000000000004, 0.57716431504637, 5.708951473236084, -0.07826080918312073, 0.0, -8.168552560775452e-05, 0.0, -2.9606776567977516e-05, 0.0, 0.00010250233782525711]
[12.400000000000041, 0.5763021163165569, 5.710331916809082, -0.07848552614450455, 0.0, -0.00010743997589815753, 0.0, -2.006091734301602e-05, 0.0, 8.10916087148997e-05]
[12.450000000000042, 0.5759616301104425, 5.712130069732666, -0.08026067167520523, 0.0, -4.9757846900408524e-05, 0.0, 7.910344140085773e-06, 0.0, 8.496784403778534e-05]
[12.500000000000043, 0.5758427684113383, 5.7129340171813965, -0.08108216524124146, 0.0, -5.429477421474772e-06, 0.0, -4.9695518965361425e-05, 0.0, 7.131259776972631e-05]
[12.550000000000043, 0.5757957211375236, 5.713586807250977, -0.08499372750520706, 0.0, -7.630895952236388e-05, 0.0, -1.5213030997581665e-05, 0.0, 0.00010368182072377576]
[12.600000000000044, 0.5764680706366897, 5.713808059692383, -0.08670256286859512, 0.0, -2.233402322172533e-05, 0.0, -4.04070588101161e-05, 0.0, 0.00011126813308420299]
[12.650000000000045, 0.5767798460170627, 5.713404178619385, -0.09025919437408447, 0.0, -0.00011037189565761611, 0.0, -4.059679351805968e-05, 0.0, 6.237957195767081e-05]
[12.700000000000045, 0.5776727639436722, 5.714914798736572, -0.0904185026884079, 0.0, -8.897547748424105e-05, 0.0, 1.0908082953411014e-05, 0.0, 5.8836511275562926e-05]
[12.750000000000046, 0.577281204405427, 5.717059135437012, -0.09088386595249176, 0.0, 4.060024281353338e-05, 0.0, -9.811856665251034e-05, 0.0, 7.55251556027502e-05]
[12.800000000000047, 0.5767777727097273, 5.717883586883545, -0.09056522697210312, 0.0, 7.34508348452595e-05, 0.0, -0.00013885713546747883, 0.0, 5.14140521312303e-05]
[12.850000000000048, 0.5764752481296658, 5.718650817871094, -0.09087906777858734, 0.0, -0.00012334328480632643, 0.0, -4.4616242800436475e-05, 0.0, 8.952265172025353e-05]
[12.900000000000048, 0.5763273899585009, 5.7189507484436035, -0.09093517810106277, 0.0, -8.543439382326111e-05, 0.0, -1.2706596269011415e-05, 0.0, 5.597155383770542e-05]
[12.950000000000049, 0.5762550077185035, 5.718793869018555, -0.09356077760457993, 0.0, -1.0746555937125521e-05, 0.0, -4.863484077059273e-05, 0.0, -1.9555875066297305e-05]
[13.00000000000005, 0.5768743010714651, 5.718933582305908, -0.09499863535165787, 0.0, 3.973800673900424e-06, 0.0, -3.3420210102613674e-05, 0.0, -2.191702378198816e-06]
[13.05000000000005, 0.5771497508570552, 5.7182488441467285, -0.09745455533266068, 0.0, -4.012088462301572e-05, 0.0, -5.848918855649255e-05, 0.0, 4.433965496635094e-05]
[13.100000000000051, 0.5778808989152312, 5.719363212585449, -0.09716564416885376, 0.0, 1.3640201683050504e-05, 0.0, -5.0882140997506014e-05, 0.0, -1.689344042740653e-07]
[13.150000000000052, 0.5775030411601066, 5.720739364624023, -0.09692412614822388, 0.0, -8.736473786362269e-05, 0.0, -4.462879184586409e-05, 0.0, -4.534805645225695e-05]
[13.200000000000053, 0.5770616609930992, 5.721457481384277, -0.09619859606027603, 0.0, -0.00010051952631247845, 0.0, -7.811813669221295e-06, 0.0, -5.158734648042734e-05]
[13.250000000000053, 0.576700045542419, 5.721940517425537, -0.09525972604751587, 0.0, -3.279239937197402e-05, 0.0, -3.8134289661718776e-05, 0.0, -7.148042498478642e-05]
[13.300000000000054, 0.5763580719351769, 5.722227573394775, -0.09523791074752808, 0.0, -0.00011746782345876162, 0.0, -3.690050615684709e-05, 0.0, -6.0436411922360454e-05]
[13.350000000000055, 0.5762722584843636, 5.721627235412598, -0.09668544679880142, 0.0, -2.4694907558349583e-05, 0.0, 4.681624542386798e-05, 0.0, -3.0430601922442003e-05]
[13.400000000000055, 0.5767587442919613, 5.721533298492432, -0.09706668555736542, 0.0, -2.2659119837020327e-05, 0.0, 4.522201429416536e-05, 0.0, 1.8796981619161028e-05]
[13.450000000000056, 0.5768687539726496, 5.720006942749023, -0.09950465708971024, 0.0, -1.6648061639706855e-05, 0.0, 6.648921232004592e-05, 0.0, -2.36870817275197e-05]
[13.500000000000057, 0.5778335599645972, 5.720904350280762, -0.0994083434343338, 0.0, -5.009946261918581e-06, 0.0, -7.468979985306406e-05, 0.0, -4.678281357166568e-05]
[13.550000000000058, 0.57755912912786, 5.721541881561279, -0.09844174236059189, 0.0, -9.378010939509605e-05, 0.0, -1.3391057782729176e-05, 0.0, -6.321399211195956e-06]
[13.600000000000058, 0.5771674684122204, 5.721941947937012, -0.09782779961824417, 0.0, -6.40167768447048e-05, 0.0, -0.00010889897789961721, 0.0, -1.9299770453544014e-05]
[13.650000000000059, 0.5769200762137772, 5.721323490142822, -0.09845423698425293, 0.0, 6.8069270247838136e-06, 0.0, -5.766397526198012e-05, 0.0, -6.549639718039634e-05]
[13.70000000000006, 0.5772318566322326, 5.721187114715576, -0.09887876361608505, 0.0, -1.1874341792248403e-05, 0.0, -5.306232594107848e-05, 0.0, -1.0452102688515253e-05]
[13.75000000000006, 0.5773633267477156, 5.719554901123047, -0.10000341385602951, 0.0, -1.1005445149986234e-05, 0.0, -4.93188135810384e-05, 0.0, 1.4835961066442321e-05]
[13.800000000000061, 0.5780703990474343, 5.719095706939697, -0.10022477060556412, 0.0, -3.6652533587743984e-05, 0.0, -3.630466615383285e-05, 0.0, -3.8100083160733146e-05]
[13.850000000000062, 0.578248506693542, 5.717134475708008, -0.09945328533649445, 0.0, -0.00020144201734551554, 0.0, -2.7782205723372825e-05, 0.0, 1.2309677189924925e-05]
[13.900000000000063, 0.5786332069963217, 5.717878341674805, -0.0983806625008583, 0.0, -9.741031157737187e-05, 0.0, -3.1534309252155098e-06, 0.0, 0.00010064682098580825]
[13.950000000000063, 0.5781883092328906, 5.718206405639648, -0.0949457511305809, 0.0, 2.7844124816967095e-05, 0.0, -4.0131960469861995e-05, 0.0, 0.0001517280854352951]
[14.000000000000064, 0.5773434511855244, 5.718519687652588, -0.09370798617601395, 0.0, -3.0080363640524478e-05, 0.0, -5.9106124965217895e-05, 0.0, 0.00015881021653986057]
[14.050000000000065, 0.5769839411482215, 5.717897415161133, -0.0927426889538765, 0.0, -1.2638411657847316e-05, 0.0, -4.6318257927131604e-05, 0.0, 0.0001825804276708552]
[14.100000000000065, 0.5769482085809112, 5.717732906341553, -0.09272179752588272, 0.0, 5.0581453745083074e-05, 0.0, -2.1628671713215568e-05, 0.0, 0.00019345348221416685]
[14.150000000000066, 0.576990074197948, 5.716526508331299, -0.09341645985841751, 0.0, -8.6066428331765e-05, 0.0, 1.806473055931492e-05, 0.0, 0.00014540584608299236]
[14.200000000000067, 0.5774827714070678, 5.716104030609131, -0.093595951795578, 0.0, -0.0001429529849573238, 0.0, 1.4669237591504792e-05, 0.0, 9.112043563067611e-05]
[14.250000000000068, 0.577641345602274, 5.714491367340088, -0.09361554682254791, 0.0, -2.2883848964039955e-05, 0.0, 7.076091842663807e-05, 0.0, 8.681440934611664e-06]
[14.300000000000068, 0.5781008917540312, 5.715447902679443, -0.09221262484788895, 0.0, -4.9447914329383686e-05, 0.0, -5.777030644571502e-06, 0.0, 9.86250513539185e-06]
[14.350000000000069, 0.5775236219152808, 5.716336727142334, -0.090476393699646, 0.0, 5.786723759249183e-06, 0.0, -6.210985638714394e-06, 0.0, 7.948893628921018e-05]
[14.40000000000007, 0.5768924721479416, 5.716753959655762, -0.08961278945207596, 0.0, -7.471301773909783e-05, 0.0, -7.415299542181638e-05, 0.0, 5.97669997714453e-05]
[14.45000000000007, 0.5765855580791831, 5.716854095458984, -0.08943196386098862, 0.0, -5.887970507010185e-05, 0.0, -4.3014582245783724e-05, 0.0, 0.0001786196053858103]
[14.500000000000071, 0.5765176889374851, 5.717140197753906, -0.0891130343079567, 0.0, -5.709644936739503e-05, 0.0, 0.00011071317107465788, 0.0, 0.00015239983301744485]
[14.550000000000072, 0.5763670766875149, 5.716989994049072, -0.0902547612786293, 0.0, 7.158648531494561e-06, 0.0, 3.342936740005589e-06, 0.0, 0.0001043556105696295]
[14.600000000000072, 0.5766595173999667, 5.717054843902588, -0.09047814458608627, 0.0, -2.417075780752018e-05, 0.0, 7.074144685212469e-05, 0.0, 0.00017010382815360985]
[14.650000000000073, 0.5766901312306524, 5.7165846824646, -0.091904416680336, 0.0, -1.372775551597749e-05, 0.0, 1.3898353314268928e-05, 0.0, 0.00022236668023599873]
[14.700000000000074, 0.5771352113932371, 5.71732759475708, -0.09189356118440628, 0.0, -1.4322724434998093e-05, 0.0, 9.922010801781053e-07, 0.0, 0.00018072566667601343]
[14.750000000000075, 0.5769231098994613, 5.717891693115234, -0.09146179258823395, 0.0, 8.145060297059949e-05, 0.0, -7.141794501766246e-06, 0.0, 0.00014195028515833836]
[14.800000000000075, 0.5766693076103926, 5.718082427978516, -0.09177980571985245, 0.0, 6.413649797317625e-05, 0.0, -5.71584053159957e-05, 0.0, 0.0001404314566030755]
[14.850000000000076, 0.5766851080343127, 5.717300891876221, -0.09192178398370743, 0.0, 5.5219609166491265e-05, 0.0, -0.00014913890873437252, 0.0, 0.00011463530242632941]
[14.900000000000077, 0.5769368289157748, 5.717997074127197, -0.092048279941082, 0.0, 0.00010399534327980783, 0.0, -6.494151941409703e-05, 0.0, 7.687246967355738e-05]
[14.950000000000077, 0.5767679992809891, 5.7179646492004395, -0.09263603389263153, 0.0, -6.4309122562532765e-06, 0.0, -5.132082048972163e-05, 0.0, 8.766561136649567e-05]
[15.000000000000078, 0.5769058709532022, 5.718101501464844, -0.09254183620214462, 0.0, -5.669468210777998e-05, 0.0, -1.602693222210561e-05, 0.0, 7.081124394761914e-06]
[15.050000000000079, 0.5768466082647443, 5.717288970947266, -0.09206615388393402, 0.0, -7.225621745316773e-05, 0.0, 7.609370386537959e-05, 0.0, -9.171428525618321e-05]
[15.10000000000008, 0.5769718112021684, 5.716975688934326, -0.09209878742694855, 0.0, -3.780789365332035e-05, 0.0, 0.00012415386105954786, 0.0, -0.00011531611664943668]
[15.15000000000008, 0.5770673974603414, 5.715563774108887, -0.09318207949399948, 0.0, -0.00010362070068763026, 0.0, -2.079115562536822e-06, 0.0, -0.00016808151245461592]
[15.200000000000081, 0.5777032219782471, 5.715202331542969, -0.09339549392461777, 0.0, -4.308993609714085e-05, 0.0, -5.379016810234079e-05, 0.0, -0.0001357116954121375]
[15.250000000000082, 0.5778519949749112, 5.713339805603027, -0.09275857359170914, 0.0, 6.736415529053773e-07, 0.0, -6.851084032783026e-06, 0.0, -0.00013942176758960603]
[15.300000000000082, 0.5782383004948497, 5.71363639831543, -0.09200436621904373, 0.0, -9.812666640107252e-05, 0.0, 5.116103263622667e-05, 0.0, -8.960670776212986e-05]
[15.350000000000083, 0.5779894009575247, 5.713594913482666, -0.09001828730106354, 0.0, -3.7179707041796195e-05, 0.0, 9.353292936801256e-05, 0.0, -5.926020626928708e-05]
[15.400000000000084, 0.5775661608427763, 5.713609218597412, -0.08875937759876251, 0.0, 1.1383302352986177e-05, 0.0, 3.4732554779506425e-05, 0.0, -6.010120676850503e-05]
[15.450000000000085, 0.5772864212840796, 5.712527275085449, -0.08823353052139282, 0.0, 2.4637535627119408e-05, 0.0, -4.431097374168932e-05, 0.0, -0.00011371274017007032]
[15.500000000000085, 0.5774766934275628, 5.7122802734375, -0.08792030811309814, 0.0, -3.427461308189702e-05, 0.0, 4.719981568356079e-06, 0.0, -5.942713578316559e-05]
[15.550000000000086, 0.5774778262853623, 5.710447311401367, -0.08755803108215332, 0.0, -5.2325992885589025e-05, 0.0, 8.618341765292444e-05, 0.0, -0.00010157615709785395]
[15.600000000000087, 0.5779159327983856, 5.709854602813721, -0.08698360621929169, 0.0, 2.0710685832028786e-05, 0.0, 2.568545765765852e-05, 0.0, -5.7235152847926586e-05]
[15.650000000000087, 0.5779574553877115, 5.708221912384033, -0.08559045195579529, 0.0, 2.9402159123070183e-05, 0.0, -1.5355780478875445e-05, 0.0, -7.4094383540066e-05]
[15.700000000000088, 0.5781132631123066, 5.7085466384887695, -0.08449728041887283, 0.0, -4.5962208135459596e-05, 0.0, -3.2750804686345095e-06, 0.0, -0.00014321491214535812]
[15.750000000000089, 0.5777821883663534, 5.708034515380859, -0.08093969523906708, 0.0, -3.412638314364657e-05, 0.0, 8.108393404260351e-05, 0.0, -3.751207778208265e-05]
[15.80000000000009, 0.5771476495653391, 5.707895278930664, -0.07977965474128723, 0.0, 2.7016971420482767e-05, 0.0, -2.2663034120151948e-05, 0.0, -7.527457566402655e-05]
[15.85000000000009, 0.5769329071462155, 5.706786632537842, -0.07812352478504181, 0.0, -8.075946815564629e-06, 0.0, -1.1177888778212273e-05, 0.0, -4.0713809500919335e-05]
[15.900000000000091, 0.5768831855624914, 5.706275463104248, -0.07811365276575089, 0.0, 4.083244900326316e-05, 0.0, 4.486476349822659e-05, 0.0, 2.0315696441932178e-05]
[15.950000000000092, 0.5770253267213702, 5.704214572906494, -0.0789189338684082, 0.0, -5.805457059305091e-05, 0.0, -3.604702573988991e-05, 0.0, 2.031582682014875e-05]
[16.000000000000092, 0.5777834725856782, 5.703298091888428, -0.07867339998483658, 0.0, -4.8568085110437e-05, 0.0, -2.3662841536033253e-05, 0.0, 1.2223160391258581e-05]
[16.050000000000093, 0.5779884232565761, 5.7006988525390625, -0.07768827676773071, 0.0, 3.6580433314861625e-05, 0.0, -2.7469028347006546e-05, 0.0, 4.6445323473328276e-05]
[16.100000000000094, 0.5785064465403558, 5.700979709625244, -0.0767478495836258, 0.0, 2.006833012162723e-05, 0.0, 3.0250035844379128e-05, 0.0, 0.00010612606532791531]
[16.150000000000095, 0.5782212070316076, 5.7009596824646, -0.07346311956644058, 0.0, -3.404300683454705e-05, 0.0, -6.299446881560071e-05, 0.0, 0.0001320892919950829]
[16.200000000000095, 0.577507504825294, 5.7010345458984375, -0.07192236930131912, 0.0, -1.7356517705283148e-05, 0.0, -3.8870762257604705e-06, 0.0, 0.00014102338508650014]
[16.250000000000096, 0.57714894656986, 5.700483798980713, -0.06861306726932526, 0.0, -6.50350373278218e-05, 0.0, 3.5273280924657606e-05, 0.0, 0.00014759711252258]
[16.300000000000097, 0.5765796852797269, 5.700233459472656, -0.06809202581644058, 0.0, 5.4350707154323264e-05, 0.0, 8.197586975189831e-05, 0.0, 8.758337668032322e-05]
[16.350000000000097, 0.5765362480446696, 5.698922157287598, -0.06784888356924057, 0.0, 8.583550348286026e-05, 0.0, 6.48085532971817e-05, 0.0, -8.201498366590543e-05]
[16.400000000000098, 0.5768531804993748, 5.698363780975342, -0.06814929842948914, 0.0, 0.00011814128111474553, 0.0, 3.7814518811320105e-05, 0.0, -6.465103024696684e-05]
[16.4500000000001, 0.5770766009867192, 5.69667387008667, -0.06850799173116684, 0.0, 4.512329554109928e-05, 0.0, 3.919242952076117e-05, 0.0, -1.727932321092534e-05]
[16.5000000000001, 0.5776322166636586, 5.6968092918396, -0.06825153529644012, 0.0, -3.890362274052412e-05, 0.0, 4.419579106251547e-05, 0.0, 3.902712105072434e-05]
[16.5500000000001, 0.5775378231436014, 5.6962385177612305, -0.06632044911384583, 0.0, -3.205608914436154e-05, 0.0, 3.9694387218816795e-05, 0.0, 8.859203707065452e-05]
[16.6000000000001, 0.577276044791937, 5.6957783699035645, -0.06593511998653412, 0.0, 0.00012308682506575214, 0.0, 0.0001311525552591576, 0.0, 0.0001649708321439093]
[16.6500000000001, 0.5773215574532747, 5.694295406341553, -0.06558819860219955, 0.0, -8.15629974891147e-05, 0.0, 0.00018750439412492227, 0.0, 0.00014017276769813766]
[16.700000000000102, 0.5776642222836613, 5.694031238555908, -0.0650227963924408, 0.0, -7.277020200875038e-05, 0.0, 0.00013343783600001566, 0.0, 0.00011337016438542732]
[16.750000000000103, 0.5776149737656117, 5.692794322967529, -0.06377780437469482, 0.0, -2.8142701775852452e-05, 0.0, 0.00014959379070219472, 0.0, 0.00013545786252920153]
[16.800000000000104, 0.5776915017843246, 5.692371368408203, -0.06334367394447327, 0.0, 2.102150051443171e-05, 0.0, 5.745354101523042e-05, 0.0, 0.00012703120194082208]
[16.850000000000104, 0.5777158272922039, 5.69076681137085, -0.061047010123729706, 0.0, 1.2543898839662934e-07, 0.0, 2.8738908867485397e-05, 0.0, 0.00016007372809782105]
[16.900000000000105, 0.5776658243671059, 5.69038200378418, -0.0597890205681324, 0.0, 4.855949832339201e-05, 0.0, 0.0001278478891168992, 0.0, 0.00022498297488482153]
[16.950000000000106, 0.5774989558361471, 5.688868045806885, -0.05825226753950119, 0.0, 4.6648908979589905e-05, 0.0, 0.00010028922258919228, 0.0, 0.00022447644779857094]
[17.000000000000107, 0.5775897972598671, 5.688404083251953, -0.05796307697892189, 0.0, -3.159192852858676e-05, 0.0, 0.00011004080644589678, 0.0, 0.0001848543342140967]
[17.050000000000107, 0.5776574411563575, 5.686630725860596, -0.05689714848995209, 0.0, 2.7492772487369702e-05, 0.0, 9.844728285242387e-05, 0.0, 0.00017305630851601795]
[17.100000000000108, 0.5779246216088533, 5.685990333557129, -0.056122541427612305, 0.0, -4.42834814744428e-05, 0.0, 9.118176331543409e-05, 0.0, 0.00016900683897247388]
[17.15000000000011, 0.5779357654094696, 5.684170246124268, -0.05525824427604675, 0.0, 1.1438462054527045e-05, 0.0, 8.864916246520272e-05, 0.0, 6.145061057615144e-05]
[17.20000000000011, 0.5782602950155735, 5.683501243591309, -0.054924171417951584, 0.0, -7.369728570032724e-05, 0.0, 7.69732779313784e-05, 0.0, 1.356844851951912e-05]
[17.25000000000011, 0.5783759924747051, 5.682307243347168, -0.053084515035152435, 0.0, -5.5784069750002e-06, 0.0, 9.74613102667179e-05, 0.0, -1.0031221533913951e-05]
[17.30000000000011, 0.5783101739957929, 5.68212890625, -0.05166211351752281, 0.0, -3.701807791281471e-05, 0.0, 3.8451130753590425e-05, 0.0, -6.414821349945672e-05]
[17.35000000000011, 0.5780490126259625, 5.681265830993652, -0.04850142076611519, 0.0, -3.656191837726181e-05, 0.0, 0.00011846364875353954, 0.0, -4.914538975292705e-05]
[17.400000000000112, 0.5776004670582713, 5.680922508239746, -0.04749291390180588, 0.0, 3.6633247443807496e-05, 0.0, 6.976850386124121e-05, 0.0, -3.430625590242272e-05]
[17.450000000000113, 0.5774765240684152, 5.6796746253967285, -0.046187516301870346, 0.0, -7.534145404731572e-06, 0.0, -7.74330784273985e-05, 0.0, -6.61702587856926e-05]
[17.500000000000114, 0.5775429193206131, 5.67924690246582, -0.04598412290215492, 0.0, -1.8447333367207726e-06, 0.0, 0.00010322873577765845, 0.0, -5.723551404439379e-05]
[17.550000000000114, 0.5776191223494709, 5.677730083465576, -0.044750064611434937, 0.0, 2.1212509694759393e-05, 0.0, 2.1378313631384238e-05, 0.0, 1.3571511624191901e-05]
[17.600000000000115, 0.5777770615875721, 5.677140235900879, -0.04430662840604782, 0.0, -7.939658055301858e-05, 0.0, -6.173090439311942e-06, 0.0, 9.668511304930181e-05]
[17.650000000000116, 0.5778464630261063, 5.675315856933594, -0.04380900412797928, 0.0, 4.492765835702353e-05, 0.0, 3.9831929204154225e-05, 0.0, 7.139765433743152e-05]
[17.700000000000117, 0.5782525054916741, 5.67500638961792, -0.04363902658224106, 0.0, -2.7671617172467012e-05, 0.0, 9.625781532456831e-05, 0.0, 9.523855719983222e-06]
[17.750000000000117, 0.578302643032372, 5.674254417419434, -0.04216872528195381, 0.0, -1.0186510115512001e-05, 0.0, 6.766260119865934e-05, 0.0, 3.885904872638e-05]
[17.800000000000118, 0.5781929287992418, 5.673973083496094, -0.04077756777405739, 0.0, 4.554383857400157e-05, 0.0, 5.816863005410396e-06, 0.0, 8.269224712226655e-05]
[17.85000000000012, 0.5779676858715713, 5.672905445098877, -0.03857652470469475, 0.0, -4.504710286097496e-05, 0.0, -1.3611409771743922e-05, 0.0, 3.700523863903818e-05]
[17.90000000000012, 0.5777870517589152, 5.672410011291504, -0.03756110742688179, 0.0, -7.397665591909194e-06, 0.0, -3.424537124356879e-06, 0.0, -8.623243717456778e-05]
