time, uz, alt, vel_alt, uthe, roll, uphi, pitch, upsi, yaw, F
[0.0, 0.0, 0.015477406792342663, 0.03368588164448738, 0.0, -0.0026466495635968272, 0.0, 0.01948968951284375, 0.0, -0.07592287355492812, array([[ 35.50120014]])]
[0.05, -35.50558729993378, 0.016398362815380096, 0.03431124985218048, 0.0, -0.0026274196407648593, 0.0, 0.019507859191840123, 0.0, -0.07592752753308883, array([[ 95.32013964]])]
[0.1, -95.32536692661296, 0.01712278090417385, 0.0340973325073719, 0.0, -0.002609401761301849, 0.0, 0.019496060778854123, 0.0, -0.07585562612821675, array([[ 209.90999053]])]
[0.15000000000000002, -209.91530647831203, 0.018366241827607155, 0.03351232782006264, 0.0, -0.0026003294115546937, 0.0, 0.019470798779225022, 0.0, -0.07585085581805974, array([[-371.56172324]])]
[0.2, 371.7900299698955, 0.019030077382922173, 0.034712452441453934, 0.0, -0.002531937794191213, 0.0, 0.01948420075578635, 0.0, -0.07590714692316067, array([[-3863.33602026]])]
[0.25, 3864.225626287411, 0.027500256896018982, 0.4882032573223114, 0.0, -0.0026434811993172025, 0.0, 0.018241915796634797, 0.0, -0.07524909439494423, array([[-12342.20574426]])]
[0.3, 12343.488656004427, 0.04950638860464096, 0.9498501420021057, 0.0, -0.0031327169729401553, 0.0, 0.012511077333805654, 0.0, -0.0709735646361451, array([[-3.2954914]])]
[0.35, 4.378795069606589, 0.14628921449184418, 1.9621460437774658, 0.0, -0.0025147593600968656, 0.0, 0.008049597683568914, 0.0, -0.05970830375730031, array([[ -3.25956376e-14]])]
[0.39999999999999997, 0.6833150288239448, 0.21562030911445618, 2.422234058380127, 0.0, -0.001842297003863296, 0.0, 0.005333732273108128, 0.0, -0.05177515301890664, array([[ -5.78221383e-24]])]
[0.44999999999999996, -0.03533797016739845, 0.4010446071624756, 2.8714332580566406, 0.0, -0.00022391636525523275, 0.0, 0.0029629266769981657, 0.0, -0.04133429009328308, array([[ -5.77748663e-36]])]
[0.49999999999999994, -0.3290605216920376, 0.4887387752532959, 2.6276021003723145, 0.0, 0.00040132986457799336, 0.0, 0.002079809143939349, 0.0, -0.03531889641019601, array([[ -4.61023968e-29]])]
[0.5499999999999999, 0.40979092741012574, 0.6443905830383301, 2.0017707347869873, 0.0, 0.0012437056161469036, 0.0, 0.0009426208433005799, 0.0, -0.026504158788059767, array([[ -9.86496943e-23]])]
[0.6, 1.1641325877904893, 0.7049378156661987, 1.824031114578247, 0.0, 0.0018635152109418224, 0.0, 0.0001440929805967132, 0.0, -0.020205922524638393, array([[ -2.05802315e-11]])]
[0.65, 2.350705697855072, 0.837424635887146, 2.3621747493743896, 0.0, 0.0020616423454210544, 0.0, -0.0001353823380220043, 0.0, -0.013768450674793804, array([[ -1.21538515e-14]])]
[0.7000000000000001, 2.552002067685139, 0.919360339641571, 2.8023533821105957, 0.0, 0.0019406572132788234, 0.0, 5.3698882239884954e-05, 0.0, -0.01097892494744118, array([[ -5.45483820e-34]])]
[0.7500000000000001, 1.6782690781950953, 1.1395792961120605, 3.710862398147583, 0.0, 0.0014057770681794928, 0.0, -2.086589679618284e-05, 0.0, -0.00876566202982811, array([[ -1.75867791e-64]])]
[0.8000000000000002, 1.1108665258884431, 1.2641937732696533, 4.11964225769043, 0.0, 0.001087593225671654, 0.0, 6.652190388364215e-05, 0.0, -0.007824968609654485, array([[ -5.42913215e-81]])]
[0.8500000000000002, -0.23882983279228212, 1.570383906364441, 4.8601837158203125, 0.0, 0.0006578735572085468, 0.0, 0.0001722040099174652, 0.0, -0.006470254870863258, array([[ -5.11407666e-97]])]
[0.9000000000000002, -0.6540109139680863, 1.7228657007217407, 4.671473026275635, 0.0, 0.0004906993562919314, 0.0, 0.0002623110137829113, 0.0, -0.005784682754782221, array([[ -6.26615376e-107]])]
[0.9500000000000003, -0.5284170014858247, 2.018364906311035, 4.037426471710205, 0.0, 0.00026620958091867455, 0.0, 0.0005529794868338487, 0.0, -0.004571346235422146, array([[ -3.54254258e-79]])]
[1.0000000000000002, -0.1292776064872742, 2.1424055099487305, 3.7301151752471924, 0.0, 0.00015883036979254432, 0.0, 0.0006895510378353363, 0.0, -0.0038473650692385946, array([[ -4.30613535e-67]])]
[1.0500000000000003, 0.7966373839378357, 2.37263822555542, 3.113412618637085, 0.0, -7.299752185921267e-05, 0.0, 0.0009998811617954028, 0.0, -0.019870919421097796, array([[ -2.27393518e-46]])]
[1.1000000000000003, 1.0875566465854645, 2.4722280502319336, 3.186310052871704, 0.0, -0.00017927915620807565, 0.0, 0.0011620326566312794, 0.0, -0.01859606962979844, array([[ -6.69760034e-49]])]
[1.1500000000000004, 0.9193820853233338, 2.706007957458496, 3.8403232097625732, 0.0, -0.00041879271436078805, 0.0, 0.0009085659973001553, 0.0, -0.015318444478394823, array([[ -2.14595813e-55]])]
[1.2000000000000004, 0.4014420804977417, 2.8339083194732666, 4.175091743469238, 0.0, -0.00024883213443737453, 0.0, 0.0006898445379018402, 0.0, -0.013189195558471646, array([[ -1.24539990e-87]])]
[1.2500000000000004, -0.8632428185939789, 3.1243014335632324, 4.19513463973999, 0.0, -7.57129833189903e-05, 0.0, 0.0006018100804853767, 0.0, -0.009697376887100043, array([[ -6.67632862e-90]])]
[1.3000000000000005, -1.3206068916320801, 3.2539315223693848, 3.9186599254608154, 0.0, -0.00014650600009592131, 0.0, 0.0005395337640199068, 0.0, -0.007434170505114964, array([[ -8.68371781e-79]])]
[1.3500000000000005, -1.488572470188141, 3.497652053833008, 3.2727901935577393, 0.0, -0.000166818433563533, 0.0, 0.00041228393394201606, 0.0, -0.004056081215897407, array([[ -6.76735685e-70]])]
[1.4000000000000006, -1.3623408493995668, 3.597165584564209, 2.965902805328369, 0.0, -0.0001967314628723826, 0.0, 0.00041362069761557795, 0.0, -0.0019009481890615713, array([[ -5.28279081e-47]])]
[1.4500000000000006, -0.5410127522945405, 3.6753289699554443, 2.3115882873535156, 0.0, -0.00025545958739309774, 0.0, 0.00039389560701902495, 0.0, 0.00022004052432031643, array([[ -6.78813667e-40]])]
[1.5000000000000007, -0.23781438624858856, 3.8413219451904297, 2.003740072250366, 0.0, -0.0002092608185298456, 0.0, 0.00045497462565012396, 0.0, 0.003272150832110653, array([[ -1.64034623e-24]])]
[1.5500000000000007, 0.2765976837873459, 3.9531924724578857, 1.3642457723617554, 0.0, -0.0002479021933801022, 0.0, 0.0005763400092349576, 0.0, 0.00609167496652764, array([[ -4.96320040e-15]])]
[1.6000000000000008, 0.3376547404527714, 3.9921510219573975, 1.1319316625595093, 0.0, -0.00016739300664455657, 0.0, 0.0006695787884629569, 0.0, 0.007863976095835237, array([[ -1.80920619e-12]])]
[1.6500000000000008, 0.592847453596017, 4.053110599517822, 0.7414324879646301, 0.0, 0.00023451616533211601, 0.0, 0.0006195674058049561, 0.0, 0.009660673499830793, array([[ -6.97625980e-10]])]
[1.7000000000000008, 0.47677019534732235, 4.07589864730835, 0.724736213684082, 0.0, 0.0005232429671494233, 0.0, 0.0005712122321927132, 0.0, 0.01019501055013504, array([[ -9.01907168e-10]])]
[1.7500000000000009, 0.34819827071616, 4.122708797454834, 0.6325961351394653, 0.0, 0.0006218963155372413, 0.0, 0.000495938850170794, 0.0, 0.010016395415254987, array([[ -4.73520094e-10]])]
[1.800000000000001, 0.011719446955656932, 4.140484809875488, 0.48647940158843994, 0.0, 0.0005850385282107451, 0.0, 0.0004667021713449209, 0.0, 0.009279220385524499, array([[ -3.90543968e-09]])]
[1.850000000000001, 0.028212898404741584, 4.1559977531433105, -0.05240883678197861, 0.0, 0.0003955454676270634, 0.0, 0.0004897181841138999, 0.0, 0.007776210345474899, array([[ -6.06690594e-09]])]
[1.900000000000001, 0.21334114316877972, 4.149124622344971, -0.3520241677761078, 0.0, 0.0003288605289823281, 0.0, 0.0004973008332438926, 0.0, 0.006809171441486598, array([[ -2.42202581e-10]])]
[1.950000000000001, 0.947517097894161, 4.10502815246582, -0.8055293560028076, 0.0, 9.058368481498435e-05, 0.0, 0.0004833568792173437, 0.0, 0.005340624184619362, array([[ -3.36777896e-12]])]
[2.000000000000001, 1.1380288752351106, 4.083651065826416, -0.46748870611190796, 0.0, -3.9555089164661965e-05, 0.0, 0.0004562585868995299, 0.0, 0.004305294955291919, array([[ -1.12301620e-10]])]
[2.0500000000000007, 0.757277966492421, 4.085886001586914, 0.5569459199905396, 0.0, -3.481656493890046e-05, 0.0, 0.00044382345319331353, 0.0, 0.003155696701463098, array([[ -8.31971222e-09]])]
[2.1000000000000005, 0.19618931444475704, 4.107980728149414, 0.8360352516174316, 0.0, -1.3192527648605528e-05, 0.0, 0.00037404973163197467, 0.0, 0.0026367051156320365, array([[ -1.00563347e-10]])]
[2.1500000000000004, -0.6697061891127574, 4.1618971824646, 0.6111273169517517, 0.0, -0.00016336154121819794, 0.0, 0.0002942637037309222, 0.0, 0.0020575854585395486, array([[ -5.64776109e-10]])]
[2.2, -0.5659093175247091, 4.176565170288086, 0.3219497501850128, 0.0, -0.00020719051305943177, 0.0, 0.0003169641915516347, 0.0, 0.0018175081559916473, array([[ -4.79683992e-09]])]
[2.25, 0.03747860285506366, 4.174590110778809, -0.32494765520095825, 0.0, -0.0003571010530839209, 0.0, 0.00030254656189452223, 0.0, 0.0013533657383564544, array([[ -1.37595717e-10]])]
[2.3, 1.0266412106181888, 4.158586502075195, -0.6268543004989624, 0.0, -0.0004318739538474965, 0.0, 0.00040458489959633974, 0.0, 0.001055438318302846, array([[ -1.93489788e-12]])]
[2.3499999999999996, 1.4526303039212505, 4.1138176918029785, -0.27435579895973206, 0.0, -0.00046750602178066323, 0.0, 0.0004942824390048265, 0.0, 0.0007182353879623945, array([[ -5.94061545e-10]])]
[2.3999999999999995, 1.071654257384938, 4.112577438354492, 0.24682322144508362, 0.0, -0.00025271657265020747, 0.0, 0.000443703700694409, 0.0, 0.0006055941648390402, array([[ -1.35467925e-08]])]
[2.4499999999999993, 0.1181915986703315, 4.164464473724365, 1.1903234720230103, 0.0, -0.0003620017945461633, 0.0, 0.0003333345828973431, 0.0, 0.00046684247313085077, array([[ -2.92469644e-10]])]
[2.499999999999999, -0.5825212293546305, 4.200043201446533, 1.0375539064407349, 0.0, -0.0002947720246644897, 0.0, 0.0005283818642310573, 0.0, 0.00041321413900858147, array([[ -5.61749160e-13]])]
[2.549999999999999, -1.301010462909375, 4.249302864074707, 0.4345788359642029, 0.0, -9.600684593047743e-05, 0.0, 0.0007683526040117997, 0.0, 0.0002497253542213567, array([[ -5.38356646e-10]])]
[2.5999999999999988, -1.0665506697277947, 4.257655620574951, 0.12880408763885498, 0.0, 6.717216870510724e-05, 0.0, 0.001000327456077077, 0.0, 0.00015142509199928114, array([[ -1.45160428e-09]])]
[2.6499999999999986, 0.20663844102495185, 4.241765975952148, -0.5180410146713257, 0.0, 0.00027234149928490037, 0.0, 0.0012809102079104156, 0.0, 7.435288964830599e-05, array([[ -2.26865448e-12]])]
[2.6999999999999984, 0.8607974412314929, 4.219895839691162, -0.7792250514030457, 0.0, 0.0004327266718137579, 0.0, 0.001483148270124086, 0.0, -7.840943526337335e-05, array([[ -2.48426977e-14]])]
[2.7499999999999982, 1.785635511830474, 4.165637493133545, -0.48577460646629333, 0.0, 0.0003706122996140898, 0.0, 0.0013663852648829113, 0.0, -0.0001395900753596633, array([[ -3.03359512e-15]])]
[2.799999999999998, 1.6069621222019228, 4.156905651092529, 0.01421018224209547, 0.0, 0.00015479464153489612, 0.0, 0.0010031209093600277, 0.0, -0.00022026610659079402, array([[ -4.27332177e-09]])]
[2.849999999999998, 0.3984892373210232, 4.192940711975098, 0.47233301401138306, 0.0, 0.0001867263495688971, 0.0, 0.0006897813482862464, 0.0, -0.00010327967404610857, array([[ -1.30052977e-09]])]
[2.8999999999999977, -0.36594613365043593, 4.2249321937561035, 1.0046334266662598, 0.0, 8.496044823426842e-06, 0.0, 0.0004523272655510032, 0.0, -9.255255935174621e-05, array([[ -6.63826174e-13]])]
[2.9499999999999975, -1.3648576034747877, 4.278313636779785, 0.5285051465034485, 0.0, -0.0001262361994298225, 0.0, 0.0002847797416629774, 0.0, -0.00011465740454256519, array([[ -1.43375922e-10]])]
[2.9999999999999973, -1.2159294993635745, 4.289769649505615, 0.22590303421020508, 0.0, -0.00012390469772170955, 0.0, 0.0003286691577422444, 0.0, -0.0001750983657110771, array([[ -8.08553159e-10]])]
[3.049999999999997, -0.13923214444501572, 4.280576705932617, -0.4249436855316162, 0.0, -0.00015799181270721935, 0.0, 0.0004272396466559756, 0.0, -0.00024819439718944933, array([[ -4.53444554e-12]])]
[3.099999999999997, 0.6950349766135858, 4.261063098907471, -0.7321638464927673, 0.0, -0.00011845513740743319, 0.0, 0.0004937108210787149, 0.0, -0.00029977763078734574, array([[ -3.34863089e-14]])]
[3.149999999999997, 1.6808987368345598, 4.2026872634887695, -0.7447956204414368, 0.0, -8.062930002924867e-05, 0.0, 0.0005811251791566062, 0.0, -0.0003130902213989692, array([[ -9.19267827e-16]])]
[3.1999999999999966, 1.6813371830657133, 4.184500694274902, -0.31522491574287415, 0.0, -0.0001168059778322175, 0.0, 0.0005137625494000022, 0.0, -0.0003449598159659482, array([[ -1.48915538e-10]])]
[3.2499999999999964, 0.7024005157648556, 4.181357383728027, 0.1378551572561264, 0.0, -9.567103665225034e-05, 0.0, 0.000437871070475299, 0.0, -0.0003127505645444443, array([[ -1.90029950e-09]])]
[3.2999999999999963, 0.01206563643778771, 4.226955890655518, 0.9998377561569214, 0.0, -0.0001280915645239532, 0.0, 0.00044919778881999655, 0.0, -0.0003568439759999494, array([[ -6.05745831e-13]])]
[3.349999999999996, -1.2214869895794893, 4.286216735839844, 0.6348824501037598, 0.0, -0.00012135575914527796, 0.0, 0.000376361324407538, 0.0, -0.0003719266301459879, array([[ -3.49116040e-11]])]
[3.399999999999996, -1.0513198811882307, 4.301089763641357, 0.3342975080013275, 0.0, -4.03505041693406e-05, 0.0, 0.00029062514953277833, 0.0, -0.0003595184683620357, array([[ -4.61320253e-10]])]
[3.4499999999999957, -0.2882750106534559, 4.300386905670166, -0.3164481818675995, 0.0, -3.402501795038085e-05, 0.0, 0.00029065024541417275, 0.0, -0.00028668779912131745, array([[ -1.12684658e-11]])]
[3.4999999999999956, 0.3678489363306197, 4.284643650054932, -0.6238528490066528, 0.0, 3.1587966594626355e-05, 0.0, 0.0002224759245589328, 0.0, -0.0003234313907757007, array([[ -1.94047325e-13]])]
[3.5499999999999954, 1.4407849738301788, 4.222194671630859, -1.032579779624939, 0.0, 5.733174503857035e-05, 0.0, 0.0003782626032820681, 0.0, -0.00022766642574542634, array([[ -1.07566877e-17]])]
[3.599999999999995, 1.6194254484400155, 4.1936845779418945, -0.6515239477157593, 0.0, 0.0001621243049021283, 0.0, 0.0003010829577456612, 0.0, -0.0002708112336630425, array([[ -4.25748906e-13]])]
[3.649999999999995, 1.003353849828669, 4.1806817054748535, -0.2085941880941391, 0.0, -9.223274517863898e-05, 0.0, 0.000294231602075397, 0.0, -0.0003001834142211818, array([[ -1.92443406e-10]])]
[3.699999999999995, 0.32782529680676253, 4.206038951873779, 0.9582687616348267, 0.0, -6.689106056502637e-07, 0.0, 0.00026347281209185145, 0.0, -0.00034535135274085127, array([[ -1.54987511e-12]])]
[3.7499999999999947, -1.212027994117081, 4.279708385467529, 1.0246325731277466, 0.0, -8.936423562881067e-05, 0.0, 0.0003678112561936398, 0.0, -0.00044668871649684, array([[ -4.44513471e-15]])]
[3.7999999999999945, -1.7021879251413006, 4.307551383972168, 0.7537485361099243, 0.0, -0.00020337318449418912, 0.0, 0.00037816965102116913, 0.0, -0.0005286442032662604, array([[ -9.20780986e-12]])]
[3.8499999999999943, -1.087976155461849, 4.3243937492370605, 0.4913834035396576, 0.0, -0.00030848663443968955, 0.0, 0.0005065407772004405, 0.0, -0.0005529605079787326, array([[ -4.46569683e-11]])]
[3.899999999999994, -0.3500998338714009, 4.333755970001221, -0.19662907719612122, 0.0, -0.0005183897788431568, 0.0, 0.0007739997875377666, 0.0, -0.0004635630885015893, array([[ -4.16461870e-11]])]
[3.949999999999994, 1.1217388442128127, 4.297544956207275, -0.7386593818664551, 0.0, -0.0005912775257954983, 0.0, 0.0009656635534767026, 0.0, -0.000532515976876975, array([[ -4.22853645e-15]])]
[3.999999999999994, 1.4104231838844759, 4.278696060180664, -0.3678419888019562, 0.0, -0.000546376725427751, 0.0, 0.0011285361550606914, 0.0, -0.0005661720049243571, array([[ -1.23362180e-11]])]
[4.049999999999994, 0.9795655954789798, 4.289856433868408, 0.7213889956474304, 0.0, -0.0004254156592233386, 0.0, 0.0006502230290730544, 0.0, -0.000577465856616038, array([[ -5.49156684e-12]])]
[4.099999999999993, 0.3038092271367987, 4.320291519165039, 1.2063877582550049, 0.0, -0.0003626599748901883, 0.0, 0.0006932089571258973, 0.0, -0.000451012704028999, array([[ -9.35620907e-16]])]
[4.149999999999993, -1.1990959323793642, 4.358086109161377, 1.4502800703048706, 0.0, -0.00012341420074802814, 0.0, 0.0007664344537157289, 0.0, -0.00044065046776579724, array([[ -1.57379547e-19]])]
[4.199999999999993, -1.7924840267561377, 4.449513912200928, 1.0046442747116089, 0.0, -9.042903554232078e-06, 0.0, 0.0005260397680720946, 0.0, -0.0004379924286829958, array([[ -1.13907361e-14]])]
[4.249999999999993, -1.2948820909708625, 4.494069576263428, 0.358896404504776, 0.0, 0.00014179774827646592, 0.0, 0.0004186955521532758, 0.0, -0.0004050858242358477, array([[ -1.69222409e-13]])]
[4.299999999999993, -0.5222023234216667, 4.499775409698486, 0.05231117829680443, 0.0, 0.00024396232964130464, 0.0, 0.00040084932060131296, 0.0, -0.0005101808711727808, array([[ -1.25075448e-11]])]
[4.3499999999999925, 0.7357815251959766, 4.479367256164551, -0.5336483716964722, 0.0, 0.00031109952048989674, 0.0, 0.00042156386427575515, 0.0, -0.0005636063963046876, array([[ -4.41873289e-13]])]
[4.399999999999992, 1.2719047073614547, 4.4623003005981445, -0.4472428262233734, 0.0, 0.00036633577072398194, 0.0, 0.0004910116932418013, 0.0, -0.0005761417691820056, array([[ -1.68075198e-13]])]
[4.449999999999992, 1.2983319370413018, 4.452524662017822, 0.3749949336051941, 0.0, 0.00015713303243480717, 0.0, 0.00039549355973945305, 0.0, -0.000646417305705483, array([[ -5.32449851e-13]])]
[4.499999999999992, 0.7692059947257598, 4.472016334533691, 0.8869866132736206, 0.0, 0.00021770433130307773, 0.0, 0.000260498121845748, 0.0, -0.0007000308108767557, array([[ -5.82632791e-14]])]
[4.549999999999992, -0.7176618919781758, 4.559028625488281, 1.507802963256836, 0.0, -0.00014475152106158763, 0.0, 0.00023052588084108608, 0.0, -0.0005916741118118242, array([[ -5.76074913e-19]])]
[4.599999999999992, -1.4626633688136936, 4.6033525466918945, 1.2775295972824097, 0.0, -0.0002627161801545926, 0.0, 0.00023948384257779638, 0.0, -0.0005807307550182979, array([[ -1.16735303e-18]])]
[4.6499999999999915, -1.7010101509485394, 4.664992809295654, 0.6406833529472351, 0.0, -0.00036300041351172854, 0.0, 0.000518399386112574, 0.0, -0.0005716053496318615, array([[ -1.03919034e-17]])]
[4.699999999999991, -1.2633057971578094, 4.678811073303223, 0.3337917625904083, 0.0, -0.00047652597760391253, 0.0, 0.0006700282877484885, 0.0, -0.0005347503109438598, array([[ -5.03173942e-13]])]
[4.749999999999991, -0.01954552271353055, 4.682736873626709, 0.06505133956670761, 0.0, -0.0005214555872474433, 0.0, 0.0009722345676454735, 0.0, -0.00040840360530267495, array([[  1.99986209e-14]])]
[4.799999999999991, 0.7994670091252575, 4.659301280975342, -0.6248840689659119, 0.0, -0.0006199203992059715, 0.0, 0.0013982332744812197, 0.0, -0.0004038631341481463, array([[ -1.98011752e-16]])]
[4.849999999999991, 1.6094341394249354, 4.637991905212402, -0.7288276553153992, 0.0, -0.0007224653292328944, 0.0, 0.00176573561004357, 0.0, -0.0003674841677903493, array([[  3.46942936e-18]])]
[4.899999999999991, 1.427622148089111, 4.604349613189697, 0.05943187698721886, 0.0, -0.0003867814692192538, 0.0, 0.001177643545176965, 0.0, -0.0004060176726301275, array([[ -1.42733596e-12]])]
[4.94999999999999, 0.19841553119153957, 4.611176490783691, 0.5109983086585999, 0.0, -0.000497197331738317, 0.0, 0.000723935267626358, 0.0, -0.000397371904776705, array([[  1.17019928e-13]])]
[4.99999999999999, -0.4910677644667455, 4.674979209899902, 0.9828543663024902, 0.0, -0.0001258282084767672, 0.0, 0.0006959309941822065, 0.0, -0.00045067788824190415, array([[ -2.29472195e-16]])]
[5.04999999999999, -1.3239949619360267, 4.720315456390381, 0.39293742179870605, 0.0, 0.00015014035235024804, 0.0, 0.0007560704643228135, 0.0, -0.00045344336984778796, array([[  5.55922910e-14]])]
[5.09999999999999, -1.101886074451785, 4.727051734924316, 0.08796953409910202, 0.0, 0.00029371720823204893, 0.0, 0.00076424585828617, 0.0, -0.0004014629718520846, array([[ -1.58759391e-13]])]
[5.14999999999999, 0.04040518053171269, 4.709015369415283, -0.5631450414657593, 0.0, 0.00045125458454159736, 0.0, 0.0009765207505561964, 0.0, -0.0002993594976006464, array([[  1.79705580e-14]])]
[5.1999999999999895, 0.6961278569623649, 4.68543815612793, -0.8647717833518982, 0.0, 0.0006340004745901017, 0.0, 0.0012364432884786984, 0.0, -0.00022012039858623273, array([[ -3.31789991e-19]])]
[5.249999999999989, 1.7478133506607265, 4.613040447235107, -1.0252491235733032, 0.0, 0.0006742043811294405, 0.0, 0.0012813778915964455, 0.0, -0.00018644721296393356, array([[  5.34197685e-22]])]
[5.299999999999989, 1.773314689807594, 4.585816860198975, -0.6083792448043823, 0.0, 0.00042358890200438646, 0.0, 0.0009080497347160976, 0.0, -0.00015145206250993608, array([[ -5.05616483e-16]])]
[5.349999999999989, 0.8718146966993815, 4.579931735992432, 0.4602038860321045, 0.0, 9.893500843847349e-05, 0.0, 0.0006457003099751124, 0.0, -0.00013306781410476687, array([[  7.14359785e-13]])]
[5.399999999999989, -0.44996293953877603, 4.600590705871582, 0.8437851667404175, 0.0, 0.00010320745638633659, 0.0, 0.0004420270401089275, 0.0, -0.0001098118741161038, array([[ -5.06941128e-15]])]
[5.449999999999989, -1.1818884649313937, 4.627196788787842, 1.014736533164978, 0.0, 0.00011954724674996485, 0.0, 0.00033067590808978317, 0.0, -0.0001349344396515915, array([[  2.17253162e-16]])]
[5.4999999999999885, -1.6248717976342888, 4.680253982543945, 0.4286852180957794, 0.0, -7.346576103571329e-05, 0.0, 0.0003363850640061555, 0.0, -0.00028416640002810166, array([[ -1.00165072e-13]])]
[5.549999999999988, -0.825362978067149, 4.687982082366943, 0.16219377517700195, 0.0, -0.00020293472298567273, 0.0, 0.0005130184868639049, 0.0, -0.0004118267831689506, array([[  3.59813275e-13]])]
[5.599999999999988, -0.010507719053315327, 4.67366886138916, -0.5271530151367188, 0.0, -0.0003105346032412367, 0.0, 0.0008201958441616789, 0.0, -0.0004611295977709695, array([[ -2.61834589e-16]])]
[5.649999999999988, 1.3223419134523722, 4.616539478302002, -0.9394125938415527, 0.0, -0.0004030053892910103, 0.0, 0.0012157144819382295, 0.0, -0.0006011748546831961, array([[  3.85295158e-18]])]
[5.699999999999988, 1.7285542789194734, 4.5923566818237305, -0.5122746229171753, 0.0, -0.0004117765106164837, 0.0, 0.0013557600318218127, 0.0, -0.0006661152311258867, array([[ -8.81343012e-16]])]
[5.749999999999988, 1.1646044826321313, 4.59323263168335, 0.5799692869186401, 0.0, -0.00020576348928119263, 0.0, 0.0005906866507820166, 0.0, -0.0006818282351166677, array([[  3.49376462e-13]])]
[5.799999999999987, 0.38643303578125765, 4.619368076324463, 1.0857809782028198, 0.0, -0.0002934804103428088, 0.0, 0.0006537212236805927, 0.0, -0.0006336473970621077, array([[ -6.02398708e-18]])]
[5.849999999999987, -1.137372700938955, 4.709278106689453, 1.3387304544448853, 0.0, -0.0002826025294707749, 0.0, 0.000269913307696462, 0.0, -0.0005589053453653335, array([[  7.65382437e-20]])]
[5.899999999999987, -1.8140248470641673, 4.746946334838867, 1.0693085193634033, 0.0, -0.00011507249300914605, 0.0, 0.000158895843781542, 0.0, -0.0004934644430683035, array([[  2.41993564e-19]])]
[5.949999999999987, -1.4982720286529512, 4.795523643493652, 0.42577072978019714, 0.0, 9.233380838618587e-05, 0.0, 0.0001935053429259837, 0.0, -0.0004905803816809286, array([[  1.24719905e-15]])]
[5.999999999999987, -0.779815214607866, 4.803219795227051, 0.11924681812524796, 0.0, 0.00027355343471319426, 0.0, 0.0002775732750886659, 0.0, -0.0004177215979521108, array([[  6.67045639e-15]])]
[6.0499999999999865, 0.47722931362129084, 4.787170886993408, -0.5010303854942322, 0.0, 0.0005453723854335549, 0.0, 0.0004735552084412541, 0.0, -0.0003014737188471265, array([[  1.84401585e-14]])]
[6.099999999999986, 1.1337197881452554, 4.768061637878418, -0.6232298016548157, 0.0, 0.0006815068365422646, 0.0, 0.0005745211753948606, 0.0, -0.00017968699713372992, array([[  5.49179039e-18]])]
[6.149999999999986, 1.4825721936617047, 4.741586685180664, 0.12075091153383255, 0.0, 0.00043770556470799975, 0.0, 0.0004207097467884515, 0.0, -5.1748548857795936e-05, array([[  7.05078588e-16]])]
[6.199999999999986, 1.0328826224766665, 4.752805709838867, 0.6351653933525085, 0.0, 0.00014513662949466167, 0.0, 0.0003273408342285468, 0.0, -3.175496840634518e-05, array([[  4.29541035e-15]])]
[6.249999999999986, -0.48046175253857365, 4.829557418823242, 1.4603606462478638, 0.0, 0.00015510829560828437, 0.0, 0.00020596758893689116, 0.0, -0.0001369612803766075, array([[  9.47730485e-18]])]
[6.299999999999986, -1.231451065765694, 4.8725385665893555, 1.2362984418869019, 0.0, 8.298950809545418e-05, 0.0, 8.658971917232467e-05, 0.0, -0.0001671508036018045, array([[  1.11984457e-20]])]
[6.349999999999985, -1.6953751465994866, 4.933899402618408, 0.6008042097091675, 0.0, -1.903266193214208e-05, 0.0, 0.00011807348756145882, 0.0, -0.0002313873151268024, array([[  8.28701230e-18]])]
[6.399999999999985, -1.319948961770162, 4.947587966918945, 0.2948230504989624, 0.0, -4.981782666554672e-05, 0.0, 0.0002692074511307031, 0.0, -0.0002647731998361425, array([[  2.24688423e-15]])]
[6.449999999999985, -0.018155003506692517, 4.951503753662109, 0.02666216343641281, 0.0, -8.446449141104305e-05, 0.0, 0.0005230396365897946, 0.0, -0.0002985060606054741, array([[  5.30183106e-15]])]
[6.499999999999985, 0.7436404059193975, 4.927327632904053, -0.6629424691200256, 0.0, -0.00012792007755950185, 0.0, 0.0008200098028635916, 0.0, -0.00031185484909725504, array([[  4.41265610e-19]])]
[6.549999999999985, 1.6265139859057964, 4.88052225112915, -0.4595249593257904, 0.0, -9.952670150707684e-05, 0.0, 0.0010558511153894072, 0.0, -0.0003791213480794276, array([[  1.33805301e-16]])]
[6.5999999999999845, 1.4570957336649297, 4.873195171356201, 0.027997948229312897, 0.0, -0.00012693025255710534, 0.0, 0.0006864010940059244, 0.0, -0.0003924307403891224, array([[  9.01867419e-15]])]
[6.649999999999984, 0.25180566885321437, 4.9104204177856445, 0.9855419397354126, 0.0, -0.00020792020005394178, 0.0, 0.00035137951841530604, 0.0, -0.0002740753298935238, array([[  7.69716797e-18]])]
[6.699999999999984, -0.43731595376506455, 4.94070291519165, 0.8987261056900024, 0.0, -0.0002388216203662663, 0.0, 0.0002816151496578371, 0.0, -0.0002678346950276458, array([[  9.83661878e-18]])]
[6.749999999999984, -1.321810695681721, 4.962920188903809, 0.7045882940292358, 0.0, -0.00025181522742499595, 0.0, 0.00014732576002964685, 0.0, -0.0002959737101098934, array([[  2.95671924e-16]])]
[6.799999999999984, -1.229943374672905, 4.988869667053223, 0.03464032709598541, 0.0, -0.00019136123389065223, 0.0, 8.408989494204704e-05, 0.0, -0.00026865204984121327, array([[  1.51204475e-15]])]
[6.849999999999984, -0.2950479545537397, 4.967921257019043, -0.6162890791893005, 0.0, -0.00017659886956252654, 0.0, 0.00015527870010598893, 0.0, -0.00023173707729706098, array([[  6.89667284e-16]])]
[6.8999999999999835, 0.5288216892797494, 4.942780494689941, -0.9230160713195801, 0.0, -0.00012333560877978895, 0.0, 0.0002444611282219619, 0.0, -0.0001870627838448728, array([[  9.87385822e-22]])]
[6.949999999999983, 1.643841130822897, 4.866591453552246, -1.136094331741333, 0.0, -9.910434807020698e-05, 0.0, 0.0004718462541730124, 0.0, -0.00014745305314195633, array([[  1.48346405e-23]])]
[6.999999999999983, 1.745703367797658, 4.835686683654785, -0.7302501201629639, 0.0, -9.26280879816874e-05, 0.0, 0.00028833643569410947, 0.0, -0.00017492277052259336, array([[  9.18185977e-19]])]
[7.049999999999983, 1.0024610195290298, 4.821694850921631, 0.353590190410614, 0.0, -0.00010886648534940594, 0.0, 0.00021153929442290544, 0.0, -0.00016261405189627048, array([[  7.27293623e-14]])]
[7.099999999999983, 0.33177838065467957, 4.840775489807129, 0.8656372427940369, 0.0, -0.00021553213159416948, 0.0, -9.490004065897792e-05, 0.0, -0.00019175792833242265, array([[  1.47044846e-16]])]
[7.149999999999983, -1.1951746327690784, 4.916168689727783, 1.0953235626220703, 0.0, -2.0870926158502675e-05, 0.0, 0.00014196415023063198, 0.0, -0.00032478508510158156, array([[  8.55350026e-19]])]
[7.199999999999982, -1.8523736131656916, 4.946786880493164, 0.8281875252723694, 0.0, 7.871090238827947e-05, 0.0, 0.000171419987714795, 0.0, -0.0002905536180054981, array([[  4.50958465e-17]])]
[7.249999999999982, -1.4711857963260264, 4.98053503036499, 0.5666897296905518, 0.0, 0.00010768925619548732, 0.0, 0.00038840850097134874, 0.0, -0.00030335209194895074, array([[  1.54198180e-15]])]
[7.299999999999982, -0.6889432236384616, 4.98123025894165, -0.12060204148292542, 0.0, 0.0001875209430797751, 0.0, 0.0006296991469140344, 0.0, -0.00027330543304818824, array([[  1.04063097e-15]])]
[7.349999999999982, 0.572274453599005, 4.973672866821289, -0.38886165618896484, 0.0, 0.0002884998095284456, 0.0, 0.0010148838531362427, 0.0, -0.00026242850549558765, array([[  1.05538172e-16]])]
[7.399999999999982, 1.227330599281937, 4.926408767700195, -0.7483236789703369, 0.0, 0.00037647479662312496, 0.0, 0.0014293695661982155, 0.0, -0.00028287353006095173, array([[  1.63722600e-19]])]
[7.4499999999999815, 1.401087523818016, 4.898866653442383, 0.10999114066362381, 0.0, 0.0001631926844986303, 0.0, 0.0008519567462389891, 0.0, -0.0003828767670254811, array([[  2.68203893e-14]])]
[7.499999999999981, 0.9446957097984583, 4.910301685333252, 0.624258816242218, 0.0, 9.574427494257797e-05, 0.0, 0.0005154524799226853, 0.0, -0.00026356172886897623, array([[  1.53450787e-15]])]
[7.549999999999981, -0.5474692905396239, 4.985492706298828, 1.4541070461273193, 0.0, -0.00013963528366821613, 0.0, 0.00021690738026391155, 0.0, -0.00016430355497532598, array([[  6.84339037e-19]])]
[7.599999999999981, -1.3275452980510891, 5.0287861824035645, 1.2459304332733154, 0.0, -6.607849195248789e-05, 0.0, 0.00010532479489516419, 0.0, -0.00022768074882493353, array([[  2.12109263e-21]])]
[7.649999999999981, -1.8065363604687155, 5.091421604156494, 0.6127231121063232, 0.0, 0.00014180291219959086, 0.0, 0.00027677024422156427, 0.0, -0.0003559526464397045, array([[  6.83790389e-19]])]
[7.699999999999981, -1.5465433981809766, 5.105752944946289, 0.30648574233055115, 0.0, 0.00027895211516675624, 0.0, 0.0003255155459220114, 0.0, -0.0003554211360375728, array([[  4.17971421e-16]])]
[7.7499999999999805, -0.15755949138850014, 5.103665828704834, -0.344703733921051, 0.0, 0.0005097126190053898, 0.0, 0.0007311718139341006, 0.0, -0.0004087223990251847, array([[  2.82021000e-16]])]
[7.79999999999998, 0.6142670028470454, 5.087373733520508, -0.6518055200576782, 0.0, 0.0007320949349022626, 0.0, 0.0010131075303989173, 0.0, -0.0004543094328433522, array([[  9.25181372e-20]])]
[7.84999999999998, 1.387531502267346, 5.028172492980957, -0.7611802816390991, 0.0, 0.0009095484004331645, 0.0, 0.0013735926097782247, 0.0, -0.0004331508371326708, array([[  3.81292590e-20]])]
[7.89999999999998, 1.3664731721319259, 5.00980806350708, -0.29829511046409607, 0.0, 0.0005390509888020772, 0.0, 0.000965076961290931, 0.0, -0.00047540927873825615, array([[  1.44024021e-16]])]
[7.94999999999998, 0.3606608018400146, 5.024085521697998, 0.7236543893814087, 0.0, 0.00033373248959852535, 0.0, 0.000453203878222013, 0.0, -0.000341566746521357, array([[  1.17431721e-16]])]
[7.99999999999998, -0.9195027213022114, 5.047240257263184, 0.7323899269104004, 0.0, 0.00016282170374173088, 0.0, 0.00019368713501485282, 0.0, -0.00020692525203515544, array([[  4.65447980e-17]])]
[8.04999999999998, -1.305164158012718, 5.080170154571533, 0.2250463217496872, 0.0, -0.00012488901394255728, 0.0, 4.15003410687347e-06, 0.0, -0.0001351230518847637, array([[  2.86303467e-16]])]
[8.09999999999998, -1.236759219943546, 5.081568241119385, -0.0780889093875885, 0.0, -0.00029527860874362295, 0.0, -0.00012291590131163527, 0.0, -4.002135785959234e-05, array([[  3.51392665e-16]])]
[8.14999999999998, 0.06514297153986956, 5.074611186981201, -0.3461075723171234, 0.0, -0.00042694451143453894, 0.0, -0.00012248106527807623, 0.0, 6.231918682914493e-05, array([[  3.89472680e-17]])]
[8.199999999999982, 0.7222599420072511, 5.022464752197266, -1.024783730506897, 0.0, -0.0006303927431257971, 0.0, -2.494521268653718e-05, 0.0, 0.0001442343865420001, array([[  2.80864112e-23]])]
[8.249999999999982, 1.6629434409551322, 4.945432662963867, -0.9655362367630005, 0.0, -0.0006544258197336169, 0.0, -2.8631949411232388e-06, 0.0, 0.00018569996188427294, array([[  9.50975342e-22]])]
[8.299999999999983, 1.5297857165345923, 4.920313358306885, -0.5202655792236328, 0.0, -0.0005301955961548684, 0.0, -9.007729147095932e-05, 0.0, 0.00020831359866571892, array([[  3.03040952e-17]])]
[8.349999999999984, 0.5831666054101662, 4.919411659240723, 0.5229018330574036, 0.0, -0.00038374357735153174, 0.0, -6.763773185532155e-05, 0.0, 0.00022617296025676783, array([[  1.22014392e-14]])]
[8.399999999999984, -0.20365221984499426, 4.938325881958008, 0.6791942715644836, 0.0, -0.00032314580682457834, 0.0, -0.00010591429785654674, 0.0, 0.00022836873140410648, array([[  7.58802122e-16]])]
[8.449999999999985, -1.46121573571954, 4.972068786621094, 0.24793219566345215, 0.0, -0.000304635906995519, 0.0, -0.00019453501311732243, 0.0, 0.00017342176117416639, array([[  1.99896622e-15]])]
[8.499999999999986, -1.319147481149996, 4.9742608070373535, -0.05467569828033447, 0.0, -0.0002483469496883005, 0.0, -0.00016527334385184325, 0.0, 9.552527882778522e-05, array([[  3.34829940e-15]])]
[8.549999999999986, -0.23848306588922036, 4.946338176727295, -0.7055180072784424, 0.0, -0.0002054302138846341, 0.0, 0.000142845756565056, 0.0, 5.6040634684139736e-05, array([[  4.07605455e-16]])]
[8.599999999999987, 0.5907315260227766, 4.917932510375977, -1.0126675367355347, 0.0, -8.181741898608601e-05, 0.0, 0.00048259994966372315, 0.0, 1.8440576643525203e-05, array([[  3.13778974e-22]])]
[8.649999999999988, 1.6880150989387186, 4.829880237579346, -1.3072688579559326, 0.0, 9.187834983746121e-05, 0.0, 0.0009511361466814122, 0.0, -3.580934773733339e-06, array([[  1.94263381e-25]])]
[8.699999999999989, 1.9281734170671554, 4.792871475219727, -0.9019483923912048, 0.0, -3.2975406920378497e-06, 0.0, 0.0007699582797861831, 0.0, -4.341252601656536e-05, array([[  6.70302119e-20]])]
[8.74999999999999, 1.2807245823517444, 4.772665023803711, -0.46641960740089417, 0.0, -7.520882744747148e-05, 0.0, 0.00034636719177254304, 0.0, 2.431492216919227e-06, array([[  1.60029581e-15]])]
[8.79999999999999, 0.5128241316620246, 4.7785749435424805, 0.6909433603286743, 0.0, -0.0001575516125107623, 0.0, 0.00013808647842530276, 0.0, -1.9314134008042756e-05, array([[  1.22071517e-14]])]
[8.84999999999999, -1.0115639022421214, 4.842215538024902, 1.000002145767212, 0.0, -2.173092009891529e-05, 0.0, 2.2208311543406258e-05, 0.0, 6.043833792957966e-05, array([[  3.77975242e-17]])]
[8.899999999999991, -1.672230180365965, 4.869224548339844, 0.741237998008728, 0.0, 5.620308330769404e-05, 0.0, -0.000141882953243465, 0.0, 0.00015298906883634564, array([[  1.36950815e-15]])]
[8.949999999999992, -1.4175342906881137, 4.885333061218262, 0.4807226061820984, 0.0, 0.00011384005781284854, 0.0, -3.0012593840630146e-05, 0.0, 0.00023071013363207198, array([[  2.03892126e-14]])]
[8.999999999999993, -0.6808351629283484, 4.892985820770264, -0.20633141696453094, 0.0, 0.00016522413750300256, 0.0, 0.00019414675794199052, 0.0, 0.00031190272065533854, array([[  4.83822922e-15]])]
[9.049999999999994, 0.5803758444935034, 4.854231357574463, -0.474391371011734, 0.0, 0.00017804936260083337, 0.0, 0.0004951742063922658, 0.0, 0.0003726222256294181, array([[  2.20888270e-16]])]
[9.099999999999994, 1.30261466290988, 4.825908184051514, -0.8658654093742371, 0.0, 0.00022430080010856805, 0.0, 0.0007000438539349306, 0.0, 0.00042491874407232636, array([[  1.09724634e-19]])]
[9.149999999999995, 1.61165166329965, 4.78542423248291, -0.07590606808662415, 0.0, -8.904932567566447e-06, 0.0, 0.0003012237251753008, 0.0, 0.0004091602654493014, array([[  1.28601467e-13]])]
[9.199999999999996, 1.2146278998831865, 4.7901692390441895, 0.4379233121871948, 0.0, -4.381421074028931e-05, 0.0, 0.00012247889319198964, 0.0, 0.00033396894705376774, array([[  1.13309931e-13]])]
[9.249999999999996, -0.3618932439276219, 4.853375434875488, 1.3404738903045654, 0.0, -0.00012665667413276014, 0.0, -1.4606955003856039e-05, 0.0, 0.000282553400406962, array([[  6.59482074e-16]])]
[9.299999999999997, -1.0482285553552217, 4.892964839935303, 1.1396942138671875, 0.0, -3.7534556895401054e-05, 0.0, 3.600320590054023e-05, 0.0, 0.0002149482545743744, array([[  6.30213710e-19]])]
[9.349999999999998, -1.6601840330660345, 4.920755863189697, 0.88592129945755, 0.0, 7.548131296634654e-05, 0.0, 0.0002989854200897143, 0.0, 0.0001281376945962899, array([[  8.76500314e-17]])]
[9.399999999999999, -1.303805262601003, 4.958617210388184, 0.2007957398891449, 0.0, 0.0003003282354715789, 0.0, 0.00079405221491886, 0.0, 7.031322013982837e-06, array([[  1.27964774e-14]])]
[9.45, -0.09563405694255023, 4.9476141929626465, -0.4516511857509613, 0.0, 0.0004594921816010552, 0.0, 0.0014389268215021464, 0.0, -0.00012762727857759036, array([[  1.08273647e-16]])]
[9.5, 0.7349903338076547, 4.927198886871338, -0.7585617303848267, 0.0, 0.0005283392279269537, 0.0, 0.0019494890534884316, 0.0, -0.00016672378600109862, array([[  2.85933612e-19]])]
[9.55, 1.5313240011772142, 4.863584518432617, -0.7826300859451294, 0.0, 0.0005981796960988034, 0.0, 0.0025298104709768634, 0.0, -0.0002785086037751204, array([[  2.93810927e-21]])]
[9.600000000000001, 1.5427255978602918, 4.844696044921875, -0.3190338909626007, 0.0, 0.00032721553137060117, 0.0, 0.0017244912127596683, 0.0, -0.0002246978253658425, array([[  3.65482552e-15]])]
[9.650000000000002, 0.4669654146656358, 4.857245922088623, 0.711983323097229, 0.0, 0.00012187438168552854, 0.0, 0.0009323878550254256, 0.0, -0.00021708376759392887, array([[  3.82127519e-15]])]
[9.700000000000003, -0.2573195647792929, 4.880702018737793, 0.7861275672912598, 0.0, 6.341754531171433e-05, 0.0, 0.0007128500683511979, 0.0, -0.00027005440463684886, array([[  7.33521479e-16]])]
[9.750000000000004, -1.2375714351208889, 4.920097827911377, 0.33014658093452454, 0.0, -8.774207120188673e-05, 0.0, 0.00023178832062225558, 0.0, -0.00021167163592700864, array([[  2.78747360e-14]])]
[9.800000000000004, -1.3703870334285593, 4.925108909606934, 0.027184950187802315, 0.0, -0.00018393276973753634, 0.0, 8.252236077213436e-05, 0.0, -0.00024993839339559833, array([[  1.77759501e-14]])]
[9.850000000000005, -0.4325061354292734, 4.903022766113281, -0.6249350905418396, 0.0, -0.0002900395658775119, 0.0, -0.00021764757382720362, 0.0, -0.00027990779576944825, array([[  3.15812273e-15]])]
[9.900000000000006, 0.38468709810170965, 4.877511024475098, -0.9317740797996521, 0.0, -0.0004829698044465073, 0.0, -0.00031650711449648797, 0.0, -0.0003156877601325818, array([[  9.22920111e-21]])]
[9.950000000000006, 1.59078729462903, 4.795840740203857, -1.266444206237793, 0.0, -0.0006627660812964114, 0.0, -0.0003400115816767446, 0.0, -0.0002941566375414939, array([[  1.73551676e-23]])]
[10.000000000000007, 1.9527501626643353, 4.760550498962402, -0.8609499335289001, 0.0, -0.0005554924605127012, 0.0, -0.0003237424298959807, 0.0, -0.0003117124829928786, array([[  4.86508572e-19]])]
[10.050000000000008, 1.3639016068489294, 4.736610412597656, 0.21541772782802582, 0.0, -0.00048075333977227677, 0.0, -0.0004004167504140775, 0.0, -0.00026551320264636675, array([[  6.56247904e-15]])]
[10.100000000000009, 0.5962722322414564, 4.750813961029053, 0.7268797159194946, 0.0, -0.0003692355825078127, 0.0, -0.00031660982083454566, 0.0, -0.00024127439555405892, array([[  1.72058378e-14]])]
[10.15000000000001, -1.029333691865223, 4.817131519317627, 1.0906224250793457, 0.0, -0.00017936646134115116, 0.0, -0.00022457046761354446, 0.0, -0.0002285000657062061, array([[  1.02115347e-16]])]
[10.20000000000001, -1.5636613531564363, 4.847707748413086, 0.853266716003418, 0.0, -0.00027138331721178417, 0.0, -0.0003343605551258357, 0.0, -0.00018295624120369153, array([[  5.13054695e-16]])]
[10.25000000000001, -1.434772330479697, 4.881389617919922, 0.21525856852531433, 0.0, -0.00019833373411401507, 0.0, -0.0002782549742514943, 0.0, -5.097009173628662e-05, array([[  1.33406734e-14]])]
[10.300000000000011, -0.6629683099971286, 4.881929397583008, -0.0910431295633316, 0.0, -0.0002037175149446321, 0.0, -0.00018088314291639878, 0.0, 3.466313313726053e-05, array([[  2.15379371e-14]])]
[10.350000000000012, 0.7580486056832382, 4.850346565246582, -0.705487847328186, 0.0, -0.0002656925340840383, 0.0, 0.0001445138568392662, 0.0, 0.00020203278788931097, array([[  1.81234983e-15]])]
[10.400000000000013, 1.211221718894316, 4.827020645141602, -0.6303552389144897, 0.0, -0.0003083854668624299, 0.0, 0.0003378771313877978, 0.0, 0.00027297517792341256, array([[  3.38858503e-17]])]
[10.450000000000014, 1.3879416183941067, 4.806070804595947, 0.23372583091259003, 0.0, -0.00026134466709584243, 0.0, 0.00010811279031643207, 0.0, 0.00031111389805839833, array([[  2.78559768e-13]])]
[10.500000000000014, 0.8230239834363582, 4.8204569816589355, 0.7435982823371887, 0.0, -0.00034062677052225246, 0.0, -6.774999125445652e-05, 0.0, 0.00020037765086516817, array([[  4.50440725e-15]])]
[10.550000000000015, -0.6612860971521632, 4.895461082458496, 1.372679352760315, 0.0, -0.0001355989739206445, 0.0, -0.0001365082394146221, 0.0, 0.00023712741786400044, array([[  4.02507698e-18]])]
[10.600000000000016, -1.3808516565933824, 4.93480920791626, 1.147425651550293, 0.0, -0.00025418544258922794, 0.0, -0.00014970059574694508, 0.0, 0.0002433749218652246, array([[  3.32330104e-19]])]
[10.650000000000016, -1.6808545685485006, 4.987706661224365, 0.510873019695282, 0.0, -0.00038559704741251673, 0.0, 0.00011283657061056732, 0.0, 0.0003463410342047005, array([[  4.76704135e-17]])]
[10.700000000000017, -1.3175492877028885, 4.997622489929199, 0.20413149893283844, 0.0, -0.000491173451081917, 0.0, 0.0003717654128363409, 0.0, 0.0003648161313294397, array([[  8.35690246e-15]])]
[10.750000000000018, -0.09410041633249165, 4.985753059387207, -0.4477888345718384, 0.0, -0.0006390806697693581, 0.0, 0.0009622254623451633, 0.0, 0.00039368130485618625, array([[  5.30501230e-15]])]
[10.800000000000018, 0.7364752740524656, 4.965097904205322, -0.7546356320381165, 0.0, -0.0006856526864823014, 0.0, 0.0014055426238493453, 0.0, 0.0004164348748600739, array([[  2.07261807e-19]])]
[10.85000000000002, 1.6160161146298053, 4.906228065490723, -0.6590619087219238, 0.0, -0.0006840180424037161, 0.0, 0.00177064672001722, 0.0, 0.0004039200636250242, array([[  1.67324148e-20]])]
[10.90000000000002, 1.4814774484559896, 4.891212463378906, -0.18970522284507751, 0.0, -0.0004971242995209872, 0.0, 0.0010560754362255443, 0.0, 0.0004494444301792553, array([[  8.91466169e-15]])]
[10.95000000000002, 0.42086092621832194, 4.894931793212891, 0.4507516324520111, 0.0, -0.0003607192954224234, 0.0, 0.0006615855189578203, 0.0, 0.0003904133931449001, array([[  2.90663384e-14]])]
[11.000000000000021, -0.5282873997725838, 4.9370436668396, 0.8068533539772034, 0.0, -0.0003700677316884733, 0.0, 0.00044903795886030784, 0.0, 0.00017904102907553076, array([[  2.56456630e-16]])]
[11.050000000000022, -1.3451532399468127, 4.975720405578613, 0.3435544967651367, 0.0, -0.00021489771279475082, 0.0, -0.00010979547027466269, 0.0, 0.000136989051414974, array([[  2.68882396e-15]])]
[11.100000000000023, -1.2008701952844887, 4.980348110198975, 0.04122396931052208, 0.0, -0.00013662112365046787, 0.0, -0.00038143423082027445, 0.0, 0.00013093416399769677, array([[  8.98476916e-15]])]
[11.150000000000023, -0.24964543237910578, 4.957441806793213, -0.6102519631385803, 0.0, 0.00010864727158970135, 0.0, -0.0006123745872015022, 0.0, 6.0236730508693525e-05, array([[  6.76249831e-18]])]
[11.200000000000024, 0.5760125892534852, 4.931467056274414, -0.9175101518630981, 0.0, 0.0002829801060853712, 0.0, -0.0006600275874645279, 0.0, 4.3741788644510586e-06, array([[  6.60154367e-21]])]
[11.250000000000025, 1.5852626917511226, 4.900591850280762, -1.1431702375411987, 0.0, 0.00048384936243413675, 0.0, -0.0007176944693853142, 0.0, -2.2174284242202717e-05, array([[  1.64902711e-23]])]
[11.300000000000026, 1.7412170986682178, 4.818831920623779, -0.7380401492118835, 0.0, 0.0003439109381219546, 0.0, -0.0005883532712381954, 0.0, -1.687561726790324e-05, array([[  4.44578450e-18]])]
[11.350000000000026, 0.9295549800759182, 4.802582263946533, -0.3006795048713684, 0.0, 0.00016162161807480938, 0.0, -0.0004685287674119175, 0.0, 1.5050709199277993e-05, array([[  1.55979442e-14]])]
[11.400000000000027, 0.26029391146822206, 4.817104339599609, 0.7666680216789246, 0.0, 1.063075055929198e-05, 0.0, -0.00048709148485300577, 0.0, 5.183803328485029e-05, array([[  4.02508997e-15]])]
[11.450000000000028, -1.2810857586674433, 4.872287750244141, 0.716501772403717, 0.0, -0.0001805258234233129, 0.0, -0.0004412989628551857, 0.0, 3.063844418043402e-05, array([[  3.02897056e-16]])]
[11.500000000000028, -1.6286183341220026, 4.889791011810303, 0.43707752227783203, 0.0, -0.0001717482398737555, 0.0, -0.00034287759613322954, 0.0, 3.163957990123532e-05, array([[  3.17903768e-14]])]
[11.55000000000003, -0.9639065564871152, 4.8973612785339355, 0.17421387135982513, 0.0, -0.00013767927134373248, 0.0, -0.0001896400829118671, 0.0, -1.574986619400958e-05, array([[  6.59545447e-14]])]
[11.60000000000003, -0.33400334682322186, 4.8829755783081055, -0.5130418539047241, 0.0, 4.821736829245043e-06, 0.0, 0.00013631256523869526, 0.0, 1.1211390054552542e-05, array([[  1.42667533e-16]])]
[11.65000000000003, 0.9316175289750098, 4.86388635635376, -1.070048213005066, 0.0, 9.675858528014284e-05, 0.0, 0.00039714118844642654, 0.0, -5.122701979711101e-06, array([[  8.84003268e-19]])]
[11.700000000000031, 1.5442064010724428, 4.792998313903809, -0.788384735584259, 0.0, 0.00017118447825821475, 0.0, 0.0008413503419543687, 0.0, 7.416617710304807e-05, array([[  2.26903898e-18]])]
[11.750000000000032, 1.3856243354789914, 4.769920349121094, 0.22563058137893677, 0.0, 0.000130621610791265, 0.0, 0.00026260311041598113, 0.0, 2.1006280852838732e-05, array([[  5.99445510e-15]])]
[11.800000000000033, 0.6827743576969891, 4.784399032592773, 0.7361445426940918, 0.0, 1.9170928116394622e-05, 0.0, 0.00026035389975348955, 0.0, -2.182957136836149e-05, array([[  1.14068725e-14]])]
[11.850000000000033, -0.9334059765692916, 4.854729175567627, 1.2123709917068481, 0.0, 3.061509514074573e-06, 0.0, -0.00029647780122773684, 0.0, -4.6366070552017095e-06, array([[  3.87921684e-19]])]
[11.900000000000034, -1.499134002553299, 4.889349937438965, 0.9878976345062256, 0.0, -0.0001510592811945221, 0.0, -0.0004042582556911101, 0.0, 2.1378758538209747e-06, array([[  2.89382746e-17]])]
[11.950000000000035, -1.5552809092253448, 4.933006763458252, 0.3527841567993164, 0.0, -0.00033944819429655465, 0.0, -0.0003126489000710162, 0.0, -6.6061378450435105e-06, array([[  2.74385246e-14]])]
[12.000000000000036, -0.8574193628263003, 4.9385762214660645, 0.04657673463225365, 0.0, -0.0004896132351998367, 0.0, -0.00012008671208419372, 0.0, 3.163953361148711e-05, array([[  2.20598219e-14]])]
[12.050000000000036, 0.5654897961690802, 4.935198783874512, -0.5819271206855774, 0.0, -0.0005449178816953821, 0.0, 8.17950748637108e-05, 0.0, 0.00011503860762729832, array([[  4.04167307e-15]])]
[12.100000000000037, 1.1129879885259977, 4.896289825439453, -0.6591651439666748, 0.0, -0.0006156115386950337, 0.0, 0.0005033636205408364, 0.0, 7.191617695859199e-05, array([[  7.20241273e-18]])]
[12.150000000000038, 1.49069879945647, 4.866705894470215, 0.06182614713907242, 0.0, -0.00048109488520931416, 0.0, 0.00023068444953688042, 0.0, 4.807620922941177e-05, array([[  1.41901168e-16]])]
[12.200000000000038, 1.1884679712550714, 4.876070499420166, 0.5738297700881958, 0.0, -0.0003017017905707256, 0.0, 5.301838295221972e-05, 0.0, 6.88599508448082e-05, array([[  1.56120638e-14]])]
[12.250000000000039, -0.2701151835145585, 4.948340892791748, 1.014951229095459, 0.0, -0.00033561256745151416, 0.0, -0.00013770431476373477, 0.0, 0.00011137507851263317, array([[  1.74230547e-17]])]
[12.30000000000004, -1.057637446484645, 4.991808891296387, 1.2697474956512451, 0.0, -0.00024848083789089824, 0.0, 7.153163291056181e-06, 0.0, 0.00018569812064473683, array([[  7.09032258e-21]])]
[12.35000000000004, -1.7529368289606648, 5.022948741912842, 1.0167217254638672, 0.0, -0.00013173222101087873, 0.0, 0.00028977858193905746, 0.0, 9.767730573646389e-05, array([[  1.80868091e-18]])]
[12.400000000000041, -1.459870683565736, 5.069507122039795, 0.3321458399295807, 0.0, 0.0001365972941347561, 0.0, 0.0008831386094536347, 0.0, 4.8023433614586515e-05, array([[  2.32829911e-15]])]
[12.450000000000042, -0.1956522500198358, 5.068077564239502, -0.31863534450531006, 0.0, 0.00041818614507608545, 0.0, 0.0016989891649178172, 0.0, -4.204449587524791e-05, array([[  2.43395091e-15]])]
[12.500000000000043, 0.4530667118865507, 5.052003860473633, -0.6248348355293274, 0.0, 0.0006044579632748019, 0.0, 0.002268225343236327, 0.0, -0.000110835109706309, array([[  9.26789490e-19]])]
[12.550000000000043, 1.4577804725856987, 4.990307331085205, -0.9680103063583374, 0.0, 0.0007474984038929017, 0.0, 0.002972769590316544, 0.0, -0.00010788080490367563, array([[  7.61980434e-22]])]
[12.600000000000044, 1.563961820987519, 4.963817596435547, -0.5772005915641785, 0.0, 0.0005985913454913005, 0.0, 0.0023792197426712918, 0.0, -0.00013500085530689457, array([[  1.18921605e-17]])]
[12.650000000000045, 0.7631485535646789, 4.952436923980713, 0.45922353863716125, 0.0, 0.00023586307714636517, 0.0, 0.0014227105052275312, 0.0, -0.0001260199105580536, array([[  6.85782690e-15]])]
[12.700000000000045, 0.131173388421063, 4.976022243499756, 0.7395856380462646, 0.0, 7.649893152168783e-05, 0.0, 0.0007857829920516611, 0.0, -9.530612112803632e-05, array([[  4.24612104e-16]])]
[12.750000000000046, -1.2160572694302543, 5.0228047370910645, 0.533860445022583, 0.0, -8.485237919078148e-05, 0.0, 0.00024111143649244168, 0.0, 1.743856540662075e-05, array([[  1.96733663e-15]])]
[12.800000000000047, -1.2330701356465017, 5.034143447875977, 0.2424500584602356, 0.0, -0.00012312512845862728, 0.0, -4.48897794308839e-05, 0.0, 6.499320228382488e-05, array([[  5.67402021e-15]])]
[12.850000000000048, -0.9638064801916537, 5.025989532470703, -0.4059981107711792, 0.0, -0.00011585238079882467, 0.0, -0.00041064221899741907, 0.0, 0.0001528482555170702, array([[  3.45234978e-15]])]
[12.900000000000048, -0.18871939462889334, 5.006908416748047, -0.7124143838882446, 0.0, -0.00016530647795979107, 0.0, -0.0005735907475441743, 0.0, 0.0001965360113413206, array([[  3.41753117e-19]])]
[12.950000000000049, 1.2599124218588695, 4.93394660949707, -1.3062409162521362, 0.0, -0.00016942007408715442, 0.0, -0.0007063450047882818, 0.0, 0.0001869389713421648, array([[  2.57101628e-23]])]
[13.00000000000005, 1.8854227271014827, 4.8948750495910645, -0.9989966154098511, 0.0, -0.00015186224721219882, 0.0, -0.0006548795044915797, 0.0, 0.00019982579043461505, array([[  1.63459457e-21]])]
[13.05000000000005, 1.5906885987222197, 4.859988689422607, 0.06322655826807022, 0.0, -0.0001586116834002075, 0.0, -0.0005869111542067001, 0.0, 0.00021179231523575222, array([[  7.50826566e-17]])]
[13.100000000000051, 0.9456672568516805, 4.869413375854492, 0.5774231553077698, 0.0, -0.00018916699019064332, 0.0, -0.0006514555561591709, 0.0, 0.00017859566981891134, array([[  1.88489793e-14]])]
[13.150000000000052, -0.5674597072592195, 4.940988063812256, 1.4589385986328125, 0.0, -0.00010368241940307489, 0.0, -0.0005524227264014773, 0.0, 0.00017873127853200132, array([[  2.61078144e-17]])]
[13.200000000000053, -1.3450328529262916, 4.9847331047058105, 1.2800672054290771, 0.0, -5.274691543747129e-05, 0.0, -0.0003357193755587875, 0.0, 0.0001454154775472537, array([[  6.76816792e-21]])]
[13.250000000000053, -1.8980217145853677, 5.04896879196167, 0.6518413424491882, 0.0, 8.337852760373985e-05, 0.0, 0.00019101476124210224, 0.0, 0.00019396775464841493, array([[  1.21335798e-17]])]
[13.300000000000054, -1.4166958939465695, 5.06419038772583, 0.3463860750198364, 0.0, 0.00016379129707054925, 0.0, 0.0007226751818474492, 0.0, 0.0002702204972769059, array([[  2.70278409e-15]])]
[13.350000000000055, -0.13001471557677993, 5.063695430755615, -0.30535900592803955, 0.0, 0.00021896781599099803, 0.0, 0.0016026076386879994, 0.0, 0.000251960810052025, array([[  3.02855146e-15]])]
[13.400000000000055, 0.5214926436163921, 5.048381805419922, -0.6116001009941101, 0.0, 0.00036503746086329324, 0.0, 0.002187112768392924, 0.0, 0.00023684314185013356, array([[  1.42923102e-18]])]
[13.450000000000056, 1.3638600578493205, 4.990133285522461, -0.851580798625946, 0.0, 0.0005510688979403306, 0.0, 0.002962918186962437, 0.0, 0.0002589239727516768, array([[  1.21498586e-20]])]
[13.500000000000057, 1.4023073857828277, 4.968513011932373, -0.4208506643772125, 0.0, 0.00027296015274179197, 0.0, 0.00226663822280445, 0.0, 0.00021618564849862864, array([[  1.77634089e-16]])]
[13.550000000000058, 0.5547956632585844, 4.974326133728027, 0.58458411693573, 0.0, 0.00014500063547934688, 0.0, 0.0010159597755200766, 0.0, 0.00020642464791560883, array([[  1.75360686e-14]])]
[13.600000000000058, -0.12440984104773387, 4.994528293609619, 0.6943933367729187, 0.0, -3.069210855684179e-05, 0.0, 0.0008207330863973648, 0.0, 0.00021308189185889156, array([[  6.02125083e-16]])]
[13.650000000000059, -1.1559865889832153, 5.012035369873047, 0.5624443292617798, 0.0, -0.00028278040012108595, 0.0, 0.0004453238442434012, 0.0, 0.0002899073562567438, array([[  2.01590631e-15]])]
[13.70000000000006, -1.2483134123024087, 5.0275444984436035, -0.09652833640575409, 0.0, -0.000563110009321061, 0.0, -5.230954468361592e-07, 0.0, 0.00034088386056920557, array([[  2.45009984e-15]])]
[13.75000000000006, -0.1688658290370392, 4.9972243309021, -0.7480608224868774, 0.0, -0.0008768841344012865, 0.0, -0.00023165950403961595, 0.0, 0.0004264591255922343, array([[  3.41932599e-17]])]
[13.800000000000061, 0.5997839375073091, 4.96756649017334, -1.0548681020736694, 0.0, -0.0010237029614847996, 0.0, -0.0002989297987658146, 0.0, 0.0004730407269703778, array([[  9.04971542e-23]])]
[13.850000000000062, 1.6578401910273823, 4.8825201988220215, -1.143986701965332, 0.0, -0.0011348676398366501, 0.0, -0.0003081635304786305, 0.0, 0.0005381373237488779, array([[  2.93614156e-25]])]
[13.900000000000063, 1.7683912991308608, 4.851966381072998, -0.6913152933120728, 0.0, -0.0008615368894616375, 0.0, -0.0003906992679395976, 0.0, 0.000518153088242039, array([[  9.67227628e-18]])]
[13.950000000000063, 0.8672768599381672, 4.839308261871338, 0.3693748712539673, 0.0, -0.0006035276538889689, 0.0, -0.0005265304102102948, 0.0, 0.0005280903758128723, array([[  1.98823056e-14]])]
[14.000000000000064, 0.12628800245605284, 4.856372833251953, 0.7467595338821411, 0.0, -0.0005093829917262914, 0.0, -0.0004795586699804226, 0.0, 0.00044814315824677855, array([[  3.65221438e-15]])]
[14.050000000000065, -1.344906269227624, 4.908526420593262, 0.6227525472640991, 0.0, -0.00046292524069508717, 0.0, -0.000499159325215397, 0.0, 0.00041694788716914043, array([[  7.29625087e-15]])]
[14.100000000000065, -1.6403863867363038, 4.922833442687988, 0.334329217672348, 0.0, -0.0003123258448511316, 0.0, -0.0005374746607212467, 0.0, 0.00038083858102763387, array([[  3.87835252e-14]])]
[14.150000000000066, -1.1227066603317315, 4.921024799346924, -0.3131018877029419, 0.0, -0.00012161727697516531, 0.0, -0.00041137826144450765, 0.0, 0.0002614197617850223, array([[  2.19029020e-15]])]
[14.200000000000067, 0.05015860444912468, 4.9050116539001465, -0.6209702491760254, 0.0, 2.704243132893899e-05, 0.0, -0.0003147994108905636, 0.0, 0.00024200294043949253, array([[  1.70182692e-17]])]
[14.250000000000068, 0.9916996944781858, 4.838111877441406, -1.202643871307373, 0.0, 0.0002379573963919889, 0.0, 2.5688072671692434e-05, 0.0, 0.00020357232884193264, array([[  5.52082505e-20]])]
[14.300000000000068, 1.5755760706875008, 4.802332878112793, -0.8921304941177368, 0.0, 0.0002715390132625869, 0.0, 0.0001510984853947559, 0.0, 9.181634826119688e-05, array([[  1.87075377e-19]])]
