time, uz, alt, vel_alt, uthe, roll, uphi, pitch, upsi, yaw, F
[0.0, 0.0, -0.012599472887814045, 0.005987074226140976, 0.0, -0.014589040696067028, 0.0, 0.013407922779005614, 0.0, -0.0863788657814301, array([[-38.93063672]])]
[0.05, 38.93229610808128, -0.012574044987559319, 0.0052966405637562275, 0.0, -0.014584233021647172, 0.0, 0.013400033341691342, 0.0, -0.08643125500176162, array([[-102.92550832]])]
[0.1, 102.92742521001082, -0.012526770122349262, 0.005128313787281513, 0.0, -0.014633441570069681, 0.0, 0.01338646823431488, 0.0, -0.0864513242923689, array([[-229.18481341]])]
[0.15000000000000002, 229.18702291706433, 0.004731681197881699, 0.6737111210823059, 0.0, -0.011453438814300798, 0.0, 0.008990588332941342, 0.0, -0.08150083291936322, array([[-3.19444968]])]
[0.2, 3.0063963288302222, 0.033708229660987854, 1.1355526447296143, 0.0, -0.010455643966071161, 0.0, 0.00760227415611972, 0.0, -0.07858975402180952, array([[-0.00043272]])]
[0.25, -0.3105594532512586, 0.14522698521614075, 2.0995407104492188, 0.0, -0.005915036867597758, 0.0, 0.004141765634887311, 0.0, -0.05976923404259726, array([[ -7.93019887e-19]])]
[0.3, -0.4902422976370486, 0.21122364699840546, 1.9688159227371216, 0.0, -0.00456971343030196, 0.0, 0.00321115802723899, 0.0, -0.05537762723543323, array([[ -2.87838698e-16]])]
[0.35, -0.2548185173958947, 0.3245759606361389, 1.345696210861206, 0.0, 0.0005501362318763551, 0.0, -0.0005856828477934248, 0.0, -0.03888797057515694, array([[ -3.67182286e-06]])]
[0.39999999999999997, 0.348345972158042, 0.3628721833229065, 1.0392361879348755, 0.0, 0.0021357915189738285, 0.0, -0.0017497675416535841, 0.0, -0.03372392506453461, array([[-0.00739106]])]
[0.44999999999999996, 0.6683195747795475, 0.41588160395622253, 0.5805573463439941, 0.0, 0.0062845890267345505, 0.0, -0.004525873385398238, 0.0, -0.018038109787651288, array([[-116.28298519]])]
[0.49999999999999994, 117.31237888274754, 0.4353591501712799, 0.6285791993141174, 0.0, 0.006335561936966155, 0.0, -0.0044228946002943925, 0.0, -0.014602453540501156, array([[-103.96427048]])]
[0.5499999999999999, 104.95730687994181, 0.4971677362918854, 1.3411153554916382, 0.0, 0.0044176146594708055, 0.0, -0.0020872467833198904, 0.0, -0.006237988906102399, array([[ -7.99161610e-05]])]
[0.6, 0.6619524567759016, 0.5478350520133972, 1.814996600151062, 0.0, 0.003967712116828812, 0.0, -0.0016580000724342996, 0.0, -0.005490744017894181, array([[ -6.27079076e-12]])]
[0.65, 0.4083298056967978, 0.6958559155464172, 2.38907790184021, 0.0, 0.0016933309942706032, 0.0, -0.0004620760210525378, 0.0, -0.004429355808883286, array([[ -8.22864877e-24]])]
[0.7000000000000001, 0.08749915496444702, 0.8354431986808777, 2.213062047958374, 0.0, 0.0006146190039581959, 0.0, 0.00015590965457368882, 0.0, -0.004040067609402238, array([[ -1.34603391e-22]])]
[0.7500000000000001, 0.1399356163970232, 0.9178195595741272, 1.8943560123443604, 0.0, 0.00021134995374665397, 0.0, 0.0003734436367426416, 0.0, -0.003835663078346997, array([[ -1.69266223e-13]])]
[0.8000000000000002, 0.4160924373181366, 0.9739037752151489, 1.6155675649642944, 0.0, -7.219540032350585e-05, 0.0, 0.0004790361923194221, 0.0, -0.003702114091938327, array([[ -7.71005146e-09]])]
[0.8500000000000002, 0.6363040920363187, 1.0683934688568115, 1.2303324937820435, 0.0, -0.0006728462462530989, 0.0, 0.0006745130267873982, 0.0, -0.0030407021274987097, array([[-0.00084719]])]
[0.9000000000000002, 0.9175891979043633, 1.1072535514831543, 1.2263824939727783, 0.0, -0.0007022749008917016, 0.0, 0.0006507371777079932, 0.0, -0.0028939481465072394, array([[-0.00084212]])]
[0.9500000000000003, 0.9201141325095286, 1.2037984132766724, 1.7588300704956055, 0.0, -0.0005843515885134012, 0.0, 0.0006022840837008509, 0.0, -0.002362844640869226, array([[ -2.20658794e-11]])]
[1.0000000000000002, 0.5686114845205666, 1.2660714387893677, 2.12235426902771, 0.0, -0.0005514788901685034, 0.0, 0.0005661163224068123, 0.0, -0.002276676471078959, array([[ -2.43562723e-18]])]
[1.0500000000000003, 0.2798726492307186, 1.4263839721679688, 2.4461960792541504, 0.0, -0.0005259073673741408, 0.0, 0.00046890129965515526, 0.0, -0.001988106234638892, array([[ -6.73493683e-26]])]
[1.1000000000000003, -0.023499475239753723, 1.5029817819595337, 2.3205504417419434, 0.0, -0.0005988250826264822, 0.0, 0.00044705319321081924, 0.0, -0.0019329887349424943, array([[ -4.69973668e-23]])]
[1.1500000000000004, -0.08141082344079018, 1.6440781354904175, 1.7790307998657227, 0.0, -0.000648857570295677, 0.0, 0.00046786208074599766, 0.0, -0.0016195182895168039, array([[ -1.95779301e-12]])]
[1.2000000000000004, -0.0045440954968424836, 1.6960082054138184, 1.4749681949615479, 0.0, -0.0006492597745848711, 0.0, 0.0004979729853026052, 0.0, -0.0015638941998371713, array([[ -7.79416804e-08]])]
[1.2500000000000004, 0.08683659915020513, 1.7738234996795654, 0.8246639966964722, 0.0, -0.0006317478137754082, 0.0, 0.0006265943356408002, 0.0, 0.012488079190232116, array([[-0.27937158]])]
[1.3000000000000005, 0.6627602570090547, 1.7953983545303345, 0.5313606858253479, 0.0, -0.0006368540397241564, 0.0, 0.0006539112325145592, 0.0, 0.01248891286534002, array([[-8.57845695]])]
[1.3500000000000005, 9.178691357630518, 1.8229929208755493, 0.44172313809394836, 0.0, -0.00029136532688467485, 0.0, 0.000709737447044318, 0.0, 0.011719148309701787, array([[-15.07691765]])]
[1.4000000000000006, 15.751972386054963, 1.8424266576766968, 0.8272450566291809, 0.0, -0.00012004386431860885, 0.0, 0.0006034275683743935, 0.0, 0.011082196739887338, array([[-0.19589759]])]
[1.4500000000000006, 0.6309502259291369, 1.9341620206832886, 1.8586028814315796, 0.0, -0.0001467376283392053, 0.0, 0.0005508425603877911, 0.0, 0.007205231936982331, array([[ -1.86222643e-14]])]
[1.5000000000000007, -0.137410803591948, 1.9980868101119995, 2.0845906734466553, 0.0, -0.00014865253255013522, 0.0, 0.0005369993985889503, 0.0, 0.006394069407289241, array([[ -5.67481374e-19]])]
[1.5500000000000007, -0.3668668692539334, 2.136845588684082, 1.8072763681411743, 0.0, -0.0004256906601524265, 0.0, 0.00043504920073066816, 0.0, 0.002936532376519444, array([[ -4.35570123e-14]])]
[1.6000000000000008, -0.39621368556466807, 2.1901426315307617, 1.24095618724823, 0.0, -0.0004734885176580866, 0.0, 0.0003827838035019629, 0.0, 0.002311327510752742, array([[ -1.66852191e-09]])]
[1.6500000000000008, -0.2755292702249495, 2.271059036254883, 0.8578982353210449, 0.0, -0.0007704930685332947, 0.0, 0.00039075315591252825, 0.0, -0.0005703131453370439, array([[-0.00833725]])]
[1.7000000000000008, 0.18437186284646534, 2.2937300205230713, 0.5508700609207153, 0.0, -0.0008469257865756524, 0.0, 0.00043398936155221175, 0.0, -0.001258436020597226, array([[-0.34043514]])]
[1.7500000000000009, 0.7732449755151192, 2.310302972793579, -0.03981524333357811, 0.0, -0.0012486010011793552, 0.0, 0.0005481459601091823, 0.0, -0.0038294708221823025, array([[-0.76584336]])]
[1.800000000000001, 1.518106499212427, 2.3089020252227783, 0.014777755364775658, 0.0, -0.0012146507690418995, 0.0, 0.0005180118697592198, 0.0, -0.004410902455552932, array([[-0.99990457]])]
[1.850000000000001, 1.6575588819173195, 2.33351469039917, 0.8600953817367554, 0.0, -0.001010403229806368, 0.0, 0.0004280770688177388, 0.0, -0.005064418906827948, array([[-0.00514117]])]
[1.900000000000001, 0.17494092888175405, 2.3688454627990723, 1.3596892356872559, 0.0, -0.000960229648317783, 0.0, 0.00033337955816333073, 0.0, -0.004898893622295835, array([[ -4.48747326e-08]])]
[1.950000000000001, -0.11776500943725812, 2.4786574840545654, 1.5500690937042236, 0.0, -0.0005751351375808871, 0.0, 0.0005910862646046036, 0.0, -0.0042197472777075985, array([[ -4.96995809e-11]])]
[2.000000000000001, -0.3823394117863853, 2.523977279663086, 1.2729538679122925, 0.0, -0.0004333172854845623, 0.0, 0.0006809480595859983, 0.0, -0.004085950489991651, array([[ -1.50847395e-07]])]
[2.0500000000000007, -0.3476957717312597, 2.5893056392669678, 0.6280124187469482, 0.0, -6.795888258316148e-05, 0.0, 0.0010134999529418764, 0.0, -0.0034192417298480513, array([[-0.01628725]])]
[2.1000000000000005, -0.055541450336720324, 2.604764699935913, 0.3211354613304138, 0.0, 5.580259967358447e-05, 0.0, 0.001142592363434767, 0.0, -0.003228250006370494, array([[-0.11794876]])]
[2.1500000000000004, 0.2683723903394346, 2.6050126552581787, -0.32998552918434143, 0.0, 0.00034739940925701887, 0.0, 0.001531047700469076, 0.0, -0.002378840486678315, array([[-0.00498084]])]
[2.2, 0.5639445332988072, 2.590440511703491, -0.58115154504776, 0.0, 0.0004225273344757371, 0.0, 0.0016459837822907666, 0.0, -0.0021281535235725423, array([[-0.0001053]])]
[2.25, 0.7655555016246415, 2.541369676589966, -0.7822714447975159, 0.0, 0.00038457641549426126, 0.0, 0.0015166181318833, 0.0, -0.0013829684429982865, array([[ -2.58181441e-06]])]
[2.3, 0.8107167437322796, 2.5193610191345215, -0.6172797679901123, 0.0, 0.00031743649082956535, 0.0, 0.0012840832983169077, 0.0, -0.00120140317534885, array([[ -9.73901742e-05]])]
[2.3499999999999996, 0.6546190137626233, 2.4950897693634033, -0.10900186002254486, 0.0, 7.955982661937188e-05, 0.0, 0.0006915585702133964, 0.0, -0.0007428528515714181, array([[-0.11617297]])]
[2.3999999999999995, 0.42717065122454656, 2.495389938354492, 0.07329996675252914, 0.0, -1.8406948328003896e-05, 0.0, 0.0007022082567572447, 0.0, -0.0006403856950957937, array([[-0.29419546]])]
[2.4499999999999993, 0.44396759699567123, 2.505368947982788, 0.10249283164739609, 0.0, -4.4522635252712424e-05, 0.0, 0.0005840845088355513, 0.0, -0.0004747551033263486, array([[-0.29822075]])]
[2.499999999999999, 0.2784639670594587, 2.50736403465271, 0.005023361183702946, 0.0, -3.039393792632867e-05, 0.0, 0.0005383323616830332, 0.0, -0.0004961608800038978, array([[-0.20545944]])]
[2.549999999999999, 0.1348515430101114, 2.4988369941711426, -0.3309662938117981, 0.0, -6.566131266472531e-05, 0.0, 0.0003351787945461686, 0.0, -0.0006089486630305495, array([[-0.01195773]])]
[2.5999999999999988, -0.03314794616047084, 2.484834671020508, -0.5796799659729004, 0.0, -0.0001070410298988922, 0.0, 0.00027277256869429544, 0.0, -0.0006468001519583991, array([[-0.00026413]])]
[2.6499999999999986, 0.024655600591985415, 2.4265308380126953, -1.1971787214279175, 0.0, -0.0002348733889693447, 0.0, 0.0002631750775998003, 0.0, -0.0007195618854607144, array([[ -1.13503898e-10]])]
[2.6999999999999984, 0.2507335664848851, 2.383821487426758, -1.5013937950134277, 0.0, -0.0002906118610926525, 0.0, 0.0002284625896304842, 0.0, -0.0007618796068425558, array([[ -6.68228853e-15]])]
[2.7499999999999982, 0.370100606025464, 2.2633378505706787, -2.041649103164673, 0.0, -0.00046310419083331745, 0.0, 0.0002697021659318311, 0.0, -0.0009633708428625704, array([[ -7.41270437e-24]])]
[2.799999999999998, 0.5469569385253787, 2.1955652236938477, -2.223612070083618, 0.0, -0.0004758397639725999, 0.0, 0.00029546844242725446, 0.0, -0.0009917857043666293, array([[ -1.62212360e-27]])]
[2.849999999999998, 0.5731570276141464, 2.0365610122680664, -2.4218993186950684, 0.0, -0.0003480148900919706, 0.0, 0.0003547212459905596, 0.0, -0.0010921709570130577, array([[ -2.66570648e-31]])]
[2.8999999999999977, 0.548959718296349, 1.9589250087738037, -2.450397253036499, 0.0, -0.00033253619522945346, 0.0, 0.0003001083198042799, 0.0, -0.0011332101089219688, array([[ -9.01871589e-32]])]
[2.9499999999999975, 0.4847358958038091, 1.7907013893127441, -2.531836986541748, 0.0, -0.0003478994424846108, 0.0, 0.0004581167791784931, 0.0, -0.0011815402287166461, array([[ -5.20105330e-33]])]
[2.9999999999999973, 0.4173375314166247, 1.7088124752044678, -2.611665725708008, 0.0, -0.0003035328163458411, 0.0, 0.0004363934260623509, 0.0, -0.00117090576516874, array([[ -7.29540235e-35]])]
[3.049999999999997, 0.4005414898648113, 1.5245563983917236, -2.866609811782837, 0.0, -0.00029519229113424643, 0.0, 0.0004621157301649754, 0.0, -0.001053908016005668, array([[ -4.04504619e-41]])]
[3.099999999999997, 0.45439898814618584, 1.4308232069015503, -3.0190205574035645, 0.0, -0.0002838859366922505, 0.0, 0.00045952395766970557, 0.0, -0.001012432543626605, array([[ -1.88148635e-45]])]
[3.149999999999997, 0.5131901665010005, 1.2158173322677612, -3.3135616779327393, 0.0, -0.0001792290488119214, 0.0, 0.00040345236493524635, 0.0, -0.0009931002607541394, array([[ -3.74320519e-54]])]
[3.1999999999999966, 0.6427263404832035, 1.1082783937454224, -3.4137914180755615, 0.0, -0.0002146419062788308, 0.0, 0.00036911416383565194, 0.0, -0.0010231122720695126, array([[ -2.12133649e-57]])]
[3.2499999999999964, 0.6925184996501653, 0.8734406232833862, -3.4500768184661865, 0.0, -0.0003254891029131885, 0.0, 0.00038634199818687165, 0.0, -0.000866349196511088, array([[ -5.88066521e-58]])]
[3.2999999999999963, 0.7069082249133884, 0.763985276222229, -3.3905436992645264, 0.0, -0.000275485816807881, 0.0, 0.00037002465964119653, 0.0, -0.0008509958387888198, array([[ -9.70030134e-56]])]
[3.349999999999996, 0.6690230911114216, 0.5391284227371216, -3.2204627990722656, 0.0, -0.00025046012590466645, 0.0, 0.00037206596197091003, 0.0, -0.0008654899784370936, array([[ -1.91008700e-49]])]
[3.399999999999996, 0.5681563626720905, 0.43702515959739685, -3.1573193073272705, 0.0, -0.00021815160918153064, 0.0, 0.0003536211124881742, 0.0, -0.0009060272570019253, array([[ -2.45049584e-47]])]
[3.4499999999999957, 0.5262136198566555, 0.2237291783094406, -3.150012969970703, 0.0, -8.794998272189513e-05, 0.0, 0.00038224164950305075, 0.0, -0.0008259264892990114, array([[ -1.10081131e-46]])]
[3.4999999999999956, 0.5259937496223077, 0.1220945343375206, -3.201873779296875, 0.0, -0.00012804108401131032, 0.0, 0.0004206261573855527, 0.0, -0.0007726629955318978, array([[ -2.32836329e-48]])]
[3.5499999999999954, 0.5667565211425051, -0.03290519490838051, -0.02842625044286251, 0.0, -0.021784637252710456, 0.0, 0.022079201487118977, 0.0, -0.000710844068587133, array([[-998.04827181]])]
[3.599999999999995, 997.715550568276, -0.03308291360735893, 0.03248434141278267, 0.0, -0.02204877821554653, 0.0, 0.019053217315180566, 0.0, -0.0006481857670057818, array([[-6696.26186851]])]
[3.649999999999995, 6696.483891435978, -0.01727488823235035, 0.6565558314323425, 0.0, -0.022735304727248048, 0.0, 0.01278892224957141, 0.0, -0.0008595851932406873, array([[-183.10357801]])]
[3.699999999999995, 183.14892483802223, 0.047562699764966965, 1.5299288034439087, 0.0, -0.010991111492783761, 0.0, 0.006270890673177905, 0.0, -0.00034163486049735306, array([[-0.03700539]])]
[3.7499999999999947, 0.008192072058764821, 0.11967398971319199, 2.1076292991638184, 0.0, -0.00923822246899588, 0.0, 0.004689105995643632, 0.0, 3.380630105342421e-05, array([[ -3.26591324e-17]])]
[3.7999999999999945, -0.19725471261906244, 0.190103679895401, 2.1888723373413086, 0.0, -0.0065759054925147355, 0.0, 0.0037523948458782464, 0.0, 0.00012253312780862087, array([[ -6.01230333e-19]])]
[3.8499999999999943, -0.09898288991646095, 0.3181424140930176, 1.594813346862793, 0.0, 0.0029776963145746534, 0.0, -0.00017714858913349347, 0.0, 0.00030968450580957967, array([[ -6.77069748e-08]])]
[3.899999999999994, 0.20443732439923157, 0.36373981833457947, 1.2891771793365479, 0.0, 0.005721960952081966, 0.0, -0.001327761584899198, 0.0, 0.0002963724501646923, array([[-0.00083373]])]
[3.949999999999994, 0.23675467352407623, 0.4290648102760315, 0.7008209228515625, 0.0, 0.013088116855533976, 0.0, -0.0044501539244257505, 0.0, 0.00025655563800409134, array([[-164.65529466]])]
[3.999999999999994, 164.97190868220906, 0.4470512270927429, 0.46017223596572876, 0.0, 0.013681004750277373, 0.0, -0.004836846178760169, 0.0, 0.00025478349867235175, array([[-2276.58380506]])]
[4.049999999999994, 2276.896219747134, 0.48507893085479736, 0.9897058606147766, 0.0, 0.00945937432758317, 0.0, -0.0035360105158802413, 0.0, 0.00014790331554762672, array([[-1.74625899]])]
[4.099999999999993, 1.70424879245314, 0.5241578817367554, 1.4767836332321167, 0.0, 0.008051917233161749, 0.0, -0.002921068655181378, 0.0, 5.9131475322720914e-05, array([[ -4.85229625e-06]])]
[4.149999999999993, -0.2705762775254817, 0.658510148525238, 2.4621875286102295, 0.0, 0.005011212359078262, 0.0, -0.0016709255952127126, 0.0, -0.0002963496577594499, array([[ -5.90778348e-25]])]
[4.199999999999993, -0.5509226633474543, 0.7373896241188049, 2.382296323776245, 0.0, 0.0040932773847459835, 0.0, -0.0013705353738138557, 0.0, -0.00040100932765017985, array([[ -4.20475700e-23]])]
[4.249999999999993, -0.3877837065003853, 0.8801966905593872, 1.7650493383407593, 0.0, 9.636693546992655e-06, 0.0, 0.00021080697998810432, 0.0, -0.0007658914910679625, array([[ -1.43908490e-10]])]
[4.299999999999993, 0.013777504029457037, 0.9323740601539612, 1.4591448307037354, 0.0, -0.0007840475407190317, 0.0, 0.0005303077221230918, 0.0, -0.0008294050623760965, array([[ -5.83946398e-06]])]
[4.3499999999999925, 0.1518626531024618, 1.010911464691162, 0.8085520267486572, 0.0, -0.0044135574034927854, 0.0, 0.002126598152446522, 0.0, -0.0011628918405967171, array([[-24.7289965]])]
[4.399999999999992, 25.090926177781405, 1.032531499862671, 0.5195795893669128, 0.0, -0.005056311239534506, 0.0, 0.002351800831859675, 0.0, -0.00119786331169004, array([[-724.65852129]])]
[4.449999999999992, 725.0477335703503, 1.0710009336471558, 0.9113382697105408, 0.0, -0.0038920942409284487, 0.0, 0.0019374775363876196, 0.0, -0.0014294331744944297, array([[-4.16916094]])]
[4.499999999999992, 4.250991478193227, 1.1086922883987427, 1.401179552078247, 0.0, -0.0029857086771627015, 0.0, 0.0015256513197837575, 0.0, -0.001438812840242952, array([[ -2.64054290e-05]])]
[4.549999999999992, -0.1570453690860392, 1.2392834424972534, 2.310800313949585, 0.0, -0.0016190174201449149, 0.0, 0.0008056457772547446, 0.0, -0.001354325330178485, array([[ -8.90627794e-22]])]
[4.599999999999992, -0.4900957678639851, 1.3116445541381836, 2.137247085571289, 0.0, -0.0011323615692273956, 0.0, 0.0006755176638285383, 0.0, -0.001303984821803854, array([[ -4.16908421e-18]])]
[4.6499999999999915, -0.38819913929727295, 1.4369138479232788, 1.5071464776992798, 0.0, 0.0011671063864388237, 0.0, 1.2958806652338508e-05, 0.0, -0.0011319727276160564, array([[ -3.76245796e-07]])]
[4.699999999999991, -0.08276364632579045, 1.480698585510254, 1.2004119157791138, 0.0, 0.0017593550929322747, 0.0, -0.00015976350063907492, 0.0, -0.0010866867562447913, array([[-0.00200861]])]
[4.749999999999991, 0.07841106102522011, 1.5415211915969849, 0.5464305281639099, 0.0, 0.004007617468553656, 0.0, -0.0006429622925271479, 0.0, -0.0008416139412055859, array([[-117.98715672]])]
[4.799999999999991, 118.36016839312143, 1.554781436920166, 0.2481250911951065, 0.0, 0.00455349900010426, 0.0, -0.0007387409214091239, 0.0, -0.0007904201209460981, array([[-513.29998576]])]
[4.849999999999991, 513.7662627231571, 1.5737032890319824, 0.6218507289886475, 0.0, 0.003976025436679765, 0.0, -0.0007503038666652535, 0.0, -0.0007188324705191012, array([[-51.14371524]])]
[4.899999999999991, 51.32724485963026, 1.6020612716674805, 1.1198270320892334, 0.0, 0.0031678775920867095, 0.0, -0.0005866349241106368, 0.0, -0.0007159092788295205, array([[-0.00896601]])]
[4.94999999999999, -0.04742809501717059, 1.714032530784607, 1.984921932220459, 0.0, 0.0022211780249218245, 0.0, -0.0002581912729574241, 0.0, -0.0006107420500350648, array([[ -1.13905926e-15]])]
[4.99999999999999, -0.36785694291519627, 1.7756059169769287, 1.7816228866577148, 0.0, 0.0015967579047659695, 0.0, -0.00012311841995066682, 0.0, -0.0006128293509165363, array([[ -3.94079787e-12]])]
[5.04999999999999, -0.2642556418973548, 1.877718210220337, 1.1484936475753784, 0.0, -0.0005013602656147051, 0.0, 0.0004729658210922358, 0.0, -0.000528892943572493, array([[-0.00126819]])]
[5.09999999999999, 0.04305901395740577, 1.9102752208709717, 0.8415365219116211, 0.0, -0.001085926258713387, 0.0, 0.0006781631189225143, 0.0, -0.0005313343236654501, array([[-0.43303352]])]
[5.14999999999999, 0.6206821877950985, 1.9471060037612915, 0.2014225870370865, 0.0, -0.0032248030257498957, 0.0, 0.0013078297356169122, 0.0, -0.0004792117567162037, array([[-77.43648439]])]
[5.1999999999999895, 77.9350322645032, 1.9520636796951294, 0.11996271461248398, 0.0, -0.0034499987980869343, 0.0, 0.001362427757849815, 0.0, -0.00045079341409260494, array([[-63.87561759]])]
[5.249999999999989, 64.37982240701878, 1.9761165380477905, 0.7686198949813843, 0.0, -0.001765632736355613, 0.0, 0.0008374021061365914, 0.0, -0.0005909640305482253, array([[-0.99504396]])]
[5.299999999999989, 1.1155038552057859, 2.0092575550079346, 1.267194390296936, 0.0, -0.0015393331816656271, 0.0, 0.0007131684273125237, 0.0, -0.0005798153770077039, array([[ -2.67431700e-05]])]
[5.349999999999989, -0.16251910299471048, 2.131817102432251, 2.2343337535858154, 0.0, -0.00048741529863051116, 0.0, 0.0004803279153075094, 0.0, -0.0007076783946254576, array([[ -6.99052628e-22]])]
[5.399999999999989, -0.6414103892678804, 2.2028610706329346, 2.1017651557922363, 0.0, -0.0003777535190682417, 0.0, 0.00046507829553324014, 0.0, -0.0006894417393353677, array([[ -2.68051639e-19]])]
[5.449999999999989, -0.5575670867492482, 2.3264808654785156, 1.4765957593917847, 0.0, -8.972223401955546e-05, 0.0, 0.0008216610820367165, 0.0, -0.0007567414513218833, array([[ -7.53894062e-09]])]
[5.4999999999999885, -0.1881292607600802, 2.369518756866455, 1.1700904369354248, 0.0, -4.659286961609076e-05, 0.0, 0.0009408587620589599, 0.0, -0.000744419629543524, array([[ -2.72734574e-05]])]
[5.549999999999988, 0.06954146964457239, 2.428839683532715, 0.5178496241569519, 0.0, 0.00017453625438225407, 0.0, 0.00152673927970739, 0.0, -0.0007948408271863029, array([[-0.71965861]])]
[5.599999999999988, 1.2043531779520122, 2.4414565563201904, 0.22028067708015442, 0.0, 0.0002007087094470268, 0.0, 0.0017043098943854101, 0.0, -0.0007905884090802224, array([[-2.15589336]])]
[5.649999999999988, 2.7258677707194243, 2.4589860439300537, 0.588505744934082, 0.0, 0.0004483577884706781, 0.0, 0.0013436491649842356, 0.0, -0.0008113629995829597, array([[-0.29961229]])]
[5.699999999999988, 0.5812380866473906, 2.4866604804992676, 1.0890659093856812, 0.0, 0.0004585310101703115, 0.0, 0.0011095690676980363, 0.0, -0.0008061835535049446, array([[ -7.14327955e-05]])]
[5.749999999999988, -0.0006179954051322807, 2.5833840370178223, 1.497287631034851, 0.0, 0.0003536444367369753, 0.0, 0.0007931191061385537, 0.0, -0.0006618182324790424, array([[ -5.05671191e-10]])]
[5.799999999999987, -0.3240751406530027, 2.629009962081909, 1.2748180627822876, 0.0, 0.0004150883424094877, 0.0, 0.000800735991475992, 0.0, -0.0006794096400516794, array([[ -2.28573572e-07]])]
[5.849999999999987, -0.3315162959876954, 2.6982028484344482, 0.6384310722351074, 0.0, 0.000786901204779969, 0.0, 0.0006721360380947081, 0.0, -0.0005398895998058946, array([[-0.02374364]])]
[5.899999999999987, -0.1858953469585923, 2.715221405029297, 0.3318476974964142, 0.0, 0.0008270473798830154, 0.0, 0.0006993052325934569, 0.0, -0.0005233433518658575, array([[-0.16776077]])]
[5.949999999999987, 0.15707837599374314, 2.7187302112579346, -0.3188704550266266, 0.0, 0.0009298475431252243, 0.0, 0.0008363461676331354, 0.0, -0.00031368953358118534, array([[-0.00969436]])]
[5.999999999999987, 0.4241455430938066, 2.7053823471069336, -0.5977455377578735, 0.0, 0.0009465080449647497, 0.0, 0.0008927793473769922, 0.0, -0.0002645969196231686, array([[-0.00012312]])]
[6.0499999999999865, 0.5773441305091224, 2.652437210083008, -0.9791557788848877, 0.0, 0.0008867565154487447, 0.0, 0.0007636907349576772, 0.0, -8.243781491626641e-05, array([[ -5.04588534e-08]])]
[6.099999999999986, 0.7554265971872111, 2.621720790863037, -1.009716272354126, 0.0, 0.000840521602455414, 0.0, 0.0006022335877779966, 0.0, -8.842388300894254e-05, array([[ -2.20495622e-08]])]
[6.149999999999986, 0.6912400877185025, 2.5625967979431152, -0.7524837851524353, 0.0, 0.0005666988738377598, 0.0, 0.0003169290006704928, 0.0, -0.00013461152828559482, array([[ -2.48933704e-05]])]
[6.199999999999986, 0.44257605253317167, 2.5420525074005127, -0.615501880645752, 0.0, 0.0005688828498903211, 0.0, 0.0002537432296000222, 0.0, -0.0001464302725812546, array([[-0.00037168]])]
[6.249999999999986, 0.3044364769421161, 2.5072121620178223, -0.6416589021682739, 0.0, 0.00046690999577176794, 0.0, 9.272846868488177e-05, 0.0, -0.00022403100165636322, array([[-0.00037877]])]
[6.299999999999986, 0.16216175753484682, 2.4864981174468994, -0.7947884202003479, 0.0, 0.00035295034589004164, 0.0, 0.00010755212580181592, 0.0, -0.0002193132222449733, array([[ -1.45281164e-05]])]
[6.349999999999985, 0.12595215022276876, 2.4218926429748535, -1.2775177955627441, 0.0, 0.00029464592365377, 0.0, 9.699846226643572e-05, 0.0, -0.0002006889968104147, array([[ -1.03078179e-10]])]
[6.399999999999985, 0.18796270292546538, 2.378513813018799, -1.5500551462173462, 0.0, 0.0003133817192099014, 0.0, 6.27821250082805e-05, 0.0, -0.00022092393607974249, array([[ -1.09406261e-14]])]
[6.449999999999985, 0.22801292587857294, 2.2575294971466064, -2.1187195777893066, 0.0, 0.00028023059230288135, 0.0, -5.073487905230333e-05, 0.0, -0.0003087749107412136, array([[ -2.57785628e-24]])]
[6.499999999999985, 0.3579357176712751, 2.1872620582580566, -2.3680038452148438, 0.0, 0.00026715654294562694, 0.0, -4.153359111874506e-05, 0.0, -0.0003099534616945547, array([[ -8.22633869e-30]])]
[6.549999999999985, 0.4089624957989454, 2.014183282852173, -2.8034920692443848, 0.0, 0.00024207271831725076, 0.0, 0.00011256304871650513, 0.0, -0.00042221348731851383, array([[ -4.04080026e-40]])]
[6.5999999999999845, 0.50406108734937, 1.923604130744934, -2.9613380432128906, 0.0, 0.0002239651868051401, 0.0, 0.00011636855825372385, 0.0, -0.00046688973638102366, array([[ -1.36908809e-44]])]
[6.649999999999984, 0.5123239907426163, 1.719781756401062, -3.1991124153137207, 0.0, 7.187329815861966e-05, 0.0, 0.00013736720404569546, 0.0, -0.0004911744138586222, array([[ -5.70297657e-51]])]
[6.699999999999984, 0.5756496320805027, 1.6187690496444702, -3.2838892936706543, 0.0, 0.00017466403218962908, 0.0, 0.000133607749844156, 0.0, -0.0004945394297331628, array([[ -1.17365741e-53]])]
[6.749999999999984, 0.5832352879523187, 1.3969424962997437, -3.3936967849731445, 0.0, 0.00014945222165931537, 0.0, 0.00021346017339877963, 0.0, -0.0005956033046925296, array([[ -2.23342214e-56]])]
[6.799999999999984, 0.5898658505674972, 1.2901726961135864, -3.4237582683563232, 0.0, 0.00014103147503516286, 0.0, 0.0002225674272287781, 0.0, -0.0005752044879542273, array([[ -2.31530793e-57]])]
[6.849999999999984, 0.5822492411053329, 1.0599950551986694, -3.477717638015747, 0.0, 0.0001741596616445202, 0.0, 0.00025777619097877244, 0.0, -0.0005329666181297101, array([[ -2.45556939e-58]])]
[6.8999999999999835, 0.5860589193167834, 0.9500985145568848, -3.505281925201416, 0.0, 0.00020048078064129857, 0.0, 0.0002445714894327939, 0.0, -0.0005486431767238619, array([[ -2.51205269e-59]])]
[6.949999999999983, 0.5940989532346501, 0.7131789326667786, -3.5653016567230225, 0.0, 0.00018166329097379946, 0.0, 0.00024754609680406516, 0.0, -0.0003994453298552507, array([[ -1.11670071e-60]])]
[6.999999999999983, 0.6300754252912849, 0.6000578999519348, -3.588130474090576, 0.0, 0.00015015552668919298, 0.0, 0.00025420991722213947, 0.0, -0.00036016786895166425, array([[ -1.35176795e-61]])]
[7.049999999999983, 0.6502199928369223, 0.3602559268474579, -3.5931103229522705, 0.0, 0.00013217789626683766, 0.0, 0.0002531593395405226, 0.0, -0.0004645258132698983, array([[ -4.40331630e-61]])]
[7.099999999999983, 0.6771533612344115, 0.2475474625825882, -3.5685524940490723, 0.0, 0.00012926164353770482, 0.0, 0.00022418447436755697, 0.0, -0.00046435946769696375, array([[ -2.39013522e-60]])]
[7.149999999999983, 0.6770884007457494, 0.011505677364766598, -3.4740688800811768, 0.0, 9.077095153330422e-05, 0.0, 0.0002788440123895274, 0.0, -0.00034887894423227457, array([[ -2.22792045e-56]])]
[7.199999999999982, 0.6529699437131341, -0.09724307060241699, -3.4193389415740967, 0.0, 8.628283333838933e-05, 0.0, 0.00024181377574386152, 0.0, -0.0002949332041690909, array([[ -1.04767661e-54]])]
[7.249999999999982, 0.6287553910701126, -0.1314416080713272, 0.11226046830415726, 0.0, -0.0249657645233814, 0.0, 0.009722375582646183, 0.0, 0.0005575075141331702, array([[-6120.04085367]])]
[7.299999999999982, 6119.743114213674, -0.1250150054693222, 0.20226021111011505, 0.0, -0.03173770244396192, 0.0, 0.005789567660673826, 0.0, 0.0006188908614490265, array([[-5336.71661629]])]
[7.349999999999982, 5336.400353108932, -0.08889210969209671, 0.9399862885475159, 0.0, -0.019410823052667812, 0.0, 0.004289280463705263, 0.0, 0.0003961281712538568, array([[-2.88870665]])]
[7.399999999999982, 2.830945890483542, -0.05087551102042198, 1.4085782766342163, 0.0, -0.016546685821982064, 0.0, 0.002687482931958484, 0.0, 0.0004605319623063161, array([[ -2.89428213e-05]])]
[7.4499999999999815, -0.11406410529311037, 0.0794709101319313, 2.338813066482544, 0.0, -0.006998322793995604, 0.0, 0.0017561300289993587, 0.0, 0.0005479210763489738, array([[ -4.89363068e-22]])]
[7.499999999999981, -0.249456426595699, 0.15380512177944183, 2.203378438949585, 0.0, -0.004056135278265358, 0.0, 0.0011265201361732552, 0.0, 0.0004895701569139205, array([[ -5.74494438e-19]])]
[7.549999999999981, -0.06989308974374087, 0.285135418176651, 1.579222321510315, 0.0, 0.007354747962180218, 0.0, -0.0011633377391694804, 0.0, 0.00040412772140503695, array([[ -2.15248701e-07]])]
[7.599999999999981, 0.20945304273032866, 0.331889808177948, 1.2728140354156494, 0.0, 0.009667585439321332, 0.0, -0.0015258605759522737, 0.0, 0.000389483724832039, array([[-0.00255901]])]
[7.649999999999981, 0.25050057945024, 0.40115582942962646, 0.7023589611053467, 0.0, 0.01880503179668919, 0.0, -0.003235856017501505, 0.0, 0.00017180366778889744, array([[-268.08313246]])]
[7.699999999999981, 268.39531232148533, 0.42134523391723633, 0.46899160742759705, 0.0, 0.019120431222321356, 0.0, -0.0032794853980672133, 0.0, 0.0001429739968168101, array([[-3193.4429133]])]
[7.7499999999999805, 3193.7575593648453, 0.4650603234767914, 1.0049912929534912, 0.0, 0.012902159622107329, 0.0, -0.001963996244837292, 0.0, 7.853764275256891e-05, array([[-2.03694146]])]
[7.79999999999998, 1.9848879994555433, 0.5566839575767517, 1.9094345569610596, 0.0, 0.00957315064908178, 0.0, -0.0011304008381629344, 0.0, -7.158211087923179e-05, array([[ -5.11771432e-06]])]
[7.84999999999998, -0.296635857751439, 0.6478888392448425, 2.487835168838501, 0.0, 0.0072970727522865255, 0.0, -0.0006833897319965707, 0.0, -0.00012235982074502644, array([[ -2.27925628e-25]])]
[7.89999999999998, -0.6310422389539629, 0.7313231825828552, 2.481313467025757, 0.0, 0.006331943488858218, 0.0, -0.0004132193755507441, 0.0, -0.00016576607542461263, array([[ -2.88977063e-25]])]
[7.94999999999998, -0.49318356733812396, 0.8852919936180115, 1.8725385665893555, 0.0, 0.002804928767576373, 0.0, 0.0006029853109946222, 0.0, -0.00037569464559885566, array([[ -3.02102466e-12]])]
[7.99999999999998, -0.020470884894181227, 0.9424284100532532, 1.5663007497787476, 0.0, 0.0018969612926950253, 0.0, 0.0009193937065135768, 0.0, -0.00036083242688871725, array([[ -2.89219497e-07]])]
[8.04999999999998, 0.192205562229244, 1.0318505764007568, 0.9179151058197021, 0.0, -0.001995795319429797, 0.0, 0.0021610914711600844, 0.0, -0.0004256485128051493, array([[-5.98758286]])]
[8.09999999999998, 6.39924316429424, 1.0589394569396973, 0.6511824131011963, 0.0, -0.002607279124807431, 0.0, 0.002372404847478349, 0.0, -0.00043636302474435576, array([[-274.68921381]])]
[8.14999999999998, 275.1205346429988, 1.1190296411514282, 1.2384427785873413, 0.0, -0.0015416908601018809, 0.0, 0.0019046482989479527, 0.0, -0.00047309176225502833, array([[-0.00417404]])]
[8.199999999999982, 0.051504980390830665, 1.16824209690094, 1.7181521654129028, 0.0, -0.0009189682765990064, 0.0, 0.0016323037370413083, 0.0, -0.00045416602437831256, array([[ -7.34788111e-10]])]
[8.249999999999982, -0.22963193237360122, 1.299238681793213, 1.6362557411193848, 0.0, -0.00046258462487602873, 0.0, 0.0011319911888153934, 0.0, -0.000453846300138723, array([[ -1.10376054e-08]])]
[8.299999999999983, -0.3664545002640164, 1.3499854803085327, 1.3417696952819824, 0.0, -0.00012344103665907642, 0.0, 0.000968703789146685, 0.0, -0.00043172786661841827, array([[-0.00011528]])]
[8.349999999999984, -0.28137159143769047, 1.4260116815567017, 0.6921136379241943, 0.0, 0.0011430281868208085, 0.0, 0.0005175004667598216, 0.0, -0.0004098774412785052, array([[-58.11663005]])]
[8.399999999999984, 58.215486040141066, 1.445949673652649, 0.3849828839302063, 0.0, 0.0014759454725396613, 0.0, 0.00042320671798122864, 0.0, -0.0003859215041528801, array([[-744.5115917]])]
[8.449999999999985, 744.8717510910864, 1.477209210395813, 0.7266078591346741, 0.0, 0.0021392892879245674, 0.0, 0.0002719215310697673, 0.0, -0.0004076065651826891, array([[-31.36344113]])]
[8.499999999999986, 31.762999340323844, 1.5105533599853516, 1.2235925197601318, 0.0, 0.0020067175147001964, 0.0, 0.00021946468924344248, 0.0, -0.00044796959312791, array([[-0.00159779]])]
[8.549999999999986, 0.22702219709950183, 1.6329550743103027, 2.226801633834839, 0.0, 0.0017012658956630023, 0.0, 0.0003849394281251919, 0.0, -0.0003856535446440395, array([[ -2.72015024e-09]])]
[8.599999999999987, 0.022586737936097275, 1.7073235511779785, 2.2368252277374268, 0.0, 0.001636966460147922, 0.0, 0.0003936497239483562, 0.0, -0.00036669268696903066, array([[ -9.57385115e-21]])]
[8.649999999999988, -0.3037743909193128, 1.8503729104995728, 1.7462092638015747, 0.0, 0.0016726507691651603, 0.0, 0.0003411236500709143, 0.0, -0.0003021605993249005, array([[ -1.71986497e-11]])]
[8.699999999999989, -0.28036406640526385, 1.9430992603302002, 1.179057002067566, 0.0, 0.0016509206107121672, 0.0, 0.00031128344869236444, 0.0, -0.00020609409049417718, array([[ -4.13444044e-07]])]
[8.74999999999999, -0.20071745211069086, 1.9856623411178589, 0.7945001125335693, 0.0, 0.00166052129785846, 0.0, 0.00032191441822381443, 0.0, -0.00019816015950163031, array([[-0.93568642]])]
[8.79999999999999, 1.015865375326874, 2.0085394382476807, 0.48699504137039185, 0.0, 0.0016482561441452373, 0.0, 0.0003543770237982405, 0.0, -0.00022746959693927576, array([[-23.10941549]])]
[8.84999999999999, 23.34706339394183, 2.0423498153686523, 0.7255513072013855, 0.0, 0.0014539493957471193, 0.0, 0.0005183843196461023, 0.0, -0.0002111160986963462, array([[-1.73620731]])]
[8.899999999999991, 1.930099600837382, 2.07564115524292, 1.218855381011963, 0.0, 0.001394537836380788, 0.0, 0.00048002920215516477, 0.0, -0.00020087439045446894, array([[ -9.35043940e-05]])]
[8.949999999999992, 0.021123636495803916, 2.1985244750976562, 2.219768762588501, 0.0, 0.001341203639378796, 0.0, 0.00036166657454753543, 0.0, -0.00030329913550439534, array([[ -1.36357257e-21]])]
[8.999999999999993, -0.31442407590629157, 2.271878480911255, 2.149683713912964, 0.0, 0.0013183002002172075, 0.0, 0.0003932020651530206, 0.0, -0.00028591798541957976, array([[ -2.47073086e-20]])]
[9.049999999999994, -0.3165845679125786, 2.405608654022217, 1.5378261804580688, 0.0, 0.0012259785681984433, 0.0, 0.0005645863117313737, 0.0, -0.00044329173582016864, array([[ -8.20007741e-10]])]
[9.099999999999994, -0.22104507493338305, 2.452892303466797, 1.231579303741455, 0.0, 0.0012410675593031166, 0.0, 0.0006629633387450497, 0.0, -0.0004858790481220904, array([[ -4.62095616e-06]])]
[9.149999999999995, -0.156205442616071, 2.5212738513946533, 0.578987181186676, 0.0, 0.0010533941689911863, 0.0, 0.0009951439131482929, 0.0, -0.0005235298823064552, array([[-0.29096771]])]
[9.199999999999996, 0.4133047933594107, 2.537562847137451, 0.27142399549484253, 0.0, 0.0009988446526462574, 0.0, 0.0010794074889186615, 0.0, -0.0004992383528168058, array([[-1.37581438]])]
[9.249999999999996, 1.6566255808001507, 2.5432515144348145, -0.1754560023546219, 0.0, 0.0007924894258075462, 0.0, 0.0015438330020259821, 0.0, -0.0005989695508311934, array([[-0.29379258]])]
[9.299999999999997, 0.7090230739399164, 2.545100688934326, 0.18500131368637085, 0.0, 0.0008195975415200536, 0.0, 0.001496390623880836, 0.0, -0.000564154735938665, array([[-1.38001048]])]
[9.349999999999998, 1.615151234218911, 2.5890767574310303, 0.8180914521217346, 0.0, 0.0008469737552396238, 0.0, 0.0008267445276134919, 0.0, -0.000410666021719067, array([[-0.00820037]])]
[9.399999999999999, 0.05654775641915142, 2.6242213249206543, 1.2456034421920776, 0.0, 0.0007665471420734656, 0.0, 0.0008005340934764841, 0.0, -0.0003631676308235427, array([[ -7.74514104e-07]])]
[9.45, -0.10403288469501296, 2.7250003814697266, 1.171534538269043, 0.0, 0.0010314233018860837, 0.0, 0.00036057810792588705, 0.0, -0.00028894145374087985, array([[ -2.22155346e-06]])]
[9.5, -0.11603667515410851, 2.7612500190734863, 0.8772324323654175, 0.0, 0.001035952850656971, 0.0, 0.00029905513703459683, 0.0, -0.0003090344060413736, array([[-0.00064719]])]
[9.55, -0.08522260272093754, 2.806630849838257, 0.22738470137119293, 0.0, 0.0010342808879231444, 0.0, 0.00012132239306076077, 0.0, -0.00032345649843363786, array([[-0.14511601]])]
[9.600000000000001, 0.22771990650096396, 2.812013626098633, -0.08059343695640564, 0.0, 0.0010286192294650266, 0.0, 8.54767762620986e-05, 0.0, -0.00033746803236602767, array([[-0.05068607]])]
[9.650000000000002, 0.2490124942973747, 2.791990041732788, -0.6569905877113342, 0.0, 0.0009071415905858066, 0.0, 6.365956387778552e-05, 0.0, -0.0003969944738980406, array([[ -2.61498767e-05]])]
[9.700000000000003, 0.3330879806041358, 2.769702434539795, -0.8923754096031189, 0.0, 0.0008907291834801893, 0.0, 8.423575268934802e-05, 0.0, -0.0003410148138058768, array([[ -1.21916213e-07]])]
[9.750000000000004, 0.4101877621941057, 2.6994893550872803, -1.3212974071502686, 0.0, 0.0007603336326613311, 0.0, 0.0002847449275367772, 0.0, -0.00035746564463887457, array([[ -1.11012789e-12]])]
[9.800000000000004, 0.6174372860607579, 2.6570684909820557, -1.4696028232574463, 0.0, 0.0007792760312251338, 0.0, 0.00029304338472577716, 0.0, -0.0003269453938460942, array([[ -5.13777661e-15]])]
[9.850000000000005, 0.7182947503924421, 2.5593819618225098, -1.5808796882629395, 0.0, 0.0007258585910293079, 0.0, 0.0004363072386331993, 0.0, -0.0003302729741391132, array([[ -5.09590413e-16]])]
[9.900000000000006, 0.7456616058672672, 2.5137133598327637, -1.4714977741241455, 0.0, 0.0007422651611010153, 0.0, 0.0004356131755869217, 0.0, -0.0002842452904238564, array([[ -1.89766525e-14]])]
[9.950000000000006, 0.6328206381457041, 2.431586503982544, -1.1454747915267944, 0.0, 0.0007065128737546706, 0.0, 0.0003875283917661157, 0.0, -0.00026328092037425035, array([[ -3.67771253e-09]])]
[10.000000000000007, 0.39107473152248723, 2.399939775466919, -1.030228614807129, 0.0, 0.0007234596942650404, 0.0, 0.0003746113380945639, 0.0, -0.0002976741389160045, array([[ -8.17437906e-08]])]
[10.050000000000008, 0.2899369835013438, 2.335709810256958, -1.127381682395935, 0.0, 0.0006561727915695333, 0.0, 0.00031339663691935506, 0.0, -0.0003722224563310556, array([[ -1.44887972e-08]])]
[10.100000000000009, 0.2792393585639107, 2.2995221614837646, -1.297393560409546, 0.0, 0.0006073936792743924, 0.0, 0.0003263302442804065, 0.0, -0.00034424066387008504, array([[ -5.00535874e-11]])]
[10.15000000000001, 0.36056487550620786, 2.2018096446990967, -1.7417205572128296, 0.0, 0.00039648025120033424, 0.0, 0.00039908279159620854, 0.0, -0.0003169494964064636, array([[ -3.44535069e-17]])]
[10.20000000000001, 0.5352672032900154, 2.145397186279297, -1.9262069463729858, 0.0, 0.0003979660993004327, 0.0, 0.00045203196908910094, 0.0, -0.0002929992531131132, array([[ -1.78700489e-22]])]
[10.25000000000001, 0.5800101056731491, 2.0155298709869385, -2.1142935752868652, 0.0, 0.00047456071792310184, 0.0, 0.0003529387751208151, 0.0, -0.0002559162261863528, array([[ -1.34724169e-23]])]
[10.300000000000011, 0.5504577457395196, 1.8943593502044678, -2.150724411010742, 0.0, 0.0005426676652699864, 0.0, 0.00032828031268887015, 0.0, -0.00031205050247691465, array([[  1.52017843e-24]])]
[10.350000000000012, 0.45579338330078123, 1.8114253282546997, -2.1930935382843018, 0.0, 0.000459222950385498, 0.0, 0.0003560051216845196, 0.0, -0.0003553847947998293, array([[ -1.68400691e-24]])]
[10.400000000000013, 0.3842083713906854, 1.7428762912750244, -2.2656517028808594, 0.0, 0.0004193417878580049, 0.0, 0.0003645735263952371, 0.0, -0.0003467921398636391, array([[  2.46873848e-26]])]
[10.450000000000014, 0.3406546802116781, 1.5856268405914307, -2.5559167861938477, 0.0, 0.00032919894342464906, 0.0, 0.00035620305526143847, 0.0, -0.00030702329731440966, array([[ -2.57488543e-32]])]
[10.500000000000014, 0.3679860266857445, 1.5033999681472778, -2.7329494953155518, 0.0, 0.0003416251167297398, 0.0, 0.00035526966739911456, 0.0, -0.0002470041340074687, array([[  5.38448794e-37]])]
[10.550000000000015, 0.408682771322295, 1.3095526695251465, -3.1185402870178223, 0.0, 0.0003440199545131959, 0.0, 0.0003529957705087689, 0.0, -0.0001335447874407801, array([[ -1.40396465e-47]])]
[10.600000000000016, 0.5477667843337058, 1.209476351737976, -3.2794291973114014, 0.0, 0.00036360911398604107, 0.0, 0.0003607272432618326, 0.0, -0.00010471148082145694, array([[  1.30159245e-52]])]
[10.650000000000016, 0.6142497275335789, 0.9871582388877869, -3.4731595516204834, 0.0, 0.00031628618864638686, 0.0, 0.00030055489399775237, 0.0, -2.0435837181172493e-05, array([[ -1.17847440e-58]])]
[10.700000000000017, 0.6964432208356112, 0.8791075348854065, -3.486541748046875, 0.0, 0.0002488484259541943, 0.0, 0.00029308890052000036, 0.0, -3.9328688162650955e-05, array([[  8.20430776e-59]])]
[10.750000000000018, 0.6916155502146035, 0.6515774726867676, -3.3886055946350098, 0.0, 0.00030268964181054614, 0.0, 0.00036868747635180373, 0.0, 4.3298464423997053e-05, array([[ -5.19768785e-55]])]
[10.800000000000018, 0.6185738446773439, 0.5470757484436035, -3.316047191619873, 0.0, 0.0002724555484085862, 0.0, 0.00035922504131902884, 0.0, 4.615758753698557e-05, array([[  3.98374283e-52]])]
[10.85000000000002, 0.5629594159656017, 0.33131709694862366, -3.239048480987549, 0.0, 0.00032601293276812585, 0.0, 0.0002776388843529233, 0.0, -1.4368964895603975e-05, array([[ -1.62463258e-49]])]
[10.90000000000002, 0.5018834545190483, 0.2297690361738205, -3.264667272567749, 0.0, 0.00029599169813969564, 0.0, 0.0002472734522103964, 0.0, -3.663116183769311e-05, array([[  7.35180055e-50]])]
[10.95000000000002, 0.5157524131067395, 0.009470189921557903, -3.4076621532440186, 0.0, 7.507490980904675e-05, 0.0, 0.0002958839189689015, 0.0, -9.414495041753268e-05, array([[ -5.19385340e-55]])]
[11.000000000000021, 0.6227160778447687, -0.09851425141096115, -3.491004467010498, 0.0, 9.890443185378963e-05, 0.0, 0.0003047956122567544, 0.0, -0.00011706886928018182, array([[  2.66500272e-57]])]
[11.050000000000022, 0.6920706560409218, -0.23121832311153412, -0.07009276747703552, 0.0, -0.02223737469398304, 0.0, 0.021154241431720584, 0.0, 0.0003500098445406601, array([[-4946.4537617]])]
[11.100000000000023, 4946.269671665293, -0.22795897722244263, 0.051534462720155716, 0.0, -0.0238574836733545, 0.0, 0.014595003216381186, 0.0, 0.0003920604503920389, array([[-7082.78886611]])]
[11.150000000000023, 7082.585100471924, -0.1955094337463379, 0.8085131645202637, 0.0, -0.020278207708665924, 0.0, 0.0073332713921746605, 0.0, 0.00015114306715381955, array([[-28.85217749]])]
[11.200000000000024, 28.464690401723495, -0.1592172384262085, 1.2628324031829834, 0.0, -0.013800042094034482, 0.0, 0.005105958149059616, 0.0, 5.96011183539304e-05, array([[-0.00179783]])]
[11.250000000000025, -0.44233339235250146, -0.03275816887617111, 2.1831650733947754, 0.0, -0.008807634319138198, 0.0, 0.002461117205291372, 0.0, 0.0001451065861288349, array([[ -1.51059886e-18]])]
[11.300000000000026, -0.5761705731558352, 0.038919318467378616, 2.048628091812134, 0.0, -0.005323084508757285, 0.0, 0.0022101623786853234, 0.0, 0.0002474211412535615, array([[ -1.00147201e-15]])]
[11.350000000000026, -0.39345179656051743, 0.164385125041008, 1.424852728843689, 0.0, 0.009460255818902637, 0.0, 0.001681348584705975, 0.0, 0.00041315752034691827, array([[ -3.55670278e-05]])]
[11.400000000000027, -0.007858235616009948, 0.2079978883266449, 1.1189067363739014, 0.0, 0.01320226155869734, 0.0, 0.0014958803166656045, 0.0, 0.0004273905325204079, array([[-0.12826559]])]
[11.450000000000028, 0.2821375909512906, 0.2704082131385803, 0.4677726924419403, 0.0, 0.028286884080007506, 0.0, 0.0003891425370598616, 0.0, 0.000560717971845266, array([[-3966.56972986]])]
[11.500000000000028, 3967.0114084626816, 0.28440988063812256, 0.2125031054019928, 0.0, 0.03191563166230464, 0.0, 8.288941488962287e-05, 0.0, 0.0006169980979884915, array([[-18980.09682762]])]
[11.55000000000003, 18980.644440893564, 0.31462907791137695, 0.7472758889198303, 0.0, 0.0241065954573048, 0.0, -0.0002667945232199253, 0.0, 0.0006815515611564038, array([[-348.53938743]])]
[11.60000000000003, 348.7476544676089, 0.3492392599582672, 1.2292121648788452, 0.0, 0.019983555792770013, 0.0, -0.0002631439641033004, 0.0, 0.0006781604916310327, array([[-0.01997484]])]
[11.65000000000003, -0.04720174594825964, 0.4734885096549988, 2.182980537414551, 0.0, 0.012920126398770914, 0.0, -0.00014546562555050224, 0.0, 0.00019521579782107084, array([[ -6.17305647e-18]])]
[11.700000000000031, -0.5041821820115595, 0.5448361039161682, 2.050161838531494, 0.0, 0.010360130336216617, 0.0, -0.00011483197588121851, 0.0, 4.4755775147035054e-05, array([[ -3.07348231e-15]])]
[11.750000000000032, -0.4388700581988512, 0.669603168964386, 1.4260083436965942, 0.0, -0.00017321435337197183, 0.0, 0.00032397698893655555, 0.0, -0.00048033354334949316, array([[ -9.45548465e-05]])]
[11.800000000000033, -0.056469552622353245, 0.7129500508308411, 1.1191896200180054, 0.0, -0.002853524964306777, 0.0, 0.00033134108651503165, 0.0, -0.0005912035645549055, array([[-0.29741374]])]
[11.850000000000033, 0.49582911952314335, 0.775903046131134, 0.48648831248283386, 0.0, -0.013443122623306365, 0.0, 0.0004045069465899061, 0.0, -0.0010427581000262633, array([[-6063.64629993]])]
[11.900000000000034, 6064.238471146713, 0.792811393737793, 0.3659103810787201, 0.0, -0.015316654902285527, 0.0, 0.00044356600653639545, 0.0, -0.0011354103458344558, array([[-12465.60470014]])]
[11.950000000000035, 12466.2844360842, 0.8377246260643005, 0.9668256044387817, 0.0, -0.009117029101715437, 0.0, 0.0001894645928700807, 0.0, -0.0012391510027818578, array([[-10.51387844]])]
[12.000000000000036, 10.875705904959169, 0.8797537684440613, 1.454136610031128, 0.0, -0.007759620347560946, 0.0, 0.00015074261287787759, 0.0, -0.0012317035579242496, array([[ -3.74983914e-05]])]
[12.050000000000036, 0.10015748808786379, 1.0196137428283691, 2.36049485206604, 0.0, -0.003484288277423929, 0.0, 0.00016614364237789952, 0.0, -0.0009820596046283252, array([[ -5.35018200e-22]])]
[12.100000000000037, -0.41647234208773065, 1.0967401266098022, 2.2228784561157227, 0.0, -0.00253380571609845, 0.0, 0.00014474344738932607, 0.0, -0.0008969847675884621, array([[ -5.23818602e-19]])]
[12.150000000000038, -0.457653261407122, 1.2349411249160767, 1.61618971824646, 0.0, 0.0007178143146319242, 0.0, 0.0003019449812717587, 0.0, -0.0005424059055212647, array([[ -8.96906341e-08]])]
[12.200000000000038, -0.2870249052186226, 1.2846786975860596, 1.3102091550827026, 0.0, 0.0014197087065291087, 0.0, 0.0003843518024568326, 0.0, -0.00044614669869540223, array([[-0.00105615]])]
[12.250000000000039, -0.13399143579000908, 1.3608437776565552, 0.6588565111160278, 0.0, 0.004394160784743938, 0.0, 0.0007120384083230294, 0.0, -7.295140335453619e-05, array([[-356.51435243]])]
[12.30000000000004, 356.7803823249489, 1.3807860612869263, 0.35214763879776, 0.0, 0.005336250841561237, 0.0, 0.00078674961895135, 0.0, 6.0346306039342564e-05, array([[-3257.72849687]])]
[12.35000000000004, 3258.19281296803, 1.3973441123962402, 0.20243698358535767, 0.0, 0.007501709726069487, 0.0, 0.0009778586769340195, 0.0, 0.0004022955575788167, array([[-5303.02345]])]
[12.400000000000041, 5303.589362694141, 1.4149582386016846, 0.6835815906524658, 0.0, 0.006564264684306489, 0.0, 0.0008175591297924894, 0.0, 0.0003898464042407775, array([[-199.81968594]])]
[12.450000000000042, 200.18848742098547, 1.5053104162216187, 1.722190499305725, 0.0, 0.004452498393100673, 0.0, 0.0004941913888724308, 0.0, 0.0002876994684362356, array([[ -7.51173679e-10]])]
[12.500000000000043, -0.18686845615398268, 1.5713940858840942, 2.1890885829925537, 0.0, 0.004048870862143284, 0.0, 0.00043441130436834785, 0.0, 0.000224426778495183, array([[ -6.29167451e-19]])]
[12.550000000000043, -0.4604254884798228, 1.7378309965133667, 2.157661199569702, 0.0, 0.0019194940418924347, 0.0, 0.0004118463900643948, 0.0, 0.00015726591372102258, array([[ -1.55769117e-18]])]
[12.600000000000044, -0.5317621283753663, 1.8054286241531372, 1.860725998878479, 0.0, 0.0014634776416333362, 0.0, 0.0004949359105362354, 0.0, 0.00013894103898915905, array([[ -6.58816665e-13]])]
[12.650000000000045, -0.40437348456446504, 1.919850468635559, 1.2106271982192993, 0.0, -0.0006019698632032267, 0.0, 0.0009310616021081154, 0.0, 0.00012523309717714682, array([[-0.00107581]])]
[12.700000000000045, -0.0020936784352112575, 1.9576632976531982, 0.9038601517677307, 0.0, -0.0010043703474392402, 0.0, 0.0010129359686201845, 0.0, 0.00014177911723804013, array([[-0.54664625]])]
[12.750000000000046, 0.7916220977963792, 2.0064001083374023, 0.29240065813064575, 0.0, -0.002904868518495745, 0.0, 0.0014166760703314227, 0.0, 0.0001447821774760938, array([[-217.60826123]])]
[12.800000000000047, 218.21217156687072, 2.020658254623413, 0.40401414036750793, 0.0, -0.003183836073580632, 0.0, 0.0014914445449263963, 0.0, 0.00013805925457101894, array([[-111.91874625]])]
[12.850000000000048, 112.46045052659066, 2.0811758041381836, 1.2455592155456543, 0.0, -0.0011413421301814896, 0.0, 0.0009414576827924886, 0.0, 7.979464876545523e-05, array([[-0.00016189]])]
[12.900000000000048, 0.06658022858901638, 2.1895320415496826, 2.136230230331421, 0.0, -0.0004620821935353045, 0.0, 0.0008033991489585319, 0.0, 0.0001313968504250078, array([[ -1.91116195e-11]])]
[12.950000000000049, -0.2104082331297165, 2.2809159755706787, 2.0996816158294678, 0.0, 0.0001840150062658725, 0.0, 0.0006570759820975959, 0.0, 0.00013577331024208517, array([[ -9.12774538e-19]])]
[13.00000000000005, -0.5245949144445807, 2.3994853496551514, 1.5698301792144775, 0.0, 0.0008131505132343861, 0.0, 0.000562619313119517, 0.0, 0.00018752936033879222, array([[ -6.93984209e-14]])]
[13.05000000000005, -0.5153513272692761, 2.460845470428467, 1.1882131099700928, 0.0, 0.0011983433427056947, 0.0, 0.0004749648740849066, 0.0, 0.00016668037397366358, array([[ -4.57704635e-05]])]
[13.100000000000051, -0.27724608278225266, 2.4983742237091064, 0.8814244270324707, 0.0, 0.001350383680678452, 0.0, 0.0004640375171408392, 0.0, 0.0001855908943284458, array([[-0.01805822]])]
[13.150000000000052, 0.014920290913738185, 2.5460193157196045, 0.22986632585525513, 0.0, 0.002150506437285761, 0.0, 0.00044240656042049745, 0.0, 0.00012202727378108312, array([[-4.72168325]])]
[13.200000000000053, 5.206029067598092, 2.5525588989257812, -0.07553726434707642, 0.0, 0.002283042162793944, 0.0, 0.0004953356105515216, 0.0, 7.676698463692611e-05, array([[-1.58815492]])]
[13.250000000000053, 2.239024882244432, 2.5601322650909424, 0.37418636679649353, 0.0, 0.0019259028479421854, 0.0, 0.0003832397785178935, 0.0, 4.108291663706145e-05, array([[-2.8184352]])]
[13.300000000000054, 3.167662438845705, 2.5838444232940674, 0.8786687254905701, 0.0, 0.0016995484607139812, 0.0, 0.0003790776681314399, 0.0, 1.2544721428433382e-05, array([[-0.00913911]])]
[13.350000000000055, 0.07585567445297223, 2.6869983673095703, 1.8975244760513306, 0.0, 0.0013760604917182522, 0.0, 0.00034400753156621917, 0.0, -4.3343163657000917e-05, array([[ -3.03836905e-16]])]
[13.400000000000055, -0.4930211289638277, 2.7514517307281494, 1.8504750728607178, 0.0, 0.0012449454939203945, 0.0, 0.0003306183676236774, 0.0, -1.7748760604163664e-05, array([[ -1.07878421e-15]])]
[13.450000000000056, -0.5699625539694109, 2.867496967315674, 1.256027102470398, 0.0, 0.0007796206426520235, 0.0, 0.0005855879841238638, 0.0, -5.127518800434e-05, array([[ -2.25036584e-07]])]
[13.500000000000057, -0.4817564383358138, 2.906520128250122, 0.9509443640708923, 0.0, 0.0006497833645862817, 0.0, 0.0006587932483585856, 0.0, -0.00011080076898073644, array([[-0.00013419]])]
[13.550000000000058, -0.3556305722689999, 2.9572622776031494, 0.2989576756954193, 0.0, 0.0001194401615284552, 0.0, 0.0011052857684754579, 0.0, -0.000170460165379776, array([[-0.09553257]])]
[13.600000000000058, 0.07204259950758615, 2.9653687477111816, -0.008036497980356216, 0.0, -4.7412329604090806e-05, 0.0, 0.001226932844433313, 0.0, -0.00017578146894415954, array([[-0.0517494]])]
[13.650000000000059, 0.20964243958534082, 2.9505679607391357, -0.6377214193344116, 0.0, -0.0006073900722137788, 0.0, 0.0016955808715596716, 0.0, -0.00019784656195033463, array([[ -2.16384390e-05]])]
[13.70000000000006, 0.4239379729354624, 2.92891001701355, -0.894076406955719, 0.0, -0.0006870255524094109, 0.0, 0.0016933032245780143, 0.0, -0.00023188367649527782, array([[ -4.78522510e-08]])]
[13.75000000000006, 0.4785818219785124, 2.860145330429077, -1.2612615823745728, 0.0, -0.0004518486087644112, 0.0, 0.0013858177939317009, 0.0, -0.0002820226996208093, array([[ -1.57986105e-12]])]
[13.800000000000061, 0.5069864799823763, 2.8209388256073, -1.3573611974716187, 0.0, -0.0003677115032994321, 0.0, 0.0012048215012045716, 0.0, -0.0002549571117194128, array([[  2.02696444e-14]])]
[13.850000000000062, 0.46234163633343034, 2.7324750423431396, -1.5249040126800537, 0.0, 0.00021837797561409086, 0.0, 0.0006097305428377984, 0.0, -0.00026604863983468357, array([[ -1.56765112e-16]])]
[13.900000000000063, 0.40510217399489895, 2.686457633972168, -1.6180641651153564, 0.0, 0.00023385391088070098, 0.0, 0.0004279955196910373, 0.0, -0.00023066179773606444, array([[  3.86271570e-17]])]
[13.950000000000063, 0.3698275021857917, 2.577543258666992, -1.8810408115386963, 0.0, 0.0005065992493744188, 0.0, 0.00020787680377791897, 0.0, -0.00020385379216737316, array([[  3.08699009e-22]])]
[14.000000000000064, 0.37172471556784215, 2.5187206268310547, -2.0356287956237793, 0.0, 0.0005158573035296354, 0.0, 0.0001979687820166659, 0.0, -0.00020823865755162558, array([[  6.78499052e-24]])]
[14.050000000000065, 0.37765751743024584, 2.377070903778076, -2.392922878265381, 0.0, 0.0004428267919127644, 0.0, 3.084654128124774e-05, 0.0, -8.285387221331892e-05, array([[  3.25899744e-32]])]
[14.100000000000065, 0.44894065162749586, 2.301642417907715, -2.5619473457336426, 0.0, 0.0004686718585562453, 0.0, 2.6336343491135102e-05, 0.0, -4.4248018269907736e-05, array([[  6.33699664e-35]])]
[14.150000000000066, 0.47182785587519405, 2.1254379749298096, -2.859651565551758, 0.0, 0.0005055998426216462, 0.0, 0.00023269891412188302, 0.0, 7.9547780528537e-05, array([[  5.05641032e-43]])]
[14.200000000000067, 0.5277332361994683, 2.035946846008301, -2.9724457263946533, 0.0, 0.00046120762873338577, 0.0, 0.00021061142366014682, 0.0, 5.222636493704617e-05, array([[  3.99658226e-45]])]
[14.250000000000068, 0.5303459173497408, 1.8391592502593994, -3.1494855880737305, 0.0, 0.0004633373096781647, 0.0, 0.00017753791465596026, 0.0, 9.487153667517094e-05, array([[  2.33289648e-50]])]
[14.300000000000068, 0.5356616152641176, 1.7421034574508667, -3.2172186374664307, 0.0, 0.0004752555388912063, 0.0, 0.00012011395558546897, 0.0, 0.00011306638716792477, array([[  1.46573777e-51]])]
[14.350000000000069, 0.5299898953708558, 1.529492735862732, -3.3582065105438232, 0.0, 0.0005136800857155189, 0.0, 0.0003369216553440578, 0.0, 0.00013858108716776165, array([[  6.15561368e-56]])]
[14.40000000000007, 0.543945343778789, 1.4253703355789185, -3.4267427921295166, 0.0, 0.0004461114651352565, 0.0, 0.0003429434682818172, 0.0, 0.0001112598789824396, array([[  1.77495669e-57]])]
[14.45000000000007, 0.5584820124351978, 1.1970374584197998, -3.562819719314575, 0.0, 0.00018934208458250623, 0.0, 0.000287717186109083, 0.0, 0.0001567292170061474, array([[  5.51707179e-62]])]
[14.500000000000071, 0.6066671575198321, 1.0861070156097412, -3.61413836479187, 0.0, 0.00020218087495547541, 0.0, 0.000249571400004879, 0.0, 0.0001066567532444422, array([[  3.66767644e-63]])]
[14.550000000000072, 0.6311022962827681, 0.8468593955039978, -3.6635570526123047, 0.0, 0.00024152811659728426, 0.0, 0.00020855618882129935, 0.0, 6.889313480736477e-05, array([[  1.06465045e-64]])]
[14.600000000000072, 0.6655242510950415, 0.7330570816993713, -3.6596813201904297, 0.0, 0.000246054785198807, 0.0, 0.0001807959833279122, 0.0, 5.388591389401694e-05, array([[  5.79317435e-64]])]
[14.650000000000073, 0.6619197996574342, 0.496623158454895, -3.591069221496582, 0.0, 0.00021330535067607255, 0.0, 0.000239583519347698, 0.0, 0.0001319451845688393, array([[  3.25563224e-61]])]
[14.700000000000074, 0.6517364020554125, 0.38636231422424316, -3.5502121448516846, 0.0, 0.00024183884457006823, 0.0, 0.00022991461199998276, 0.0, 0.0001090195485552203, array([[  3.01101693e-59]])]
[14.750000000000075, 0.6366242079073487, 0.15638801455497742, -3.472622871398926, 0.0, 0.00033121647260236903, 0.0, 0.0002607763148829097, 0.0, -5.095449870437819e-05, array([[  2.23094553e-56]])]
[14.800000000000075, 0.6161070702660232, 0.04917953535914421, -3.445953130722046, 0.0, 0.0003315106122852987, 0.0, 0.0002723595957718776, 0.0, -5.407140935216928e-05, array([[  4.57478821e-55]])]
[14.850000000000076, 0.6119441952743306, -0.17638984322547913, -3.4226672649383545, 0.0, 0.00018502251977567844, 0.0, 0.0001609511409409313, 0.0, 2.0413963101009587e-05, array([[  2.79519737e-54]])]
[14.900000000000077, 0.6304751694639921, -0.28269174695014954, -3.423459053039551, 0.0, 0.0001399804340102468, 0.0, 0.00020373921957969092, 0.0, 4.991612502637733e-05, array([[  4.97423806e-54]])]
[14.950000000000077, 0.6505214782663136, -0.3083779513835907, -0.04035045951604843, 0.0, -0.0007691721447340578, 0.0, -0.004624946694535708, 0.0, -3.5816397577540596e-05, array([[ 3013.50321853]])]
[15.000000000000078, -3013.707648696185, -0.3052998185157776, 0.03396221622824669, 0.0, -0.0008509988888566485, 0.0, -0.005550460005457083, 0.0, -0.00019960676011475322, array([[ 6034.72301748]])]
[15.050000000000079, -6034.933939826699, -0.30070582032203674, -0.34010329842567444, 0.0, 0.00028087985594215276, 0.0, -0.003572566366541993, 0.0, -0.0007471764736667912, array([[ 2389.28419555]])]
[15.10000000000008, -2388.8379997716384, -0.3123249411582947, -0.6414875388145447, 0.0, 0.0006062731260574944, 0.0, -0.0028762335559854284, 0.0, -0.000878285941675062, array([[ 215.76445323]])]
[15.15000000000008, -215.07410406039048, -0.3165459632873535, -0.15286117792129517, 0.0, 0.0010338190139227083, 0.0, -0.0022809950036078728, 0.0, -0.0009300963419197379, array([[ 1031.16387955]])]
[15.200000000000081, -1030.445959957605, -0.31826135516166687, -0.1536959558725357, 0.0, 0.0010523376760068217, 0.0, -0.002255620998290651, 0.0, -0.0008930148604907322, array([[-2086.86110864]])]
[15.250000000000082, 2087.6610754826647, -0.3208827078342438, -0.1387758105993271, 0.0, 0.00117688901891711, 0.0, -0.002328803504097306, 0.0, -0.0007932260686441792, array([[-12343.94519855]])]
[15.300000000000082, 12344.709963134157, -0.31672558188438416, 0.2486891746520996, 0.0, 0.0012596249855674126, 0.0, -0.002188848620958875, 0.0, -0.0008009892199896163, array([[-8234.85089692]])]
[15.350000000000083, 8235.386191873215, -0.25594890117645264, 1.3158107995986938, 0.0, 0.0010353118594715386, 0.0, -0.0011685716043282955, 0.0, -0.00041153681361104404, array([[-0.00096026]])]
[15.400000000000084, -0.03453336277050162, -0.20298652350902557, 1.7975189685821533, 0.0, 0.0011748335973450616, 0.0, -0.0009789974625277536, 0.0, -0.0003037795746166746, array([[ -7.43668431e-11]])]
[15.450000000000085, -0.3144753314437915, -0.05957014113664627, 1.777759075164795, 0.0, 0.0009106608288174801, 0.0, -0.0005023577795883073, 0.0, 4.8914493611812584e-05, array([[ -2.73778991e-10]])]
