time, uz, alt, vel_alt, uthe, roll, uphi, pitch, upsi, yaw, F
[0.0, 0.0, 0.011337987147271633, 0.035714443773031235, 0.0, -0.004039044629122153, 0.0, 0.01772022737729133, 0.0, -0.09379847076059579, array([[ 8.5737886]])]
[0.05, -8.577057161016338, 0.011337987147271633, 0.035714443773031235, 0.0, -0.004039044629122153, 0.0, 0.01772022737729133, 0.0, -0.09379847076059579, array([[ 21.12080196]])]
[0.1, -21.123895109399122, 0.011621402576565742, 0.03420262783765793, 0.0, -0.00410406095988599, 0.0, 0.017671397986921484, 0.0, -0.09378931570059998, array([[ 38.04806427]])]
[0.15000000000000002, -38.04943278591037, 0.01179531030356884, 0.033802591264247894, 0.0, -0.004151239085313666, 0.0, 0.01769533747821004, 0.0, -0.09381832240769677, array([[-334.57731514]])]
[0.2, 334.69171865687014, 0.011997040361166, 0.03334261476993561, 0.0, -0.00415411048403948, 0.0, 0.017777474131028623, 0.0, -0.09383129258637155, array([[-2150.97786581]])]
[0.25, 2151.3916107978453, 0.013097744435071945, 0.16952285170555115, 0.0, -0.0042313337345309485, 0.0, 0.016654825045285006, 0.0, -0.09307927925386165, array([[-4710.60949863]])]
[0.3, 4711.109803581888, 0.058132901787757874, 1.163068413734436, 0.0, -0.004660276943702069, 0.0, 0.009859588666854298, 0.0, -0.08459474461924224, array([[-0.01392658]])]
[0.35, 0.38931262660577404, 0.09574584662914276, 1.5813467502593994, 0.0, -0.003871713454141257, 0.0, 0.00775075454404909, 0.0, -0.07511948305646625, array([[ -5.34594243e-08]])]
[0.39999999999999997, 0.7014557695254868, 0.16725847125053406, 1.9133872985839844, 0.0, -0.003283489562051973, 0.0, 0.006647983336485344, 0.0, -0.07014176443483612, array([[ -2.01391591e-13]])]
[0.44999999999999996, 1.1014600305559266, 0.27739304304122925, 1.8451905250549316, 0.0, -0.0010393875468940278, 0.0, 0.0022660162452886787, 0.0, -0.05137325223792577, array([[ -3.29780223e-12]])]
[0.49999999999999994, 1.558419997039755, 0.4282461702823639, 2.572129487991333, 0.0, 0.00019984366815485615, 0.0, 0.0013082975824639615, 0.0, -0.039442865924470494, array([[ -6.24586734e-28]])]
[0.5499999999999999, 0.9261802321970464, 0.5045737028121948, 2.952043294906616, 0.0, 0.000461118267212442, 0.0, 0.0009701138271959802, 0.0, -0.03403761755231991, array([[ -1.37892183e-38]])]
[0.6, 0.39402941823005677, 0.7475603818893433, 3.806257724761963, 0.0, 0.0006257434959184206, 0.0, 0.0007774324452561833, 0.0, -0.028249033198542675, array([[ -4.98090948e-68]])]
[0.65, -0.1909072070121765, 0.8545426726341248, 3.849395990371704, 0.0, 0.0004467446377572611, 0.0, 0.0006600567726438954, 0.0, -0.02478275134293956, array([[ -7.04125006e-70]])]
[0.7000000000000001, -0.4668417301774026, 1.1146399974822998, 3.336653232574463, 0.0, 0.0001946821989805024, 0.0, 0.0005612371363590481, 0.0, -0.0196716295102668, array([[ -4.09017348e-51]])]
[0.7500000000000001, 0.5433144099116326, 1.2035579681396484, 3.0705745220184326, 0.0, 9.80292315858862e-05, 0.0, 0.0005877840088077351, 0.0, -0.01657289231225769, array([[ -1.23175263e-42]])]
[0.8000000000000002, 1.2207086676359178, 1.4092661142349243, 2.811004161834717, 0.0, 2.2777137352996902e-05, 0.0, 0.0004903098092089298, 0.0, -0.012496279802993674, array([[ -4.16708151e-35]])]
[0.8500000000000002, 1.7967545013427737, 1.4904106855392456, 3.0822157859802246, 0.0, 0.0002580821804380768, 0.0, 0.0005545565103671268, 0.0, -0.010007402364400595, array([[ -1.99316274e-43]])]
[0.9000000000000002, 1.7114586834907535, 1.7438713312149048, 4.006798267364502, 0.0, 0.0002218766538040378, 0.0, 0.0002308811016405653, 0.0, -0.007940714522062953, array([[ -2.12251364e-77]])]
[0.9500000000000003, 0.5992903767824174, 1.8601709604263306, 4.355082035064697, 0.0, 0.00024206603838067633, 0.0, 0.00032649880275842727, 0.0, -0.007070445966698243, array([[ -8.13223457e-93]])]
[1.0000000000000002, -0.15110372960567478, 2.1950292587280273, 4.800353050231934, 0.0, 0.00014131655506689414, 0.0, 0.00024832821824166934, 0.0, -0.02006356632397068, array([[ -8.94656172e-115]])]
[1.0500000000000003, -1.0403941159248353, 2.3841311931610107, 4.617635250091553, 0.0, 3.8566284951257465e-05, 0.0, 0.0002579441768646845, 0.0, -0.019232657364107942, array([[ -1.61284094e-106]])]
[1.1000000000000003, -1.2823195109367374, 2.6443827152252197, 4.062095642089844, 0.0, -0.00010341770431850662, 0.0, 0.00031199956826764776, 0.0, -0.0173697083817553, array([[ -2.30326337e-82]])]
[1.1500000000000004, -0.8715711483955384, 2.799023151397705, 3.6790058612823486, 0.0, -0.00020210696963609352, 0.0, 0.0004170628176977322, 0.0, -0.015803251549062366, array([[ -8.51064700e-68]])]
[1.2000000000000004, -0.20563901829719544, 3.0018928050994873, 3.102647304534912, 0.0, -0.0002535351162752687, 0.0, 0.0005480146411797679, 0.0, -0.013590425147165712, array([[ -1.40440412e-48]])]
[1.2500000000000004, 0.37095273256301886, 3.08455491065979, 2.8337960243225098, 0.0, -0.00031066426020773626, 0.0, 0.0006197856354003662, 0.0, -0.012071027105365938, array([[ -5.73831087e-41]])]
[1.3000000000000005, 0.8626470997333526, 3.2672500610351562, 2.331758499145508, 0.0, -0.00044133116981628657, 0.0, 0.0007562286080409661, 0.0, -0.009952512563504493, array([[ -9.88700598e-29]])]
[1.3500000000000005, 1.0536864054203035, 3.3332808017730713, 2.4373204708099365, 0.0, -0.00040968342741344235, 0.0, 0.0007871363227691362, 0.0, -0.008568811298805481, array([[ -1.16038193e-31]])]
[1.4000000000000006, 0.6189333362579346, 3.536200761795044, 3.282395839691162, 0.0, -0.00027793244089525324, 0.0, 0.0006154690467383862, 0.0, -0.006694366130089636, array([[ -5.29175176e-57]])]
[1.4500000000000006, -0.701092251777649, 3.6315715312957764, 3.491265296936035, 0.0, -0.00011027952501225386, 0.0, 0.0006632716206199121, 0.0, -0.005459914696484467, array([[ -7.56420774e-65]])]
[1.5000000000000007, -1.1593213540315628, 3.877556085586548, 3.166180372238159, 0.0, 5.160767861396704e-05, 0.0, 0.0007724689249036619, 0.0, -0.0038283495555655, array([[ -4.27604859e-55]])]
[1.5500000000000007, -1.3663360759019854, 3.9622068405151367, 2.903242349624634, 0.0, 0.00015691571069633524, 0.0, 0.0009052247776167027, 0.0, -0.0029592290579089835, array([[ -1.29515018e-47]])]
[1.6000000000000008, -1.4420783543586733, 4.145908832550049, 2.214609146118164, 0.0, 0.00037653832222006383, 0.0, 0.0010607263624180787, 0.0, -0.0019397360106590327, array([[ -5.20821178e-31]])]
[1.6500000000000008, -1.363071902513504, 4.203598499298096, 1.9460164308547974, 0.0, 0.0005540636509360923, 0.0, 0.001241721086814888, 0.0, -0.0012813419995563427, array([[ -5.27183643e-26]])]
[1.7000000000000008, -0.911503431916237, 4.317473888397217, 1.2543710470199585, 0.0, 0.0006965020049063685, 0.0, 0.001452223907833613, 0.0, -0.0002817096572008854, array([[ -3.94886863e-16]])]
[1.7500000000000009, -0.6140624838471409, 4.348201274871826, 0.985611617565155, 0.0, 0.0007787251156177303, 0.0, 0.0015285158551358459, 0.0, 0.00028854251604225036, array([[ -9.24697210e-14]])]
[1.800000000000001, -0.10183552253237062, 4.393160343170166, 0.2958241105079651, 0.0, 0.0009235985349207519, 0.0, 0.0018141804917222856, 0.0, 0.0011985676639771703, array([[ -1.19730207e-10]])]
[1.850000000000001, 0.09691168183140396, 4.397134780883789, 0.027355024591088295, 0.0, 0.0009895575661885518, 0.0, 0.0020342334045814884, 0.0, 0.001842993737207986, array([[ -6.88787982e-11]])]
[1.900000000000001, 0.35514153080057176, 4.373629093170166, -0.6313530206680298, 0.0, 0.00114233944175588, 0.0, 0.002287226048460131, 0.0, 0.002673672319633771, array([[ -4.03930745e-14]])]
[1.950000000000001, 0.4231485577524113, 4.3527631759643555, -0.8185601830482483, 0.0, 0.0010812800116765582, 0.0, 0.0022484357000168726, 0.0, 0.0029895991107606523, array([[ -6.71113615e-16]])]
[2.000000000000001, 0.6488630900979049, 4.280203342437744, -1.136906623840332, 0.0, 0.0008840588775680683, 0.0, 0.001712562924627899, 0.0, 0.003203330016120102, array([[ -3.62554026e-19]])]
[2.0500000000000007, 1.1016093576550483, 4.247861862182617, -1.12110435962677, 0.0, 0.0007355197275543733, 0.0, 0.0012438754656479217, 0.0, 0.0030971568804094465, array([[ -7.81639269e-19]])]
[2.1000000000000005, 1.5167289683371783, 4.187000274658203, -0.33195993304252625, 0.0, 0.00039934295698515487, 0.0, 0.0008818045540364669, 0.0, 0.002561103791294088, array([[ -9.64394860e-11]])]
[2.1500000000000004, 1.127825530834078, 4.1863908767700195, 0.32896989583969116, 0.0, 0.0002745382344142496, 0.0, 0.0006730968129027773, 0.0, 0.002215668366847559, array([[ -1.82193608e-09]])]
[2.2, 0.37156484207910395, 4.234553813934326, 1.2607495784759521, 0.0, 0.00018170561136546045, 0.0, 0.0005537578812459357, 0.0, 0.0014710598110938607, array([[ -1.07176665e-15]])]
[2.25, -0.40699971094727416, 4.271066188812256, 1.3177253007888794, 0.0, 5.224033919115051e-05, 0.0, 0.0006043850890514955, 0.0, 0.0010742547576700447, array([[ -9.94593056e-17]])]
[2.3, -1.404411958396435, 4.349710941314697, 0.7931397557258606, 0.0, -8.000100789509882e-05, 0.0, 0.0006114213878586618, 0.0, 0.0005665134989393638, array([[ -2.91421299e-12]])]
[2.3499999999999996, -1.0809812152356573, 4.381077289581299, 0.14498703181743622, 0.0, -0.0002948465783094743, 0.0, 0.0006922403822577134, 0.0, -3.356665205668207e-05, array([[ -1.09637207e-10]])]
[2.3999999999999995, -0.6168942120170947, 4.380466938018799, -0.16132110357284546, 0.0, -0.000424571099015953, 0.0, 0.0007777343324329819, 0.0, -0.0003029480898647718, array([[ -3.06154849e-11]])]
[2.4499999999999993, 0.4350865497746255, 4.371638298034668, -0.4298180937767029, 0.0, -0.0005650032261640019, 0.0, 0.0008997092952948239, 0.0, -0.000700566305635777, array([[ -1.03750109e-12]])]
[2.499999999999999, 1.2207667083154563, 4.320432662963867, -0.8567651510238647, 0.0, -0.0006688713554084516, 0.0, 0.0010635636211665336, 0.0, -0.001176505879754848, array([[ -5.05494737e-16]])]
[2.549999999999999, 1.777202055484057, 4.298591136932373, -0.604615330696106, 0.0, -0.0005600934323251017, 0.0, 0.0008742907860796718, 0.0, -0.0013989303655338181, array([[ -1.51915345e-13]])]
[2.5999999999999988, 1.2703945235015481, 4.294713973999023, 0.551378607749939, 0.0, -0.0004372854606731936, 0.0, 0.0006462156768865991, 0.0, -0.0012776123860734582, array([[ -1.11898084e-10]])]
[2.6499999999999986, -0.256848671443621, 4.315946102142334, 1.0013246536254883, 0.0, -0.00039462045953641493, 0.0, 0.0005177117047282591, 0.0, -0.0011577075279285349, array([[ -9.10356913e-14]])]
[2.6999999999999984, -1.0446646811514184, 4.398566246032715, 0.9717440605163574, 0.0, -0.000279068679861703, 0.0, 0.0004814204391475512, 0.0, -0.00102364559519219, array([[ -6.00704759e-14]])]
[2.7499999999999982, -1.6212860035150642, 4.429350852966309, 0.5975690484046936, 0.0, -0.00015851965238801224, 0.0, 0.0005436083155237886, 0.0, -0.000851746635894194, array([[ -6.56230470e-12]])]
[2.799999999999998, -0.899555666857356, 4.446935653686523, 0.02367762103676796, 0.0, -9.139141049665448e-05, 0.0, 0.0009231706681344738, 0.0, -0.0006624220990877026, array([[ -3.35839468e-11]])]
[2.849999999999998, -0.11112204088916959, 4.442817687988281, -0.24492613971233368, 0.0, 3.979692736179595e-07, 0.0, 0.001016438010654453, 0.0, -0.0005366135145254838, array([[ -3.46445150e-12]])]
[2.8999999999999977, 0.9538769406412915, 4.397646427154541, -0.9138134121894836, 0.0, 0.0001369537164938199, 0.0, 0.0012983707422988067, 0.0, -0.0004588060553895441, array([[ -3.15583898e-17]])]
[2.9499999999999975, 1.8070613832026723, 4.372288227081299, -0.7466839551925659, 0.0, 0.00011977910668055573, 0.0, 0.0014339164913724355, 0.0, -0.0004400959209544816, array([[ -2.19593466e-15]])]
[2.9999999999999973, 1.396822013497355, 4.353361129760742, 0.34758126735687256, 0.0, -1.9012814696361033e-05, 0.0, 0.0009288161397978935, 0.0, -0.0004546890697160312, array([[ -1.51951621e-10]])]
[3.049999999999997, 0.4871987348526315, 4.368541717529297, 0.8011492490768433, 0.0, 1.5677615766610016e-05, 0.0, 0.000817798419673729, 0.0, -0.0004398381380073686, array([[ -1.22997323e-12]])]
[3.099999999999997, -0.8407878254565218, 4.447235107421875, 1.1828162670135498, 0.0, 0.00021572693529969998, 0.0, 0.0005095440853922607, 0.0, -0.0005270335453166937, array([[ -2.51799510e-16]])]
[3.149999999999997, -1.6027502408623693, 4.47701358795166, 0.9801846146583557, 0.0, 6.270924345004609e-05, 0.0, 0.00042539360301099046, 0.0, -0.0005247149449610542, array([[ -9.88314625e-15]])]
[3.1999999999999966, -1.343184219442298, 4.521525859832764, 0.3064197897911072, 0.0, -0.0002451461244383979, 0.0, 0.00047300361611376856, 0.0, -0.0005371774112052832, array([[ -1.17427574e-11]])]
[3.2499999999999964, -0.29921307559627236, 4.52475643157959, 0.03773925080895424, 0.0, -0.0004089752761945455, 0.0, 0.0005651814115887282, 0.0, -0.0004794938468080346, array([[ -6.81327703e-12]])]
[3.2999999999999963, 0.5045610948310381, 4.4986701011657715, -0.6346337795257568, 0.0, -0.0007856065434298159, 0.0, 0.0006410572624757156, 0.0, -0.00047946153660303337, array([[ -4.00832853e-15]])]
[3.349999999999996, 1.2097838479653042, 4.477644920349121, -0.7419628500938416, 0.0, -0.0009116260241403284, 0.0, 0.0007029708833405766, 0.0, -0.000479783051823095, array([[ -4.10097880e-16]])]
[3.399999999999996, 1.3243288635388022, 4.435806751251221, -0.06103522330522537, 0.0, -0.0006505326439453896, 0.0, 0.0006111748906206425, 0.0, -0.0005188579752263168, array([[ -2.26243433e-11]])]
[3.4499999999999957, 0.4273691110613688, 4.439414024353027, 0.39739394187927246, 0.0, -0.0005047006251041491, 0.0, 0.0004219455738468762, 0.0, -0.0004795690661976868, array([[ -2.07926177e-11]])]
[3.4999999999999956, -0.360918090814421, 4.4911675453186035, 0.8159128427505493, 0.0, -0.0002302408381037179, 0.0, 0.0003350464853706952, 0.0, -0.0004072614051833573, array([[ -1.84203194e-13]])]
[3.5499999999999954, -1.1688886797128266, 4.511008262634277, 0.6391995549201965, 0.0, -0.00020120703357902326, 0.0, 0.000348129734897158, 0.0, -0.00038222264726178306, array([[ -9.33109929e-13]])]
[3.599999999999995, -1.1502187930112688, 4.531752109527588, -0.028505779802799225, 0.0, -0.00020784573409193078, 0.0, 0.0005162057687500269, 0.0, -0.00029744181157568937, array([[ -5.66665826e-12]])]
[3.649999999999995, -0.25851358279019176, 4.526002883911133, -0.2964852452278137, 0.0, -0.00023695789157614659, 0.0, 0.0006812757650106527, 0.0, -0.0002613911805908581, array([[ -4.07867641e-13]])]
[3.699999999999995, 0.5478973635737207, 4.4766950607299805, -0.9776412844657898, 0.0, -0.00023239788299357698, 0.0, 0.0009944884313168767, 0.0, -0.00027541879916555636, array([[ -1.32397247e-18]])]
[3.7499999999999947, 1.4520743971243502, 4.446208953857422, -1.0815480947494507, 0.0, -0.0002889959639737324, 0.0, 0.0011856771721927577, 0.0, -0.0003471242458710102, array([[ -7.72830852e-20]])]
[3.7999999999999945, 1.8903761876411738, 4.3783183097839355, -0.45379143953323364, 0.0, -0.0002319699002781703, 0.0, 0.0008656801336108377, 0.0, -0.000392066131755447, array([[ -6.47456660e-13]])]
[3.8499999999999943, 1.5079753008081533, 4.370825290679932, 0.0009302404941990972, 0.0, -0.0002978661144132362, 0.0, 0.0006977052932052773, 0.0, -0.00034570810078387307, array([[ -5.58680781e-11]])]
[3.899999999999994, 0.24756180996574734, 4.410262107849121, 1.1247614622116089, 0.0, -0.00013580723452730702, 0.0, 0.00038700521678592997, 0.0, -0.0004926386429190122, array([[ -1.50590135e-15]])]
[3.949999999999994, -1.260681779250501, 4.441200256347656, 1.126616358757019, 0.0, -0.0002431393511544123, 0.0, 0.0005570826389156273, 0.0, -0.00041867022481966137, array([[ -6.01685504e-16]])]
[3.999999999999994, -1.5318782121874386, 4.501455307006836, 0.5619587898254395, 0.0, -0.0002769703483601141, 0.0, 0.0006097040543389682, 0.0, -0.0005093869500884761, array([[ -2.99589566e-12]])]
[4.049999999999994, -0.8138766813658022, 4.511958122253418, 0.2962207496166229, 0.0, -0.0003602597706984999, 0.0, 0.0006290750728445005, 0.0, -0.00050756141186713, array([[ -7.91526025e-12]])]
[4.099999999999993, -0.014312933861744639, 4.505073070526123, -0.3929307162761688, 0.0, -0.0005176098568030735, 0.0, 0.0007459590814933701, 0.0, -0.0005193580007248845, array([[ -2.01783810e-13]])]
[4.149999999999993, 0.9464352927358978, 4.488917827606201, -0.6614616513252258, 0.0, -0.0005840756505226184, 0.0, 0.0009558731027429935, 0.0, -0.0005415290441942165, array([[ -1.57537775e-15]])]
[4.199999999999993, 1.7056361483074742, 4.440673828125, -0.26829928159713745, 0.0, -0.0006199250865333862, 0.0, 0.000969566375065219, 0.0, -0.000631070386913135, array([[ -2.76897742e-12]])]
[4.249999999999993, 1.4570210133371624, 4.438069820404053, 0.16759297251701355, 0.0, -0.00045931519447551573, 0.0, 0.0007398434116296788, 0.0, -0.0006059887796062262, array([[ -2.68728573e-11]])]
[4.299999999999993, 0.3151574166387827, 4.489447593688965, 1.2824926376342773, 0.0, -0.00040491870016479744, 0.0, 0.0005583234073285919, 0.0, -0.0004283250555504501, array([[ -7.43776144e-18]])]
[4.3499999999999925, -0.6932065997058526, 4.525472640991211, 1.3126893043518066, 0.0, -0.0002709394175983664, 0.0, 0.00034708141554075757, 0.0, -0.00047554778313848754, array([[ -1.18333610e-18]])]
[4.399999999999992, -1.4498719835989178, 4.602052211761475, 0.7790531516075134, 0.0, -0.00011619412796707194, 0.0, 0.0003145392520652974, 0.0, -0.0005159799689154616, array([[ -4.09170588e-14]])]
[4.449999999999992, -1.3671801592446455, 4.619166374206543, 0.5134983658790588, 0.0, -2.46332019676418e-06, 0.0, 0.00036285676865706876, 0.0, -0.0005655268786771264, array([[ -3.86749936e-13]])]
[4.499999999999992, -0.4726641811873622, 4.6284284591674805, -0.17571602761745453, 0.0, 5.153192432832955e-05, 0.0, 0.00045498879583900323, 0.0, -0.0005544722110681962, array([[ -3.15445422e-13]])]
[4.549999999999992, 0.4831258087086852, 4.618577003479004, -0.44371286034584045, 0.0, 9.4560854924533e-05, 0.0, 0.0006375536725200801, 0.0, -0.0006070530538845747, array([[ -8.57334033e-15]])]
[4.599999999999992, 1.3569001213684764, 4.5678486824035645, -0.7710334062576294, 0.0, 0.00016188340396751887, 0.0, 0.0007718274551541725, 0.0, -0.0006288528700026694, array([[ -4.95198085e-17]])]
[4.6499999999999915, 1.5577153042759746, 4.548964977264404, -0.45811131596565247, 0.0, 5.812283847208981e-05, 0.0, 0.0006068911606720377, 0.0, -0.0006155792492716375, array([[ -2.07770881e-14]])]
[4.699999999999991, 1.0076955938209058, 4.554869651794434, 0.6978421807289124, 0.0, -2.8874661625118812e-05, 0.0, 0.0003134486089399813, 0.0, -0.0007623566973515375, array([[ -2.43046025e-13]])]
[4.749999999999991, -0.009870776677261144, 4.579555034637451, 1.1410108804702759, 0.0, -0.00013435835130846756, 0.0, 0.00023050672778486498, 0.0, -0.0007271328961705813, array([[ -3.42717059e-17]])]
[4.799999999999991, -1.2985489476043732, 4.670777797698975, 1.1072286367416382, 0.0, -0.0004067380380109159, 0.0, 0.00031390806810752673, 0.0, -0.0006149020564080399, array([[ -2.62391943e-17]])]
[4.849999999999991, -1.8257431074436756, 4.696719646453857, 0.8473271727561951, 0.0, -0.0005243687256873355, 0.0, 0.000561792895964772, 0.0, -0.0005522710507766215, array([[ -1.60939128e-15]])]
[4.899999999999991, -1.165402303524314, 4.729739665985107, 0.1601494997739792, 0.0, -0.000661359795523014, 0.0, 0.0009596542461667361, 0.0, -0.0005096199393790829, array([[ -2.81170787e-13]])]
[4.94999999999999, -0.020538321686627434, 4.729233741760254, -0.10820817947387695, 0.0, -0.0007870480509290582, 0.0, 0.001264301039574955, 0.0, -0.00039280049975470215, array([[ -5.49132905e-14]])]
[4.99999999999999, 0.7887637917642101, 4.69433069229126, -0.7818875312805176, 0.0, -0.0010497131925053687, 0.0, 0.0017588012160414791, 0.0, -0.0003342205679546565, array([[ -4.10188927e-18]])]
[5.04999999999999, 1.3707717781476678, 4.671403884887695, -0.7387199401855469, 0.0, -0.0010001639660584742, 0.0, 0.0019903514568077652, 0.0, -0.0002706510268155969, array([[ -1.02781732e-17]])]
[5.09999999999999, 1.333149664433673, 4.643381118774414, 0.17853015661239624, 0.0, -0.0007037026967764081, 0.0, 0.0011192494790909621, 0.0, -0.00021846165251345823, array([[ -1.13984458e-12]])]
[5.14999999999999, 0.07382611953953644, 4.6537184715271, 0.6319249868392944, 0.0, -0.0004834080606998419, 0.0, 0.000991685042858222, 0.0, -0.00020616922495485568, array([[ -5.22654910e-14]])]
[5.1999999999999895, -0.6846431034281327, 4.722115993499756, 0.9403496384620667, 0.0, -0.000449670851965657, 0.0, 0.0005251541675031551, 0.0, -0.0004009346209912014, array([[ -3.04233926e-16]])]
[5.249999999999989, -1.5313149370718746, 4.743611812591553, 0.7003690600395203, 0.0, -0.00046053783231534757, 0.0, 0.0003091479740543779, 0.0, -0.0004890589428288416, array([[ -4.90548527e-15]])]
[5.299999999999989, -1.3251181215718342, 4.765509605407715, 0.01850294880568981, 0.0, -0.0003772826102369204, 0.0, 1.548836315893182e-05, 0.0, -0.0006769656167916231, array([[ -9.23294568e-14]])]
[5.349999999999989, -0.34767964176079347, 4.760811805725098, -0.25081995129585266, 0.0, -0.00033806122927873577, 0.0, -0.0001838522963524638, 0.0, -0.0007507728919302297, array([[ -6.99439053e-15]])]
[5.399999999999989, 0.6664598113522003, 4.714839458465576, -0.9412678480148315, 0.0, -0.00019557551968263126, 0.0, -0.0003724022031214838, 0.0, -0.0009299759309449164, array([[ -4.43115354e-20]])]
[5.449999999999989, 1.3088118874393404, 4.685246467590332, -1.0522891283035278, 0.0, -0.00015904700355657116, 0.0, -0.0003952104598732039, 0.0, -0.0010187422088817673, array([[ -1.95050793e-21]])]
[5.4999999999999885, 1.7878715989459308, 4.627905368804932, -0.2763015627861023, 0.0, -0.0001394156456058119, 0.0, -0.00023411919974345935, 0.0, -0.0009698669803182602, array([[ -8.26343182e-14]])]
[5.549999999999988, 1.2104595632293156, 4.625952243804932, 0.1789996325969696, 0.0, -0.00023070072812385046, 0.0, -0.00010904436491974593, 0.0, -0.0007866161752000237, array([[ -6.92731357e-13]])]
[5.599999999999988, -0.0729241911221819, 4.679111957550049, 1.2790119647979736, 0.0, -7.1209803004116e-05, 0.0, 6.736723644739208e-06, 0.0, -0.0006652460836078446, array([[ -2.44806898e-19]])]
[5.649999999999988, -1.0862204763982446, 4.713867664337158, 1.1854887008666992, 0.0, -0.0002543055550341443, 0.0, 0.00015196581786069215, 0.0, -0.000646889142335712, array([[ -7.60257075e-19]])]
[5.699999999999988, -1.7427709444668147, 4.7751617431640625, 0.5328052043914795, 0.0, -0.0006245599243235995, 0.0, 0.0004658100236591752, 0.0, -0.0006208842910286019, array([[ -3.54140375e-14]])]
[5.749999999999988, -1.193095708746428, 4.785758018493652, 0.26504677534103394, 0.0, -0.0008528393343272193, 0.0, 0.0008265626166591741, 0.0, -0.0006035582522116934, array([[ -3.82900309e-14]])]
[5.799999999999987, -0.08909152157042073, 4.778985977172852, -0.4238099753856659, 0.0, -0.0012431648361398004, 0.0, 0.0014398979468191173, 0.0, -0.0005021898199395659, array([[ -7.92868941e-16]])]
[5.849999999999987, 0.8799047990944245, 4.762933731079102, -0.6918777227401733, 0.0, -0.0014998713594704901, 0.0, 0.0018348979972724682, 0.0, -0.0005173381426603644, array([[ -3.94991807e-18]])]
[5.899999999999987, 1.6333367153666916, 4.707522869110107, -0.5182284712791443, 0.0, -0.0015117005166655443, 0.0, 0.002035348895079675, 0.0, -0.0005464132865713273, array([[ -5.57840467e-16]])]
[5.949999999999987, 1.5379402512628593, 4.697920322418213, -0.11350733041763306, 0.0, -0.000918234971951625, 0.0, 0.0013334625621218138, 0.0, -0.0005489429188791036, array([[ -4.82980561e-14]])]
[5.999999999999987, 0.5379871637337393, 4.7304792404174805, 1.0347427129745483, 0.0, -0.0007633249401110665, 0.0, 0.0010344443662233642, 0.0, -0.00044554991669538925, array([[ -3.02504292e-17]])]
[6.0499999999999865, -0.4670649804528803, 4.761909008026123, 1.2141896486282349, 0.0, -0.0005334792234514447, 0.0, 0.0007048802188410671, 0.0, -0.000497520872099374, array([[ -1.16678617e-19]])]
[6.099999999999986, -1.4956766946800053, 4.838970184326172, 0.8168171644210815, 0.0, -0.0003186826226028223, 0.0, 0.00027557769704364486, 0.0, -0.0005061432656902697, array([[ -2.35466286e-16]])]
[6.149999999999986, -1.5351941163148728, 4.857397556304932, 0.5531824827194214, 0.0, -0.00016220761347066252, 0.0, 4.7782947442471826e-05, 0.0, -0.0005403264693905657, array([[ -1.66343879e-15]])]
[6.199999999999986, -0.6754857953488811, 4.87092924118042, -0.13483984768390656, 0.0, 9.05611450365208e-05, 0.0, -0.00018401466340760278, 0.0, -0.0005556723782695619, array([[ -3.96868520e-15]])]
[6.249999999999986, 0.2765366294365416, 4.862817287445068, -0.4032195210456848, 0.0, 0.00022807975317713384, 0.0, -0.00034770977485068646, 0.0, -0.0005907698744405553, array([[ -8.67259493e-17]])]
[6.299999999999986, 1.2192563806902617, 4.810525417327881, -0.9395455121994019, 0.0, 0.00048605542808661655, 0.0, -0.0003864888181053175, 0.0, -0.0005774214765767874, array([[ -6.51639836e-21]])]
[6.349999999999985, 1.5688877651374789, 4.786400318145752, -0.6786592602729797, 0.0, 0.00034343571933202933, 0.0, -0.00025094876133989935, 0.0, -0.0006613271606113066, array([[ -2.36193110e-18]])]
[6.399999999999985, 1.301968881065026, 4.776374816894531, 0.462393581867218, 0.0, 0.00025876905218145523, 0.0, -0.0002332056337540067, 0.0, -0.0005513109471965446, array([[ -3.58583891e-14]])]
[6.449999999999985, 0.23911154320467126, 4.795026779174805, 0.9101317524909973, 0.0, 5.9673245101083346e-05, 0.0, -0.0001158155527442728, 0.0, -0.0005116661940613525, array([[ -2.79386085e-17]])]
[6.499999999999985, -1.0783342771567406, 4.875593662261963, 1.0469547510147095, 0.0, -0.00017547196990914127, 0.0, 4.7325396760923625e-06, 0.0, -0.0003531066995304783, array([[ -1.49860794e-18]])]
[6.549999999999985, -1.7070246362946928, 4.901017665863037, 0.8097330927848816, 0.0, -0.00017235710632208052, 0.0, 3.6949638565569015e-05, 0.0, -0.000268310013560983, array([[ -1.93618026e-17]])]
[6.5999999999999845, -1.1662292202189564, 4.933550834655762, 0.12948660552501678, 0.0, -0.00015627857771196823, 0.0, 0.00038096116768151036, 0.0, -0.00013279233732611467, array([[ -3.90907346e-15]])]
[6.649999999999984, -0.03735589682310429, 4.932849407196045, -0.13895376026630402, 0.0, -0.00015590983779986488, 0.0, 0.0006870092512862138, 0.0, -0.00011764326993122898, array([[ -2.70734954e-16]])]
[6.699999999999984, 0.7671373484302315, 4.896557807922363, -0.824314534664154, 0.0, -0.00010019830424973197, 0.0, 0.001116216643963707, 0.0, -8.62883858923673e-05, array([[ -2.33641246e-20]])]
[6.749999999999984, 1.6367542091272773, 4.871781349182129, -0.8414331078529358, 0.0, -8.017794527469932e-05, 0.0, 0.0013233645839947716, 0.0, -7.566450938142967e-05, array([[ -8.69335367e-21]])]
[6.799999999999984, 1.4146761540975423, 4.835308074951172, 0.03908019885420799, 0.0, -9.106061893237002e-05, 0.0, 0.0009163188046521331, 0.0, -2.659423641573787e-05, array([[ -1.51877945e-14]])]
[6.849999999999984, 0.7030140991564993, 4.842085838317871, 0.4928031265735626, 0.0, -7.270614973143852e-05, 0.0, 0.0006181886476844227, 0.0, -3.685882083641471e-05, array([[ -8.31150181e-16]])]
[6.8999999999999835, -0.5963590284269296, 4.902444362640381, 1.0566192865371704, 0.0, 2.712715659113065e-05, 0.0, 0.0004494610335420544, 0.0, -2.4354781528446272e-05, array([[ -5.90487082e-19]])]
[6.949999999999983, -1.5378564591109753, 4.9397807121276855, 0.7900087833404541, 0.0, -5.0038339986560116e-05, 0.0, 0.00035896024172864407, 0.0, -5.8761686224091225e-05, array([[ -2.71188767e-18]])]
[6.999999999999983, -1.4563344865161927, 4.969964027404785, 0.22826169431209564, 0.0, -0.00016096475530207375, 0.0, 0.00038945877580654766, 0.0, -0.0001555532113674719, array([[ -1.63431687e-15]])]
[7.049999999999983, -0.6571861269343628, 4.972365379333496, -0.03888818249106407, 0.0, -0.00023113876549735768, 0.0, 0.0004010718479557979, 0.0, -0.0001439356885928818, array([[ -3.56237708e-17]])]
[7.099999999999983, 0.1382052313908935, 4.9438676834106445, -0.7285903096199036, 0.0, -0.00044334342517337905, 0.0, 0.0006353103804299587, 0.0, -0.00023169562875368854, array([[ -7.51716817e-20]])]
[7.149999999999983, 1.1153946222253144, 4.9195380210876465, -0.9795945286750793, 0.0, -0.0005411748599546796, 0.0, 0.0008021863503778761, 0.0, -0.0003378976428640962, array([[ -6.34663994e-23]])]
[7.199999999999982, 1.8079656816255303, 4.850823879241943, -0.5434127449989319, 0.0, -0.00038423141742597417, 0.0, 0.0006191794422944714, 0.0, -0.0002902578621819913, array([[ -1.52566050e-17]])]
[7.249999999999982, 1.6243690174762162, 4.841845512390137, -0.09425745904445648, 0.0, -0.00030221695427516817, 0.0, 0.00036917621120358704, 0.0, -0.0002761176347388974, array([[  4.49166440e-16]])]
[7.299999999999982, 0.3925600461978461, 4.877160549163818, 1.054079294204712, 0.0, -0.00021567177581743822, 0.0, 0.0002503063231754037, 0.0, -0.00017847674365955763, array([[ -6.94124116e-19]])]
[7.349999999999982, -0.6174615556709468, 4.908970355987549, 1.1658594608306885, 0.0, -0.0002512407380177613, 0.0, 0.00017515262585171353, 0.0, -0.00015992714164447176, array([[  8.88970636e-21]])]
[7.399999999999982, -1.5759990763328973, 4.979493141174316, 0.6843818426132202, 0.0, -0.000328514476089257, 0.0, 8.277978272808917e-05, 0.0, -0.0002029085201351877, array([[ -5.00276375e-17]])]
[7.4499999999999815, -1.2177845131754876, 4.994844436645508, 0.4199633300304413, 0.0, -0.0003127457994190797, 0.0, 0.0002043796698906421, 0.0, -0.00015546953909764032, array([[  1.56305507e-16]])]
[7.499999999999981, -0.5931717213504017, 4.999758243560791, -0.26801395416259766, 0.0, -0.0003108677065334875, 0.0, 0.0003725205496599043, 0.0, -0.0001691510610224162, array([[ -4.46579921e-17]])]
[7.549999999999981, 0.3648445282429458, 4.9881463050842285, -0.5365179181098938, 0.0, -0.0003074198692707452, 0.0, 0.0006197819406754111, 0.0, -0.00021689865824680188, array([[  2.82666214e-19]])]
[7.599999999999981, 1.3041438216157257, 4.929348945617676, -1.0192217826843262, 0.0, -0.0002254989752576237, 0.0, 0.0008481316999184165, 0.0, -0.00014449073772533752, array([[ -4.42257435e-23]])]
[7.649999999999981, 1.6280282132960857, 4.901919364929199, -0.859214723110199, 0.0, -0.00028052933657037455, 0.0, 0.0007246296578323874, 0.0, -0.00015983820492654392, array([[  2.02231935e-22]])]
[7.699999999999981, 1.356490934273228, 4.879388809204102, 0.26013004779815674, 0.0, -0.00010040680574042395, 0.0, 0.0003516970153571409, 0.0, -0.00014171535729685667, array([[ -3.74810577e-15]])]
[7.7499999999999805, -0.1260453314855657, 4.892940044403076, 0.7107293009757996, 0.0, -0.00024809680153016077, 0.0, 0.0002670375108925271, 0.0, -0.00010733899909623505, array([[  1.20643508e-16]])]
[7.79999999999998, -0.8568742137290539, 4.960133075714111, 0.784793496131897, 0.0, -0.0003409249540281178, 0.0, 6.842320344520145e-05, 0.0, -0.00014777851050047395, array([[ -1.03760064e-17]])]
[7.84999999999998, -1.554281291404739, 4.978292942047119, 0.5266238451004028, 0.0, -0.000345175875694666, 0.0, 8.944717483914684e-05, 0.0, -0.0002804605586369816, array([[  2.07332044e-16]])]
[7.89999999999998, -0.9916361160837117, 4.990858554840088, -0.1594405323266983, 0.0, -0.00030736798916666634, 0.0, 0.00018597686058869985, 0.0, -0.00025476413704934533, array([[ -8.64382153e-17]])]
[7.94999999999998, 0.12186706153023998, 4.9823150634765625, -0.42801445722579956, 0.0, -0.0003051671649098381, 0.0, 0.0003328120192660447, 0.0, -0.0002461883799245261, array([[  5.16132448e-18]])]
[7.99999999999998, 1.0810925394371151, 4.9265875816345215, -1.0840510129928589, 0.0, -0.00022633586670788163, 0.0, 0.0005955923118777918, 0.0, -0.0002939152326860939, array([[ -5.38782213e-24]])]
[8.04999999999998, 1.4645148704983295, 4.89595890045166, -1.0028177499771118, 0.0, -0.00015074950706837407, 0.0, 0.0006447128472239644, 0.0, -0.0003789487811077451, array([[  1.71079322e-23]])]
[8.09999999999998, 1.5258684729943053, 4.861591339111328, 0.09445081651210785, 0.0, -0.0001711869984963815, 0.0, 0.00014676385372365685, 0.0, -0.0003087803640404185, array([[ -1.95804588e-15]])]
[8.14999999999998, -0.01225214597396358, 4.8705854415893555, 0.5470551252365112, 0.0, -0.00016718015764994362, 0.0, 0.00032979453337767857, 0.0, -0.00023815725455184238, array([[  1.61429950e-15]])]
[8.199999999999982, -0.7975574523685517, 4.926112651824951, 0.6222309470176697, 0.0, -5.881853258998215e-05, 0.0, 4.783362927202787e-05, 0.0, -0.0001804742070682529, array([[ -3.59248713e-17]])]
[8.249999999999982, -1.4757776010222734, 4.939839839935303, 0.364896297454834, 0.0, 8.026025339022822e-06, 0.0, -0.00011715170316411216, 0.0, -9.668533811987918e-05, array([[  1.66019488e-15]])]
[8.299999999999983, -0.8744135017683746, 4.941102981567383, -0.3212575912475586, 0.0, 3.5467748025265154e-05, 0.0, -0.0002006538248676345, 0.0, -7.915533785049386e-05, array([[ -9.91512122e-17]])]
[8.349999999999984, -0.10113436023052773, 4.928201198577881, -0.5890581607818604, 0.0, 3.7703964049302235e-05, 0.0, -0.000138517727761955, 0.0, 1.5989688695052008e-06, array([[  1.13504786e-18]])]
[8.399999999999984, 0.9798958501387389, 4.860608100891113, -1.255448818206787, 0.0, 8.825421355139827e-05, 0.0, 1.5688027872679072e-05, 0.0, 0.00015265657345567467, array([[ -6.77729615e-26]])]
[8.449999999999985, 1.9160107680102811, 4.8265204429626465, -1.0748686790466309, 0.0, 6.954234383013857e-05, 0.0, 0.00022606388125671895, 0.0, 0.00021706412405137786, array([[  1.22013705e-23]])]
[8.499999999999986, 1.5062187014454977, 4.785078525543213, 0.016823071986436844, 0.0, -2.2651796958111348e-05, 0.0, -0.00010721199669111345, 0.0, 0.0003062402054929408, array([[  2.16789337e-15]])]
[8.549999999999986, 0.5945485027162336, 4.819256782531738, 0.9153414964675903, 0.0, -8.718560141077089e-05, 0.0, -9.895387162763101e-06, 0.0, 0.0002679700858881911, array([[  1.58196895e-14]])]
[8.599999999999987, -0.7162582987044165, 4.8492431640625, 1.0021854639053345, 0.0, -0.00016219797427180434, 0.0, -0.00012921314791395705, 0.0, 0.00021217770835221163, array([[  8.96391291e-19]])]
[8.649999999999988, -1.6281952308919283, 4.876180648803711, 0.9388968348503113, 0.0, -0.00012973748459967703, 0.0, -0.00023339851652300292, 0.0, 0.0001572228809547658, array([[  1.04296690e-17]])]
[8.699999999999989, -1.737509654307738, 4.919861793518066, 0.297650545835495, 0.0, -0.00011472428358345087, 0.0, -0.00010724646916437434, 0.0, 7.224584839488695e-05, array([[  9.07984492e-16]])]
[8.74999999999999, -1.079241372130812, 4.923708438873291, 0.030781498178839684, 0.0, -8.583943307877063e-05, 0.0, 7.197047037243587e-05, 0.0, 2.7560949281963038e-05, array([[  3.04397073e-15]])]
[8.79999999999999, -0.17460936830006846, 4.899450778961182, -0.6586580276489258, 0.0, -4.04377665621281e-06, 0.0, 0.0004925082484662791, 0.0, -1.1886406779313652e-05, array([[  4.78681911e-20]])]
[8.84999999999999, 0.9376712073255331, 4.876363277435303, -0.9274017214775085, 0.0, -1.9389523720267254e-05, 0.0, 0.0007704135720290513, 0.0, -8.472263945314574e-05, array([[  1.07175258e-21]])]
[8.899999999999991, 1.6912438672352583, 4.804709434509277, -0.6618003249168396, 0.0, 4.993504198613567e-06, 0.0, 0.0009340700367107394, 0.0, -0.0001921030141649256, array([[  3.69139544e-19]])]
[8.949999999999992, 1.6238915030192584, 4.790755748748779, -0.24915681779384613, 0.0, -0.00015439776927446774, 0.0, 0.0005830561523537459, 0.0, -0.00015185796832747957, array([[  3.90674745e-15]])]
[8.999999999999993, 0.6183107211682907, 4.812002658843994, 0.9000869393348694, 0.0, -2.7625930009149214e-05, 0.0, 0.00026131388041571445, 0.0, -7.291765558606454e-05, array([[  2.79616000e-17]])]
[9.049999999999994, -0.47590914236009124, 4.839863300323486, 1.121403455734253, 0.0, -0.0001641185745455088, 0.0, 0.0001815594712383871, 0.0, -1.6114994368795612e-05, array([[  5.53501074e-19]])]
[9.099999999999994, -1.4618140460606666, 4.912806987762451, 0.7782576680183411, 0.0, -0.0003816149944610816, 0.0, -1.5425216547062201e-06, 0.0, 1.4751690933874156e-05, array([[  3.85828623e-17]])]
[9.149999999999995, -1.3596796330250802, 4.930179595947266, 0.5151222348213196, 0.0, -0.0006107938458364003, 0.0, -6.808252767642702e-05, 0.0, 8.439878786397111e-05, array([[  1.39563709e-15]])]
[9.199999999999996, -0.7889442548919484, 4.940704822540283, -0.17225003242492676, 0.0, -0.0009235468782344879, 0.0, -0.00011162163746521475, 0.0, 8.10577915052643e-05, array([[  2.80369907e-16]])]
[9.249999999999996, 0.476154815431684, 4.930836200714111, -0.4408411681652069, 0.0, -0.0010350725368669983, 0.0, -3.450710328901794e-05, 0.0, 0.00011271853815656707, array([[  2.87936949e-17]])]
[9.299999999999997, 1.1663013417236507, 4.87793493270874, -0.828596293926239, 0.0, -0.0010773908154212938, 0.0, 6.81020070225285e-05, 0.0, 0.0001966205365070124, array([[  5.06120581e-21]])]
[9.349999999999998, 1.612213909596205, 4.856245517730713, -0.5683388710021973, 0.0, -0.0008951932284670034, 0.0, 6.871396924917043e-05, 0.0, 0.0001839823948418854, array([[  1.17000827e-17]])]
[9.399999999999999, 1.0517558139804752, 4.8526740074157715, 0.5687575340270996, 0.0, -0.0005467056693284016, 0.0, -0.00017917697899178734, 0.0, 0.00019653758074324434, array([[  1.81594536e-15]])]
[9.45, 0.0787183655630779, 4.8737945556640625, 1.0134096145629883, 0.0, -0.0005306618349013848, 0.0, -0.0002708892638891764, 0.0, 0.00017380118007491381, array([[  3.80374303e-18]])]
[9.5, -1.23569142391067, 4.957200050354004, 1.0300079584121704, 0.0, -0.0001890780144533709, 0.0, -0.00014489423363466596, 0.0, 8.607756060868946e-05, array([[  3.15538978e-19]])]
[9.55, -1.6086012053051966, 4.981658458709717, 0.7789791822433472, 0.0, 6.5574037908226906e-06, 0.0, -0.00018393242313391458, 0.0, 5.4284538738038085e-05, array([[  3.46462536e-17]])]
[9.600000000000001, -1.4819097926001996, 5.010933876037598, 0.09477882087230682, 0.0, 0.0002574757008327198, 0.0, -9.990070301400715e-05, 0.0, -5.581528466722947e-05, array([[  6.09392801e-16]])]
[9.650000000000002, -0.27838621793687407, 5.005476474761963, -0.2892095148563385, 0.0, 0.0003503285788593111, 0.0, 3.155935985084539e-05, 0.0, -5.7482769418327055e-05, array([[  7.73504275e-17]])]
[9.700000000000003, 0.6465763930780812, 4.968863487243652, -0.8655085563659668, 0.0, 0.0005527978918701478, 0.0, 0.00031960071150916497, 0.0, -0.0001108421697628385, array([[  7.72270360e-22]])]
[9.750000000000004, 1.2038048694459722, 4.929311275482178, -0.978277325630188, 0.0, 0.0006295326044942153, 0.0, 0.0005769162782175641, 0.0, -0.00018273574676201603, array([[  1.70884723e-22]])]
[9.800000000000004, 1.4907016889792868, 4.88785457611084, -0.22888131439685822, 0.0, 0.0003933390424699824, 0.0, 0.0003391453055025576, 0.0, -0.0002590521280836867, array([[  7.03599115e-16]])]
[9.850000000000005, 0.9068043197067449, 4.88679313659668, 0.22269894182682037, 0.0, 0.00017735346971773378, 0.0, 5.024706568889542e-05, 0.0, -0.0002483247786544576, array([[  1.36400249e-14]])]
[9.900000000000006, -0.3729545214185628, 4.938263893127441, 1.1710984706878662, 0.0, 9.381112255047714e-05, 0.0, -4.0911513900405264e-05, 0.0, -0.0001549337233856497, array([[  2.45657707e-20]])]
[9.950000000000006, -1.3365524492235856, 4.96907377243042, 1.054661512374878, 0.0, 3.544636701989646e-05, 0.0, -7.798514073096911e-05, 0.0, -0.00014330065721026252, array([[  3.58244879e-19]])]
[10.000000000000007, -1.7941224811044523, 5.019681930541992, 0.3979557156562805, 0.0, -0.00011318000961980979, 0.0, 0.00018600974932390243, 0.0, -2.496145893381277e-05, array([[  4.86315803e-16]])]
[10.050000000000008, -1.231834180065897, 5.0256757736206055, 0.13022831082344055, 0.0, -0.00021871622533289382, 0.0, 0.00043673776833480526, 0.0, 3.822157827900598e-05, array([[  1.16209350e-15]])]
[10.100000000000009, -0.13001733510941385, 5.006539344787598, -0.5597349405288696, 0.0, -0.00027163887667027987, 0.0, 0.0008313663023982508, 0.0, 8.519231427340435e-05, array([[  7.26594061e-19]])]
[10.15000000000001, 1.1577559538185598, 4.985761642456055, -0.8282416462898254, 0.0, -0.00036144336145322984, 0.0, 0.0012231587735928489, 0.0, 0.00016617473709749263, array([[  4.74968574e-21]])]
[10.20000000000001, 1.5830355994249696, 4.923505783081055, -0.44816678762435913, 0.0, -0.0004022039293417696, 0.0, 0.0014473509164882985, 0.0, 0.00017689433334771256, array([[  2.46353310e-17]])]
[10.25000000000001, 1.5118023104500027, 4.916018486022949, -0.003044161479920149, 0.0, -0.00032801063027561333, 0.0, 0.000532108855371106, 0.0, 0.00015745766006059484, array([[  5.58538855e-15]])]
[10.300000000000011, 0.2947358728083726, 4.95499324798584, 1.1085679531097412, 0.0, -0.00041745480774093067, 0.0, 0.000543612457697834, 0.0, 0.0001375381483549215, array([[  9.87695587e-20]])]
[10.350000000000012, -1.1989136772276836, 4.985934257507324, 1.1299080848693848, 0.0, -0.0001342602995425699, 0.0, 0.00027870244370877434, 0.0, 0.00015229999707376679, array([[  5.59579781e-20]])]
[10.400000000000013, -1.5466578866969796, 5.047489166259766, 0.5726528763771057, 0.0, 0.0002625215917869495, 0.0, -5.702357196067393e-05, 0.0, 0.00012870898699287114, array([[  1.04418175e-16]])]
[10.450000000000014, -1.3537265068180862, 5.058200836181641, 0.3062509000301361, 0.0, 0.0005173360960435793, 0.0, -0.0001907419588336439, 0.0, 0.0001411425998909037, array([[  6.70066311e-16]])]
[10.500000000000014, -0.38463862544018845, 5.050847053527832, -0.384429395198822, 0.0, 0.0007416899180438323, 0.0, -0.0003610054860279014, 0.0, 0.00012655955688979078, array([[  7.95043947e-18]])]
[10.550000000000015, 0.5752613281924278, 5.0344133377075195, -0.6534738540649414, 0.0, 0.0009275959360715366, 0.0, -0.0003178767970171614, 0.0, 0.0001482937783549608, array([[  1.37495944e-19]])]
[10.600000000000016, 1.4095703957900405, 4.967944622039795, -0.9397897124290466, 0.0, 0.0009691960170012883, 0.0, -0.0002726282636988274, 0.0, 0.00017519879201102515, array([[  2.05795410e-22]])]
[10.650000000000016, 1.655347347728908, 4.942584991455078, -0.700094997882843, 0.0, 0.0007376235112630793, 0.0, -0.00021475878491894023, 0.0, 0.00022144465176321507, array([[  2.65636855e-19]])]
[10.700000000000017, 1.1117348618023097, 4.928388595581055, 0.430583119392395, 0.0, 0.00031484125343724385, 0.0, -0.0003799922070272077, 0.0, 0.0002824926567601984, array([[  2.94502682e-15]])]
[10.750000000000018, 0.14692993170022672, 4.9450364112854, 0.8763023018836975, 0.0, 0.00027918702708280726, 0.0, -0.00029500779649450025, 0.0, 0.00026750701615456575, array([[  2.10844551e-17]])]
[10.800000000000018, -1.1667299169637262, 5.018962860107422, 0.9432379603385925, 0.0, -0.00010071496741251587, 0.0, -0.00014444249722953822, 0.0, 0.00020264932417555302, array([[  1.18365609e-18]])]
[10.85000000000002, -1.768867789231241, 5.040113925933838, 0.6956297755241394, 0.0, -0.0002605898385114561, 0.0, -0.0001264266103102736, 0.0, 0.0001285643573082153, array([[  5.52730927e-17]])]
[10.90000000000002, -1.3071287526562811, 5.061110019683838, 0.01123584620654583, 0.0, -0.0005567095125738277, 0.0, 1.8060256222341222e-05, 0.0, -3.2963861865989116e-05, array([[  3.63658584e-16]])]
[10.95000000000002, -0.37079773727897597, 5.05573034286499, -0.2571271061897278, 0.0, -0.0007500649309056456, 0.0, 0.00017404880598324772, 0.0, -9.995331076351668e-05, array([[  6.80213328e-17]])]
[11.000000000000021, 0.8058341378085314, 5.007986545562744, -0.9443586468696594, 0.0, -0.0010809569298337518, 0.0, 0.0005058028944212508, 0.0, -0.00019288450035412791, array([[  1.10250981e-22]])]
[11.050000000000022, 1.6489872250147164, 4.9788970947265625, -0.9409086108207703, 0.0, -0.001219524180237266, 0.0, 0.0007592876764037821, 0.0, -0.00022493715029284173, array([[  3.38105619e-22]])]
[11.100000000000023, 1.410950199469924, 4.946162700653076, -0.5060234665870667, 0.0, -0.0011699428551420652, 0.0, 0.0006914591847657438, 0.0, -0.0001925098626216394, array([[  9.39733047e-18]])]
[11.150000000000023, 0.6795883660204709, 4.9408793449401855, 0.45114901661872864, 0.0, -0.0006472663490887355, 0.0, 0.00017078486035407045, 0.0, -0.00019300355496726046, array([[  3.46376974e-15]])]
[11.200000000000024, -0.6202923646792805, 4.996955871582031, 1.0228869915008545, 0.0, -0.00042389391946603505, 0.0, 1.8053011052599677e-05, 0.0, -5.825076944861787e-05, array([[  4.27577366e-19]])]
[11.250000000000025, -1.4315343656390906, 5.021663188934326, 0.8544516563415527, 0.0, -0.000168808065574741, 0.0, -0.00028104690314638355, 0.0, -1.2873213829283598e-05, array([[  8.65435127e-18]])]
[11.300000000000026, -1.5082395463436844, 5.0549397468566895, 0.1877986043691635, 0.0, 2.6638352747462697e-05, 0.0, -0.0004769607514967184, 0.0, 0.00018181514669890727, array([[  7.31238145e-16]])]
[11.350000000000026, -0.5525035291202374, 5.054633617401123, -0.08008721470832825, 0.0, 0.00021684915034707856, 0.0, -0.0005060826886420819, 0.0, 0.00023976068907231618, array([[  3.88382707e-16]])]
[11.400000000000027, 0.09308471281453928, 5.020033836364746, -0.7687287926673889, 0.0, 0.0003806740732850055, 0.0, -0.00030037455207307357, 0.0, 0.00025290820467768223, array([[  1.12342328e-20]])]
[11.450000000000028, 1.4077385953255, 4.9933929443359375, -1.025045394897461, 0.0, 0.0003980624913468892, 0.0, -0.00020249839343301619, 0.0, 0.0003481769466533312, array([[  2.42888857e-23]])]
[11.500000000000028, 1.6187697837278248, 4.914051055908203, -0.7095324993133545, 0.0, 0.0002883412670014513, 0.0, -0.00017432933770498854, 0.0, 0.00043552038155198554, array([[  3.10911276e-19]])]
[11.55000000000003, 1.0278930599391463, 4.898924827575684, -0.26741141080856323, 0.0, 0.00016529299631476505, 0.0, -0.0002861857242987885, 0.0, 0.00038258542428834855, array([[  1.15346877e-15]])]
[11.60000000000003, 0.29047087327390797, 4.918076038360596, 0.8794687390327454, 0.0, 6.435919832131313e-05, 0.0, -0.0002638941279639801, 0.0, 0.0002954409065088159, array([[  2.92180775e-17]])]
[11.65000000000003, -0.7179015567302705, 4.942988872528076, 0.9501204490661621, 0.0, 0.0001112698179393222, 0.0, -0.0003818580263133224, 0.0, 0.0002733432062593184, array([[  7.20370964e-18]])]
[11.700000000000031, -1.6169794995561242, 4.991772174835205, 0.4176565408706665, 0.0, -3.35512393139556e-05, 0.0, -0.0004461853047743324, 0.0, 0.00029823858799155273, array([[  1.43538145e-15]])]
[11.750000000000032, -1.3117384492047144, 4.998271465301514, 0.15195387601852417, 0.0, -0.00011435772185681227, 0.0, -0.00032269199331450997, 0.0, 0.00033803617878448597, array([[  3.02759482e-15]])]
[11.800000000000033, -0.4088731382284344, 4.980866432189941, -0.5373442769050598, 0.0, -0.0003779636494230622, 0.0, -3.2944127027879984e-05, 0.0, 0.00039989552602751776, array([[  3.63288218e-18]])]
[11.850000000000033, 1.0751581608001144, 4.960639953613281, -0.8061080574989319, 0.0, -0.0005547872779221401, 0.0, 0.00028329081326905855, 0.0, 0.00042408730124105794, array([[  2.09964310e-20]])]
[11.900000000000034, 1.6582108462583276, 4.895671367645264, -0.5249029397964478, 0.0, -0.0007154694047761676, 0.0, 0.0006473629844642612, 0.0, 0.00043404958004768744, array([[  2.13084601e-17]])]
[11.950000000000035, 1.757672943606973, 4.8859758377075195, -0.0809885784983635, 0.0, -0.000439744400211013, 0.0, 0.00022207038448727299, 0.0, 0.00037876704926389615, array([[  8.93600680e-15]])]
[12.000000000000036, 0.5767718170452775, 4.919313907623291, 1.0656830072402954, 0.0, -0.00040134282491226833, 0.0, 0.00012118447939188318, 0.0, 0.0004467322761695128, array([[  8.74580528e-19]])]
[12.050000000000036, -0.9488710688278081, 4.951254367828369, 1.2619651556015015, 0.0, -0.0004854965476307764, 0.0, 0.00011124304502507956, 0.0, 0.0004261619289271961, array([[  5.75108102e-21]])]
[12.100000000000037, -1.4733113249298186, 5.033768177032471, 0.9291959404945374, 0.0, -0.0003214045762488734, 0.0, -0.00012714518277540901, 0.0, 0.0005105873315108177, array([[  1.75607637e-18]])]
[12.150000000000038, -1.3669799871789292, 5.054871559143066, 0.6669780611991882, 0.0, -0.00010180227462778752, 0.0, -0.0002642243794856801, 0.0, 0.0005077986779601746, array([[  7.87450063e-17]])]
[12.200000000000038, -1.0385111049516127, 5.0753679275512695, -0.020627843216061592, 0.0, 0.00013988082602028914, 0.0, -0.00018253508439456745, 0.0, 0.00039633619841159754, array([[  3.54530879e-16]])]
[12.250000000000039, 0.08818459745030814, 5.070004940032959, -0.28846582770347595, 0.0, 0.0002687187279795872, 0.0, -0.00012194658519931066, 0.0, 0.0003779565547485637, array([[  4.78089319e-17]])]
[12.30000000000004, 1.008064240431413, 5.022594451904297, -0.892079770565033, 0.0, 0.00038075619051059265, 0.0, 4.831631920680416e-05, 0.0, 0.0002532274672027883, array([[  5.93122014e-22]])]
[12.35000000000004, 1.862846669088118, 4.999615669250488, -0.6184295415878296, 0.0, 0.000271667265980525, 0.0, -2.1814230727722255e-05, 0.0, 0.00024562887298388257, array([[  8.15400148e-19]])]
[12.400000000000041, 1.2975493936985731, 4.99324893951416, 0.5195476412773132, 0.0, 0.00013005563760830533, 0.0, -0.00017226164715328286, 0.0, 0.00025286989224617085, array([[  8.43815708e-16]])]
[12.450000000000042, -0.20716742355935358, 5.013184547424316, 0.9640978574752808, 0.0, 0.00014296991679197017, 0.0, -0.00021387831648538852, 0.0, 0.0002774795644813948, array([[  1.82662158e-18]])]
[12.500000000000043, -0.8923340698753018, 5.096495628356934, 1.029810905456543, 0.0, -0.00022027833501414552, 0.0, -0.0002999321391157244, 0.0, 0.00010708603122401427, array([[  8.64721951e-20]])]
[12.550000000000043, -1.657810827365378, 5.120887279510498, 0.7714715600013733, 0.0, -0.0004909527218913076, 0.0, -0.00023281885799315336, 0.0, -2.8434118551843265e-05, array([[  6.47663718e-18]])]
[12.600000000000044, -1.4059871728741564, 5.149963855743408, 0.08532650768756866, 0.0, -0.0009869012531837547, 0.0, 0.00012830368368535664, 0.0, -0.00018112619060789992, array([[  1.53164169e-16]])]
[12.650000000000045, -0.4859019183372149, 5.147871017456055, -0.18310247361660004, 0.0, -0.0012799763144125164, 0.0, 0.00034376294970114515, 0.0, -0.00024332307040714492, array([[  3.82675645e-17]])]
[12.700000000000045, 0.1546883622515015, 5.108179569244385, -0.8689939379692078, 0.0, -0.0018257128938784532, 0.0, 0.001000093507743567, 0.0, -0.0003080793322781996, array([[  2.57161374e-22]])]
[12.750000000000046, 1.473311841571238, 5.079586505889893, -1.1117390394210815, 0.0, -0.0020598463990740283, 0.0, 0.001286663639408411, 0.0, -0.000442940160877156, array([[  4.39250166e-25]])]
[12.800000000000047, 1.6084437643354759, 4.996504306793213, -0.772519588470459, 0.0, -0.001594281689702544, 0.0, 0.0009502929107447243, 0.0, -0.0005075314354227931, array([[  2.35394226e-20]])]
[12.850000000000048, 1.4904023022428157, 4.980142116546631, -0.332476407289505, 0.0, -0.001039155601528833, 0.0, 0.0004726449911345482, 0.0, -0.0004983370927790905, array([[  1.54453126e-16]])]
[12.900000000000048, 0.41162006824370456, 4.995438098907471, 0.8240565657615662, 0.0, -0.0008246062844109282, 0.0, 0.0001290728561097617, 0.0, -0.00039766660432383774, array([[  2.49115569e-17]])]
[12.950000000000049, -1.2185633754963057, 5.020665645599365, 1.0009877681732178, 0.0, -0.0005120356233980389, 0.0, -0.00012931744140734023, 0.0, -0.000252005049505484, array([[  8.41595115e-19]])]
[13.00000000000005, -1.7681386895244944, 5.078834533691406, 0.5682867765426636, 0.0, -0.00019770308818411363, 0.0, -0.0003085979608345225, 0.0, -4.253781053882033e-05, array([[  1.33663532e-16]])]
[13.05000000000005, -1.2531254012286666, 5.089912414550781, 0.3042418658733368, 0.0, -5.831084636372141e-05, 0.0, -0.0002823822369595978, 0.0, 0.00011692358768294653, array([[  6.44809030e-16]])]
[13.100000000000051, -0.6382796994252138, 5.084591865539551, -0.3850463926792145, 0.0, 0.00012348131415632364, 0.0, -8.672874731497217e-05, 0.0, 0.0003255368784633204, array([[  9.39295912e-18]])]
[13.150000000000052, 0.4832106478819624, 5.068881511688232, -0.6531206369400024, 0.0, 0.000207638220038015, 0.0, 0.00011082860720152356, 0.0, 0.0005066166230633533, array([[  1.29093892e-19]])]
[13.200000000000053, 1.4959497661804784, 4.99941349029541, -1.0908706188201904, 0.0, 0.00038577520863194276, 0.0, 0.0005327342616644579, 0.0, 0.0007163463132587666, array([[  3.08055241e-24]])]
[13.250000000000053, 1.88540521310037, 4.970915794372559, -0.8352185487747192, 0.0, 0.0002822262828936748, 0.0, 0.00029922500487053493, 0.0, 0.0008207256959466061, array([[  1.08419460e-20]])]
[13.300000000000054, 1.4376585358944722, 4.948732852935791, 0.2959478795528412, 0.0, 0.00010548783834675501, 0.0, -4.6418211493445703e-05, 0.0, 0.0007984274211604407, array([[  7.22226483e-15]])]
[13.350000000000055, -0.018086944157497738, 4.962401866912842, 0.7449644207954407, 0.0, 9.152933570336902e-05, 0.0, -0.00015442914993959536, 0.0, 0.0006373375919780915, array([[  1.89246819e-16]])]
[13.400000000000055, -0.7995711532614662, 5.03028678894043, 0.8167980909347534, 0.0, -0.0001773776276835039, 0.0, -0.0003238327258680733, 0.0, 0.0005289716881656466, array([[  1.63772491e-17]])]
[13.450000000000056, -1.2625773171597394, 5.048643112182617, 0.5589079260826111, 0.0, -0.000405692761770019, 0.0, -0.00023784515633269422, 0.0, 0.00048549566641318344, array([[  3.32370012e-16]])]
[13.500000000000057, -1.1538525054053173, 5.062566757202148, -0.12679313123226166, 0.0, -0.0007691095910267256, 0.0, 1.4653100811724513e-06, 0.0, 0.00032014690054121185, array([[  2.86069133e-16]])]
[13.550000000000058, 0.003519826790841474, 5.054713249206543, -0.3947172462940216, 0.0, -0.0009587670806135128, 0.0, 0.00019021656295096744, 0.0, 0.00022665888031460105, array([[  1.86337599e-17]])]
[13.600000000000058, 0.7523865533600329, 5.000062465667725, -1.08011794090271, 0.0, -0.0013664543518532649, 0.0, 0.000603323413291604, 0.0, 6.786570596723874e-05, array([[  4.71165130e-24]])]
[13.650000000000059, 1.369269000501954, 4.967842102050781, -1.1075701713562012, 0.0, -0.0014206830503588248, 0.0, 0.0007197412140934383, 0.0, 3.2531875971140016e-05, array([[  4.51668295e-24]])]
[13.70000000000006, 1.577531299418537, 4.910673141479492, -0.2547680139541626, 0.0, -0.0009174586822137941, 0.0, 0.00021151311121122375, 0.0, 3.61492661134852e-05, array([[  1.30466581e-15]])]
[13.75000000000006, 0.29647221421310543, 4.908895492553711, 0.19712696969509125, 0.0, -0.0008836509247057122, 0.0, -3.316660788195161e-05, 0.0, -1.5832562794217557e-05, array([[  2.13110168e-14]])]
[13.800000000000061, -0.43284904477654296, 4.949493885040283, 0.6570992469787598, 0.0, -0.0003123047473895868, 0.0, -0.00032781089082473906, 0.0, -7.446444095849465e-05, array([[  6.40245495e-16]])]
[13.850000000000062, -1.4024505742581104, 4.96464729309082, 0.4556976556777954, 0.0, -6.407922387752983e-05, 0.0, -0.00043457903051542676, 0.0, -9.422643106982513e-05, array([[  3.53325984e-15]])]
[13.900000000000063, -1.2974293568111062, 4.971885681152344, -0.2172631323337555, 0.0, 0.00012339191503122265, 0.0, -0.0004272668056737469, 0.0, -0.00010657359539352117, array([[  4.85994496e-15]])]
[13.950000000000063, -0.6116679686466281, 4.96124267578125, -0.4854133427143097, 0.0, 0.00025941682142248786, 0.0, -0.00036190005148879333, 0.0, -0.0001269932511984387, array([[  2.51778972e-17]])]
[14.000000000000064, 0.3444914692440071, 4.8996710777282715, -1.1747342348098755, 0.0, 0.0005289632515470337, 0.0, -3.3005755416376825e-05, 0.0, -8.19422042777219e-05, array([[  1.35677399e-24]])]
[14.050000000000065, 1.7900368572124281, 4.862922668457031, -1.3778740167617798, 0.0, 0.0005362925280877441, 0.0, 0.0002331379834079264, 0.0, 1.4112142563690806e-06, array([[  2.06787859e-27]])]
[14.100000000000065, 2.0428736751237886, 4.765404224395752, -0.9361518025398254, 0.0, 0.00030308856283930237, 0.0, 5.688539926158502e-05, 0.0, 2.0239106582315883e-05, array([[  2.44785795e-20]])]
[14.150000000000066, 1.7744253295050005, 4.744368076324463, -0.49786272644996643, 0.0, 8.139321927871218e-05, 0.0, -0.00012920066916172212, 0.0, 4.854790818396836e-05, array([[  9.20500625e-16]])]
[14.200000000000067, 0.46774070330569434, 4.747844696044922, 0.6593621969223022, 0.0, 0.0001886887942725048, 0.0, -0.00017881981914642475, 0.0, -3.2200311899096524e-06, array([[  2.22309803e-14]])]
[14.250000000000068, -0.4312142386201526, 4.76890754699707, 0.8607935309410095, 0.0, 6.34427200370568e-05, 0.0, -0.00033229181093597063, 0.0, 1.8534071349992242e-05, array([[  1.09438064e-15]])]
[14.300000000000068, -1.4550843711283534, 4.818337917327881, 0.43800219893455505, 0.0, 2.875582428760697e-05, 0.0, -0.00037908040859975, 0.0, 3.872059417552114e-06, array([[  4.65432856e-14]])]
