time, uz, alt, vel_alt, uthe, roll, uphi, pitch, upsi, yaw, F
[0.0, 0.0, -0.06346067041158676, -0.03609279543161392, 0.0, -0.006396500713719809, 0.0, 0.02046622566199547, 0.0, -0.005947481706055404, array([[-26.03060429]])]
[0.05, 26.034034788888192, -0.06346067041158676, -0.03609279543161392, 0.0, -0.006396500713719809, 0.0, 0.02046622566199547, 0.0, -0.005947481706055404, array([[-67.14156884]])]
[0.1, 67.14504838558115, -0.06379009038209915, -0.022050932049751282, 0.0, -0.006344919398549077, 0.0, 0.020416402696311908, 0.0, -0.0059403871242011495, array([[-144.10297165]])]
[0.15000000000000002, 144.10557262259718, -0.0553271621465683, 0.46347513794898987, 0.0, -0.00574752148643769, 0.0, 0.01865057093095298, 0.0, -0.005761825987525426, array([[ 6.07661924]])]
[0.2, -6.38173344826737, 0.001508297398686409, 1.3826465606689453, 0.0, -0.0032967298219790725, 0.0, 0.010335926570815892, 0.0, -0.00500915737861186, array([[ 0.02455472]])]
[0.25, -0.7071693243285538, 0.0592099130153656, 1.330702543258667, 0.0, -0.002926826514901733, 0.0, 0.008163880958315621, 0.0, -0.004411785545876466, array([[  3.49429675e-06]])]
[0.3, -0.5797695701593227, 0.09864439070224762, 1.0489115715026855, 0.0, -0.002619856765909394, 0.0, 0.006200272600266525, 0.0, -0.0037475820609739778, array([[ 0.00435193]])]
[0.35, 0.2455215069215393, 0.1511443853378296, 0.40303412079811096, 0.0, -0.002082790709409573, 0.0, 0.0031263185117595934, 0.0, -0.002780738808234332, array([[-785.96264939]])]
[0.39999999999999997, 787.7994045538866, 0.16276907920837402, -0.03391680121421814, 0.0, -0.0014054790596779764, 0.0, 0.0002539226281124802, 0.0, -0.001760568624341493, array([[-10602.83467548]])]
[0.44999999999999996, 10605.535314445135, 0.1701243370771408, 0.41905662417411804, 0.0, -0.0009266366588520335, 0.0, -0.00036154660339206973, 0.0, -0.001263310833276865, array([[-6288.42101378]])]
[0.49999999999999994, 6291.322635816064, 0.225719153881073, 1.3624526262283325, 0.0, -0.0005889504945755653, 0.0, 0.00012015930937954145, 0.0, -0.0008299911613429805, array([[-10.15905237]])]
[0.5499999999999999, 12.534184893410552, 0.2937650978565216, 1.9658915996551514, 0.0, -0.0005462917572894499, 0.0, 4.755718445123945e-05, 0.0, -0.0007385944046776464, array([[ -9.25242019e-14]])]
[0.6, 1.2659574949742287, 0.43988877534866333, 2.8241748809814453, 0.0, -0.00034324151460508797, 0.0, 0.0004242175248012014, 0.0, -0.0006793114579019514, array([[ -7.61163792e-24]])]
[0.65, 0.7487478663027286, 0.5649037957191467, 3.367424249649048, 0.0, -0.00030352055673609857, 0.0, 0.00044255868558562247, 0.0, -0.000638339025934655, array([[ -3.08569652e-51]])]
[0.7000000000000001, 0.16721398502588272, 0.786217212677002, 3.787691593170166, 0.0, -0.0001355435511610505, 0.0, 0.0005825245608738476, 0.0, -0.000513050916328338, array([[ -9.70526837e-67]])]
[0.7500000000000001, 0.07957141131162644, 0.937960684299469, 3.613647222518921, 0.0, -0.00012232188001720879, 0.0, 0.0006578556258232039, 0.0, -0.00041552388633548016, array([[ -3.49262188e-60]])]
[0.8000000000000002, 0.6677824985980987, 1.1438206434249878, 3.1071619987487793, 0.0, -9.205465379656672e-06, 0.0, 0.000663871278415979, 0.0, -0.00036777647337777274, array([[ -4.73985812e-51]])]
[0.8500000000000002, 1.2766454964876175, 1.2682551145553589, 3.0451693534851074, 0.0, 4.530431946596538e-05, 0.0, 0.0005829690811464374, 0.0, -0.00032485470551565584, array([[ -3.29984806e-41]])]
[0.9000000000000002, 1.650460222363472, 1.468666434288025, 3.6306354999542236, 0.0, 9.455312298398193e-06, 0.0, 0.0005000621110967654, 0.0, -0.0003403755869913995, array([[ -7.24340844e-49]])]
[0.9500000000000003, 1.3711598628759385, 1.626210331916809, 4.138128280639648, 0.0, 9.126609354836438e-06, 0.0, 0.0005588427133475671, 0.0, -0.00030143171325672783, array([[ -4.83517222e-82]])]
[1.0000000000000002, -0.045090314745903, 1.8992208242416382, 4.822086334228516, 0.0, -5.3587531415473936e-05, 0.0, 0.0005288618727866048, 0.0, -0.00017703093651476442, array([[ -5.89831984e-100]])]
[1.0500000000000003, -0.8052359563112259, 2.0904648303985596, 4.601708889007568, 0.0, -0.00019005307749915773, 0.0, 0.000527038091722995, 0.0, -0.00016560290601313964, array([[ -3.99576929e-104]])]
[1.1000000000000003, -1.1599604547023772, 2.2346699237823486, 4.307579517364502, 0.0, -0.0003289757193074117, 0.0, 0.0005624115602746388, 0.0, 0.013536651322203785, array([[ -5.52785990e-91]])]
[1.1500000000000004, -0.8220668935775756, 2.508787155151367, 3.657407522201538, 0.0, -0.0004916133706017894, 0.0, 0.0007828818815321234, 0.0, 0.01319490257184997, array([[ -3.82214503e-65]])]
[1.2000000000000004, 0.1179834818840027, 2.713541269302368, 3.0818183422088623, 0.0, -0.0005676541582048151, 0.0, 0.0009039354332613927, 0.0, 0.012618088994379573, array([[ -1.57460442e-54]])]
[1.2500000000000004, 0.6007740008831024, 2.831233263015747, 2.7215564250946045, 0.0, -0.000602546184638472, 0.0, 0.0010471902777278962, 0.0, 0.011993065523699714, array([[ -5.52640177e-36]])]
[1.3000000000000005, 0.9796542286872862, 2.9900858402252197, 2.5826499462127686, 0.0, -0.0003653537021591227, 0.0, 0.0010105090206995208, 0.0, 0.01050075200456489, array([[ -5.56537542e-33]])]
[1.3500000000000005, 0.8099036502838135, 3.101412773132324, 2.9728195667266846, 0.0, -9.260781122635454e-05, 0.0, 0.0009399474442845397, 0.0, 0.00891825937110071, array([[ -2.30579679e-44]])]
[1.4000000000000006, -0.05980333030223842, 3.301429033279419, 3.5622193813323975, 0.0, -8.478476046296024e-05, 0.0, 0.0007596606298319994, 0.0, 0.0062431910804850565, array([[ -8.97982626e-57]])]
[1.4500000000000006, -0.7700236362218856, 3.4437718391418457, 3.4010446071624756, 0.0, -0.0002302344888504758, 0.0, 0.0007948956326652082, 0.0, 0.0042896183552004604, array([[ -6.69860481e-60]])]
[1.5000000000000007, -1.3072616565227508, 3.6359124183654785, 2.845231533050537, 0.0, -0.0004160589625131133, 0.0, 0.0008976669399996098, 0.0, 0.0015825120778422972, array([[ -7.09763023e-51]])]
[1.5500000000000007, -1.3224439984560012, 3.744680404663086, 2.4619576930999756, 0.0, -0.0004763882467347612, 0.0, 0.0009364003609712075, 0.0, -3.55421092024656e-05, array([[ -1.14426290e-33]])]
[1.6000000000000008, -0.8836137187480926, 3.8786046504974365, 1.8860037326812744, 0.0, -0.0006291238655815628, 0.0, 0.00109878700360085, 0.0, -0.002146632410344356, array([[ -4.25419183e-27]])]
[1.6500000000000008, -0.4684934610128402, 3.9486546516418457, 1.5015695095062256, 0.0, -0.0007872042294054103, 0.0, 0.0012745646547406564, 0.0, -0.003567729378911941, array([[ -2.82867679e-16]])]
[1.7000000000000008, 0.28846679449081447, 4.024802207946777, 0.9261988401412964, 0.0, -0.0009494840653462708, 0.0, 0.0015073981943341298, 0.0, -0.005407321694688796, array([[ -9.42459517e-13]])]
[1.7500000000000009, 0.567568959296692, 4.057249069213867, 0.6159312129020691, 0.0, -0.001088777843647871, 0.0, 0.0016878630510970163, 0.0, -0.006541787403951567, array([[ -1.12538243e-08]])]
[1.800000000000001, 0.8138267274980451, 4.091129779815674, 0.49009108543395996, 0.0, -0.0011332170318857596, 0.0, 0.0016138384708764867, 0.0, -0.007641401298524248, array([[ -2.24949293e-08]])]
[1.850000000000001, 0.6399298317672185, 4.1166181564331055, 0.7332735061645508, 0.0, -0.001078966018598166, 0.0, 0.0012884299153631312, 0.0, -0.007802351677508141, array([[ -1.18851592e-09]])]
[1.900000000000001, -0.0023321497476107606, 4.1753082275390625, 1.0563960075378418, 0.0, -0.0008429658945843466, 0.0, 0.0009616062309558176, 0.0, -0.007235434657893237, array([[ -1.71403099e-12]])]
[1.950000000000001, -0.539584648886844, 4.217647552490234, 0.8861512541770935, 0.0, -0.0007096305964137205, 0.0, 0.0008674732806365333, 0.0, -0.006501471187660892, array([[ -2.61693321e-11]])]
[2.000000000000001, -0.8058648569620223, 4.256772041320801, 0.33178356289863586, 0.0, -0.0004613465409462376, 0.0, 0.0007420918765976109, 0.0, -0.005350298852767238, array([[ -3.98168301e-09]])]
[2.0500000000000007, -0.613909735721257, 4.263362407684326, -0.05123497545719147, 0.0, -0.00034644003010425806, 0.0, 0.000802805792891886, 0.0, -0.004561106894704821, array([[ -2.23252014e-09]])]
[2.1000000000000005, 0.34087043113741117, 4.243892669677734, -0.6255955696105957, 0.0, -0.0001374250334581368, 0.0, 0.000852975199314555, 0.0, -0.0035468866721275064, array([[ -1.38029644e-12]])]
[2.1500000000000004, 1.0187211095555517, 4.213521957397461, -0.8999307155609131, 0.0, 1.3725903239174476e-05, 0.0, 0.0008842534935995414, 0.0, -0.002950105883446595, array([[ -3.74474438e-15]])]
[2.2, 1.7780406007170713, 4.184156894683838, -0.8409521579742432, 0.0, 0.00011024017258835465, 0.0, 0.0008801160133058619, 0.0, -0.0022661882249758003, array([[ -2.49061851e-14]])]
[2.25, 1.6093571251631031, 4.161899089813232, 0.20905937254428864, 0.0, 0.00014089473007564897, 0.0, 0.0005899813963502704, 0.0, -0.0016474788872570536, array([[ -2.17330786e-08]])]
[2.3, 0.15587674563351595, 4.20485782623291, 1.170113205909729, 0.0, 0.0001701849353886601, 0.0, 0.0006147843347763572, 0.0, -0.0012975650267079055, array([[ -4.86383659e-10]])]
[2.3499999999999996, -0.6802989329749246, 4.255349159240723, 1.1918601989746094, 0.0, 4.986270461808045e-05, 0.0, 0.0006280476450733425, 0.0, -0.0012317682614141259, array([[ -2.42856583e-14]])]
[2.3999999999999995, -1.5259033162891622, 4.314686298370361, 0.6983674168586731, 0.0, 4.3405215700218356e-05, 0.0, 0.0005191965220637252, 0.0, -0.0011715026168556397, array([[ -2.39447185e-12]])]
[2.4499999999999993, -1.4049888756847277, 4.335975646972656, 0.3185526430606842, 0.0, 5.1055168767893715e-05, 0.0, 0.0005004736028658839, 0.0, -0.001190130063060195, array([[ -1.32750546e-09]])]
[2.499999999999999, -0.24640660808850248, 4.3418097496032715, 0.012271571904420853, 0.0, 0.00011501976563346589, 0.0, 0.00046836605453334584, 0.0, -0.0011351563231724393, array([[ -8.82367322e-10]])]
[2.549999999999999, 0.5624859546939234, 4.322010040283203, -0.6398739218711853, 0.0, 0.00020848709579137268, 0.0, 0.0005402186825367449, 0.0, -0.001131165189156927, array([[ -3.33871914e-13]])]
[2.5999999999999988, 1.583091538325286, 4.276673316955566, -0.8137891292572021, 0.0, 0.00017458495066400938, 0.0, 0.0005870373388446364, 0.0, -0.0010539572417699494, array([[ -1.19663228e-14]])]
[2.6499999999999986, 1.705588140413177, 4.252750873565674, -0.3383595645427704, 0.0, 0.00014319993541373843, 0.0, 0.0005969753992940214, 0.0, -0.0009232261870140392, array([[ -1.59030695e-10]])]
[2.6999999999999984, 0.8831352881442363, 4.2635674476623535, 0.6352835297584534, 0.0, 0.0002186356514114379, 0.0, 0.00048260584309356273, 0.0, -0.0007263903652318723, array([[ -5.34937434e-09]])]
[2.7499999999999982, 0.05676497472808415, 4.30133581161499, 1.162800669670105, 0.0, 0.00012903791053669843, 0.0, 0.0004695058672538194, 0.0, -0.0006230687068605753, array([[ -2.45459013e-14]])]
[2.799999999999998, -1.3494159055873505, 4.370181560516357, 0.9201478958129883, 0.0, -6.152395767660483e-05, 0.0, 0.000563279431946745, 0.0, -0.0002597262220456064, array([[ -2.09310266e-14]])]
[2.849999999999998, -1.599382843747714, 4.400667190551758, 0.5509800314903259, 0.0, -0.00012045874143478331, 0.0, 0.0005582354537048374, 0.0, -0.00017806191285771154, array([[ -1.23303296e-10]])]
[2.8999999999999977, -0.8870567355934568, 4.418094635009766, -0.022321023046970367, 0.0, -0.000318301583540091, 0.0, 0.0006710535631877439, 0.0, 2.6867184795934538e-05, array([[ -4.26551584e-10]])]
[2.9499999999999975, -0.11552906369976111, 4.410492420196533, -0.4061264097690582, 0.0, -0.00034923939267786255, 0.0, 0.0007311831619024642, 0.0, 0.00019846827394053728, array([[ -5.35702902e-12]])]
[2.9999999999999973, 1.180968025294833, 4.370115280151367, -0.9765212535858154, 0.0, -0.00040911656421043353, 0.0, 0.0009170916324057625, 0.0, 0.0004222924473272951, array([[ -2.08369805e-14]])]
[3.049999999999997, 1.6724430913478343, 4.334869384765625, -0.6813962459564209, 0.0, -0.0004379184909826104, 0.0, 0.0010935610411789384, 0.0, 0.000497599211449749, array([[ -1.12731538e-13]])]
[3.099999999999997, 1.414212525859588, 4.325004577636719, 0.2794603109359741, 0.0, -0.0002852048850829539, 0.0, 0.0007520469523657732, 0.0, 0.0006546862377327964, array([[ -1.60552299e-09]])]
[3.149999999999997, 0.1403731261975292, 4.350674629211426, 0.9219084978103638, 0.0, -0.0001821448255934553, 0.0, 0.0007064252275516614, 0.0, 0.0006409049793553818, array([[ -1.83600297e-12]])]
[3.1999999999999966, -0.9024942500125883, 4.417786121368408, 0.9815425276756287, 0.0, -9.97185352009765e-05, 0.0, 0.0005828210147049009, 0.0, 0.0004670423353558385, array([[ -1.01654781e-14]])]
[3.2499999999999964, -1.434590762481083, 4.451447486877441, 0.629339873790741, 0.0, -6.515924968182967e-05, 0.0, 0.0005157953114184251, 0.0, 0.00029560120640288544, array([[ -2.57103628e-11]])]
[3.2999999999999963, -0.9097790375839859, 4.474131107330322, 0.05837235227227211, 0.0, -6.307500356973251e-05, 0.0, 0.0003558838280069798, 0.0, 9.439771056481522e-05, array([[ -1.52999156e-10]])]
[3.349999999999996, -0.14352608907569048, 4.470037937164307, -0.3254151940345764, 0.0, -6.406421245120638e-05, 0.0, 0.0003247527156945548, 0.0, -9.534657138670109e-05, array([[ -6.41187038e-12]])]
[3.399999999999996, 1.135219570143972, 4.435742378234863, -0.7925391793251038, 0.0, -7.957274635313846e-06, 0.0, 0.0003627560727284167, 0.0, -0.0003613685398900112, array([[ -4.32379173e-14]])]
[3.4499999999999957, 1.7742853130214349, 4.413791179656982, -0.2962808609008789, 0.0, -3.8472751996551936e-05, 0.0, 0.0004604289983456346, 0.0, -0.0005214496638715747, array([[ -2.25286671e-11]])]
[3.4999999999999956, 1.2098160813135932, 4.4282636642456055, 0.6727067828178406, 0.0, 3.5496754117080624e-05, 0.0, 0.0003105367298069093, 0.0, -0.0005916519158027572, array([[ -4.32754720e-10]])]
[3.5499999999999954, 0.39874455986979124, 4.469459056854248, 1.2996807098388672, 0.0, 1.6437940037374682e-05, 0.0, 0.0003714233390340654, 0.0, -0.0006003366497157087, array([[ -5.23157278e-17]])]
[3.599999999999995, -1.1004216157458722, 4.5572686195373535, 1.386369228363037, 0.0, 7.32755248934157e-05, 0.0, 0.0004593847817266954, 0.0, -0.0006532593090354547, array([[ -1.00165034e-18]])]
[3.649999999999995, -1.5827441147202626, 4.607985973358154, 1.0608881711959839, 0.0, 7.875049833284804e-05, 0.0, 0.0005661695344624345, 0.0, -0.0007011327211378762, array([[ -1.94122497e-15]])]
[3.699999999999995, -1.2797884579841028, 4.656490325927734, 0.4927843511104584, 0.0, 6.654506752954852e-05, 0.0, 0.0007852988848376945, 0.0, -0.0006841858813703527, array([[ -2.31940269e-13]])]
[3.7499999999999947, -0.7370929047649268, 4.669757843017578, 0.10966619104146957, 0.0, 0.00010030469802957748, 0.0, 0.0009062964174135686, 0.0, -0.0006250766472517349, array([[ -6.74238749e-12]])]
[3.7999999999999945, 0.543437720634732, 4.6691179275512695, -0.1977360099554062, 0.0, 0.00012838807024682401, 0.0, 0.0011860694736701694, 0.0, -0.0005415952458128616, array([[ -9.91941686e-13]])]
[3.8499999999999943, 1.2676770557304287, 4.639792442321777, -0.5702808499336243, 0.0, 0.0001193670387478227, 0.0, 0.00154266030077758, 0.0, -0.0004389939263750637, array([[ -7.93647945e-15]])]
[3.899999999999994, 1.595867380448625, 4.627236366271973, -0.22457902133464813, 0.0, 0.00011340503258510019, 0.0, 0.0013048354411862514, 0.0, -0.00032909297143487114, array([[ -1.51203876e-12]])]
[3.949999999999994, 0.9752543889047797, 4.651533126831055, 0.8580220341682434, 0.0, 4.435318769267201e-05, 0.0, 0.000929996488852378, 0.0, -0.0003428018585903225, array([[ -4.44112522e-14]])]
[3.999999999999994, -0.5151185895828085, 4.732343673706055, 1.7225760221481323, 0.0, 0.0001267243688190054, 0.0, 0.0005456806911922252, 0.0, -0.00028698547787669, array([[ -4.79128268e-19]])]
[4.049999999999994, -1.3106782252853737, 4.8019232749938965, 1.5776170492172241, 0.0, 3.122595011997672e-05, 0.0, 0.0004039934122688492, 0.0, -0.0001711941864085937, array([[ -3.88820127e-23]])]
[4.099999999999993, -1.8893612870341165, 4.849118232727051, 1.2888315916061401, 0.0, -0.00010368043050740972, 0.0, 0.0003901383519561057, 0.0, -6.36619644935513e-05, array([[ -1.18099322e-19]])]
[4.149999999999993, -1.4895816705049947, 4.917067050933838, 0.6408547759056091, 0.0, -0.00027530128252788307, 0.0, 0.0006623929912633696, 0.0, 0.0001741439028045121, array([[ -9.25100485e-15]])]
[4.199999999999993, -0.26776728300376795, 4.933479309082031, 0.3341590166091919, 0.0, -0.0003961181008384601, 0.0, 0.000873086093152958, 0.0, 0.0002640878316699078, array([[ -5.87637290e-14]])]
[4.249999999999993, 0.5288173823245457, 4.935682773590088, -0.30981871485710144, 0.0, -0.0005684396894653987, 0.0, 0.0013991700807793037, 0.0, 0.00041441169963125115, array([[ -3.02035242e-15]])]
[4.299999999999993, 1.395231265090409, 4.912319660186768, -0.46524325013160706, 0.0, -0.0005567097280087608, 0.0, 0.001695809240004515, 0.0, 0.0006230486669794673, array([[ -6.35075844e-16]])]
[4.3499999999999925, 1.2977761274017399, 4.902581691741943, 0.003222766565158963, 0.0, -0.0003781063478836309, 0.0, 0.0013376511161082374, 0.0, 0.0006682806076279503, array([[ -8.44724765e-14]])]
[4.399999999999992, 0.49746759613635083, 4.911725044250488, 0.5138595700263977, 0.0, -0.0002557686254469662, 0.0, 0.0009051452816155068, 0.0, 0.0005686138862291239, array([[ -3.14291061e-14]])]
[4.449999999999992, -0.32117402855303717, 4.973378658294678, 0.9920236468315125, 0.0, -7.995185788882876e-05, 0.0, 0.0007145327854488802, 0.0, 0.0005339720254758078, array([[ -1.50953494e-17]])]
[4.499999999999992, -1.2037479568086564, 5.026572227478027, 0.6127027273178101, 0.0, -3.0301518687682787e-05, 0.0, 0.0005651963256039069, 0.0, 0.0004910022412309082, array([[ -9.41799576e-17]])]
[4.549999999999992, -1.3811354923900216, 5.045193195343018, 0.23511973023414612, 0.0, 1.7724276609389024e-05, 0.0, 0.0004806158229340412, 0.0, 0.0004505540889437914, array([[ -1.04084749e-14]])]
[4.599999999999992, -0.6356101644597842, 5.048961162567139, -0.07157161831855774, 0.0, 0.00011674914467645058, 0.0, 0.0005126561195472049, 0.0, 0.00039966636202675256, array([[ -3.69591084e-15]])]
[4.6499999999999915, 0.14442986574024333, 5.0241193771362305, -0.7239957451820374, 0.0, 0.00011614987714693377, 0.0, 0.0006851343511027291, 0.0, 0.00041063440589373724, array([[ -3.87653631e-19]])]
[4.699999999999991, 1.2128611560352145, 4.9972405433654785, -1.0089552402496338, 0.0, 9.768679224499912e-05, 0.0, 0.0007838185849517607, 0.0, 0.00035870798260127345, array([[ -3.19917246e-22]])]
[4.749999999999991, 1.4770456388592719, 4.928520679473877, -0.724919855594635, 0.0, 5.00159172442142e-05, 0.0, 0.0007836293723591437, 0.0, 0.0002860281259663169, array([[ -2.11668485e-18]])]
[4.799999999999991, 0.8446615440584718, 4.914497375488281, -0.21765311062335968, 0.0, 7.670666394108289e-05, 0.0, 0.0005842532320428227, 0.0, 0.00018841883150967872, array([[ -1.17880350e-14]])]
[4.849999999999991, 0.033181711919617544, 4.936090469360352, 0.6929088234901428, 0.0, 0.00012841563861292643, 0.0, 0.0003381716053981964, 0.0, 0.0001314355834397145, array([[ -3.57113853e-15]])]
[4.899999999999991, -1.2905376004427636, 4.975857734680176, 0.41718417406082153, 0.0, 2.3564455192769535e-05, 0.0, 0.0005237155283387147, 0.0, 0.00017778158762145829, array([[ -2.80537546e-15]])]
[4.94999999999999, -1.518775363881138, 4.986537456512451, 0.04430057480931282, 0.0, -4.7541718391383095e-05, 0.0, 0.0006074589121261591, 0.0, 0.00013460260209729818, array([[ -2.25517903e-14]])]
[4.99999999999999, -0.7350719515234005, 4.9742631912231445, -0.5302094221115112, 0.0, -0.00013082404309597553, 0.0, 0.0006407891697954557, 0.0, 0.00018835450813439047, array([[ -2.10056051e-15]])]
[5.04999999999999, 0.04328314241022082, 4.9468560218811035, -0.9142992496490479, 0.0, -0.0001936543556615738, 0.0, 0.0007832745620602485, 0.0, 0.00020265051038728438, array([[ -1.28326771e-20]])]
[5.09999999999999, 1.3537464805692432, 4.879403591156006, -1.421219825744629, 0.0, -0.0002619195681486998, 0.0, 0.0010543014237994692, 0.0, 0.0002706976146547715, array([[ -1.58529432e-24]])]
[5.14999999999999, 1.9419661715999244, 4.83214807510376, -0.9900119304656982, 0.0, -0.0002975300335924018, 0.0, 0.001049018778625609, 0.0, 0.0002919216427213085, array([[ -1.13879093e-20]])]
[5.1999999999999895, 1.4979338164068758, 4.804726600646973, -0.03749540448188782, 0.0, -0.0001836024758929977, 0.0, 0.0006321887679188907, 0.0, 0.0002975829988221699, array([[ -3.45570687e-13]])]
[5.249999999999989, 0.703454629592943, 4.818258762359619, 0.6063897013664246, 0.0, -7.681667281632219e-05, 0.0, 0.0005195073427884036, 0.0, 0.0002883487748810864, array([[ -7.41221266e-14]])]
[5.299999999999989, -0.8048592216707023, 4.845743656158447, 0.9670739769935608, 0.0, -4.897401945385368e-05, 0.0, 0.0003943242687958808, 0.0, 0.0002435148275738771, array([[ -2.16181367e-16]])]
[5.349999999999989, -1.4809138957783576, 4.921724796295166, 0.9421926140785217, 0.0, -9.582584913820541e-05, 0.0, 0.00029560655206427707, 0.0, 0.00022395418306938697, array([[ -9.75609719e-17]])]
[5.399999999999989, -1.5113714049011469, 4.964723587036133, 0.3860129117965698, 0.0, -0.0001286447870051291, 0.0, 0.0003344030776197023, 0.0, 0.00022158661340931817, array([[ -2.70375077e-14]])]
[5.449999999999989, -0.8756126524321463, 4.974090576171875, 0.0037784555461257696, 0.0, -0.00012163368742758082, 0.0, 0.0005056583688666511, 0.0, 0.00023708741012868858, array([[ -2.35007659e-14]])]
[5.4999999999999885, 0.40797063724023774, 4.959981918334961, -0.5650941729545593, 0.0, -0.0001859073912347557, 0.0, 0.0008030603260878396, 0.0, 0.00014735503713129633, array([[ -3.16292998e-17]])]
[5.549999999999988, 1.1576354332640768, 4.934417247772217, -0.787528395652771, 0.0, -0.0001922322671229577, 0.0, 0.0009558489135695009, 0.0, 7.38337041261515e-05, array([[ -4.27876355e-19]])]
[5.599999999999988, 1.672572106719017, 4.89786434173584, -0.29108425974845886, 0.0, -0.00020323492960805175, 0.0, 0.0007659616160706081, 0.0, -4.28147419979294e-05, array([[ -5.48694523e-15]])]
[5.649999999999988, 1.3214165677875334, 4.901000499725342, 0.35041654109954834, 0.0, -4.523694025037052e-05, 0.0, 0.00045582191028464695, 0.0, -0.0001347959279542558, array([[ -1.03884011e-13]])]
[5.699999999999988, -0.12167061677192192, 4.952838897705078, 1.1943943500518799, 0.0, -0.00013500356959885086, 0.0, 0.00038405800961597257, 0.0, -9.738514214779515e-05, array([[ -2.19146287e-19]])]
[5.749999999999988, -0.9443335134349762, 4.9988532066345215, 0.9575701951980591, 0.0, 4.964468841095084e-05, 0.0, 0.00044010394544006197, 0.0, -9.229067145115446e-05, array([[ -1.83979091e-17]])]
[5.799999999999987, -1.4235891844332216, 5.042646408081055, 0.3974112868309021, 0.0, 0.00023974178438193117, 0.0, 0.0006734828467416646, 0.0, -0.00012020638164042344, array([[ -9.33061769e-16]])]
[5.849999999999987, -1.2324038444273162, 5.053039073944092, 0.014754834584891796, 0.0, 0.0003007915897693355, 0.0, 0.000920047939227148, 0.0, -0.00010581881198461107, array([[ -5.92171767e-15]])]
[5.899999999999987, -0.15930834247264417, 5.051336288452148, -0.29214242100715637, 0.0, 0.00042427531379890955, 0.0, 0.0012843609450283171, 0.0, -0.00018525800752270814, array([[ -4.29832960e-16]])]
[5.949999999999987, 0.6423530885577206, 5.014980792999268, -0.944863498210907, 0.0, 0.0006101162807390904, 0.0, 0.001876958519522873, 0.0, -0.0002500326987464128, array([[ -1.57332247e-21]])]
[5.999999999999987, 1.501406337674707, 4.955404758453369, -1.0261335372924805, 0.0, 0.0007150386442658961, 0.0, 0.0023220886138918995, 0.0, -0.00034401557212588034, array([[ -2.11253214e-23]])]
[6.0499999999999865, 1.5352983398735522, 4.9274067878723145, -0.4715341031551361, 0.0, 0.0004897732868285397, 0.0, 0.0017003247754862594, 0.0, -0.00033616847552928964, array([[ -3.19561678e-16]])]
[6.099999999999986, 0.5332902655564251, 4.922488212585449, 0.04186497628688812, 0.0, 0.0003759178518923421, 0.0, 0.0010264376686983647, 0.0, -0.00031354824141656884, array([[ -6.46243479e-14]])]
[6.149999999999986, -0.288288720827485, 4.95561408996582, 0.5675318837165833, 0.0, 0.00024352246102472464, 0.0, 0.0007412246936924644, 0.0, -0.00021216127950130347, array([[ -9.60939951e-15]])]
[6.199999999999986, -1.1990844850242042, 4.984701633453369, 0.1766827255487442, 0.0, 0.00020496005168274873, 0.0, 0.0004831460045625178, 0.0, 1.4042266760810804e-05, array([[ -1.87402529e-14]])]
[6.249999999999986, -1.233893510103207, 4.986760139465332, -0.20043304562568665, 0.0, 9.230091553524978e-05, 0.0, 0.0004681232839332013, 0.0, 0.0002031694167046739, array([[ -4.08607682e-15]])]
[6.299999999999986, -0.2784379999339539, 4.963362693786621, -0.7745970487594604, 0.0, -5.649962971090871e-05, 0.0, 0.00041481225994023977, 0.0, 0.00041639914602737256, array([[ -6.60253535e-17]])]
[6.349999999999985, 0.5099253746587784, 4.928386688232422, -1.1590157747268677, 0.0, -5.1167145540224695e-05, 0.0, 0.0004611297909786261, 0.0, 0.00047017844402411665, array([[ -1.00814058e-23]])]
[6.399999999999985, 1.8125198603421449, 4.85209846496582, -1.4617716073989868, 0.0, -0.00018675840497007275, 0.0, 0.0006571435251681082, 0.0, 0.0005389968478053011, array([[ -4.24810394e-27]])]
[6.449999999999985, 1.976617041826248, 4.803901195526123, -1.03059720993042, 0.0, -8.162717057878139e-05, 0.0, 0.0005295826809456455, 0.0, 0.0005813520322684833, array([[ -5.41861685e-21]])]
[6.499999999999985, 1.2795850279182195, 4.774840831756592, -0.083372563123703, 0.0, -0.00013724465173359202, 0.0, 0.0003329462868748319, 0.0, 0.0003729767481106836, array([[ -4.23624812e-13]])]
[6.549999999999985, 0.018191203512675024, 4.787456512451172, 0.5588816404342651, 0.0, -2.0897392835249966e-05, 0.0, 9.029614700873912e-05, 0.0, 0.0002330711218984598, array([[ -1.96128461e-13]])]
[6.5999999999999845, -1.0263253200052207, 4.83394193649292, 0.5512948036193848, 0.0, 7.09535752439595e-05, 0.0, 9.135050053063335e-05, 0.0, 0.00021722809175552088, array([[ -8.79128129e-14]])]
[6.649999999999984, -1.516550388224335, 4.85194730758667, 0.1844528317451477, 0.0, 0.00010114826387703296, 0.0, 0.00013853093415908544, 0.0, 0.0001693530387544347, array([[ -3.22447975e-13]])]
[6.699999999999984, -0.885518137775039, 4.852650165557861, -0.38807958364486694, 0.0, 5.3761635612245375e-05, 0.0, 0.00041989268363835334, 0.0, 1.9500420417683363e-06, array([[ -4.06815730e-15]])]
[6.749999999999984, -0.19867548428475448, 4.833743095397949, -0.7715927362442017, 0.0, -1.1321339659041636e-05, 0.0, 0.0006831322883600181, 0.0, -0.00013108057343559276, array([[ -3.65032826e-18]])]
[6.799999999999984, 1.1005426925048232, 4.776270389556885, -1.3234214782714844, 0.0, -6.466491213872851e-05, 0.0, 0.0011413631064700774, 0.0, -0.00029835233744906624, array([[ -4.04994599e-25]])]
[6.849999999999984, 1.760749084316194, 4.732113361358643, -0.962853729724884, 0.0, -0.00010294525357129735, 0.0, 0.001406347837333979, 0.0, -0.0004433730348127699, array([[ -1.36477230e-19]])]
[6.8999999999999835, 1.5395949175208805, 4.7075629234313965, -0.016962675377726555, 0.0, -2.4861657064074422e-05, 0.0, 0.000681102464574499, 0.0, -0.0003696363458051594, array([[ -1.32216986e-14]])]
[6.949999999999983, 0.7559252978861464, 4.7229814529418945, 0.6191643476486206, 0.0, 8.591088204100023e-06, 0.0, 0.0006439119437164637, 0.0, -0.0004146379483295037, array([[ -3.25715214e-13]])]
[6.999999999999983, -0.7416718744483313, 4.782526016235352, 1.1280922889709473, 0.0, 1.4212205715269498e-06, 0.0, 0.0002969928687756447, 0.0, -0.0004003105407438587, array([[ -2.08984189e-17]])]
[7.049999999999983, -1.4224933173507452, 4.827657222747803, 0.9097684025764465, 0.0, 5.56615445309729e-05, 0.0, 0.00015947456653647553, 0.0, -0.00043655260071423345, array([[ -8.97771875e-16]])]
[7.099999999999983, -1.515177956148981, 4.871620178222656, 0.3504512310028076, 0.0, 5.4931478700531566e-05, 0.0, 0.0002710294979673752, 0.0, -0.0003715591745307652, array([[ -1.60406983e-13]])]
[7.149999999999983, -0.9474249269811694, 4.8815131187438965, -0.032740697264671326, 0.0, 6.416615111321044e-05, 0.0, 0.00044976617684551066, 0.0, -0.0002948449252099445, array([[ -9.81959052e-14]])]
[7.199999999999982, 0.26532739762226626, 4.8779683113098145, -0.33997201919555664, 0.0, 0.00013656577739105472, 0.0, 0.0006845729521178457, 0.0, -0.00026615275355817004, array([[ -5.10037513e-15]])]
[7.249999999999982, 1.0674374944344214, 4.839184761047363, -0.9089048504829407, 0.0, 0.00021270823816533, 0.0, 0.0011305968839714446, 0.0, -0.00024247703979132817, array([[ -9.64006797e-20]])]
[7.299999999999982, 1.7724537160992622, 4.8004913330078125, -0.31482255458831787, 0.0, 0.0001620184239030734, 0.0, 0.0009302531421050384, 0.0, -8.708433242461361e-05, array([[ -2.72510689e-14]])]
[7.349999999999982, 1.3644317615405, 4.803422451019287, 0.3241085708141327, 0.0, 0.00017579209217042228, 0.0, 0.00042886275362312204, 0.0, -7.043183654616721e-05, array([[ -6.12601047e-13]])]
[7.399999999999982, -0.08935769595144522, 4.8551130294799805, 1.2149473428726196, 0.0, 6.790524494662977e-05, 0.0, 0.00032713780734902495, 0.0, -0.00019850054367870815, array([[ -3.35749134e-15]])]
[7.4499999999999815, -0.9099180783797021, 4.904018878936768, 1.0223824977874756, 0.0, 0.0002700300428860851, 0.0, 0.00039021330555187876, 0.0, -0.000246169196934497, array([[ -2.72689641e-17]])]
[7.499999999999981, -1.5032245923578738, 4.935364246368408, 0.7315132021903992, 0.0, 0.00043458644238154843, 0.0, 0.0004657748446969693, 0.0, -0.0002837156830668506, array([[ -2.01302363e-15]])]
[7.549999999999981, -1.3082011073082664, 4.970449447631836, 0.08360279351472855, 0.0, 0.0006915251366135701, 0.0, 0.0008207444150196709, 0.0, -0.00033916698065318166, array([[ -3.35079844e-14]])]
[7.599999999999981, -0.24009696125980842, 4.963857650756836, -0.49192091822624207, 0.0, 0.0009158195148925898, 0.0, 0.001176656616926699, 0.0, -0.00030620602830276465, array([[ -3.94088976e-15]])]
[7.649999999999981, 0.5638396647200027, 4.939925670623779, -0.8759379386901855, 0.0, 0.0011190181519150422, 0.0, 0.001595677765539106, 0.0, -0.00042099735367690254, array([[ -3.93057976e-20]])]
[7.699999999999981, 1.505817185975611, 4.8814287185668945, -1.1267032623291016, 0.0, 0.0012726076286230657, 0.0, 0.002099492851011144, 0.0, -0.0003928217119614875, array([[ -6.04727862e-23]])]
[7.7499999999999805, 1.6306892808154223, 4.847163677215576, -0.6683899760246277, 0.0, 0.0009968342413240218, 0.0, 0.0017029386734794781, 0.0, -0.00043857447268187927, array([[ -2.99189841e-17]])]
[7.79999999999998, 0.8082811277732254, 4.836219310760498, -0.16314107179641724, 0.0, 0.0005553235015005632, 0.0, 0.0009676140632003373, 0.0, -0.000346515661028201, array([[ -7.65075308e-14]])]
[7.84999999999998, -0.0021778229250738754, 4.863061428070068, 0.6971264481544495, 0.0, 0.0005131939117192032, 0.0, 0.0006988463342476264, 0.0, -0.000250678744607298, array([[ -1.19285358e-14]])]
[7.89999999999998, -1.2747611425444363, 4.9056854248046875, 0.3858937621116638, 0.0, 0.0002844838200331289, 0.0, 0.00019441389950984795, 0.0, -0.0002191359613257234, array([[ -1.63573613e-14]])]
[7.94999999999998, -1.4649055815115406, 4.917352199554443, 0.009832100011408329, 0.0, 0.00012318681969264263, 0.0, -3.606038595371912e-05, 0.0, -0.00022894390511174714, array([[ -6.48488307e-14]])]
[7.99999999999998, -0.7413262459588519, 4.90593957901001, -0.5637544989585876, 0.0, -0.00023996796471196548, 0.0, -0.00029964947000648824, 0.0, -0.00014039734827397162, array([[ -8.23481633e-17]])]
[8.04999999999998, 0.2974863508343697, 4.878976345062256, -0.9477959871292114, 0.0, -0.0004888752207474091, 0.0, -0.00035312753734833646, 0.0, -0.00015788007293996036, array([[ -1.59861125e-20]])]
[8.09999999999998, 1.3208093851432203, 4.846421718597412, -1.2312891483306885, 0.0, -0.000744267699810342, 0.0, -0.0004096972506825435, 0.0, -0.00020754721004548077, array([[ -3.19423881e-24]])]
[8.14999999999998, 1.9062808542698622, 4.766047477722168, -0.9664607644081116, 0.0, -0.000813457849817203, 0.0, -0.000321416986048486, 0.0, -0.00021212082023473386, array([[ -6.70538821e-20]])]
[8.199999999999982, 1.4035061378404496, 4.740556240081787, -0.020645543932914734, 0.0, -0.00037419127315120446, 0.0, -0.00040122012249369806, 0.0, -7.831807299582372e-05, array([[ -1.10774957e-12]])]
[8.249999999999982, 0.6108450453460118, 4.755289077758789, 0.6171119809150696, 0.0, -0.00045281366886003777, 0.0, -0.00024317273815403545, 0.0, -6.771707756846135e-05, array([[ -1.90288266e-13]])]
[8.299999999999983, -0.887712728641737, 4.815959930419922, 1.033674716949463, 0.0, -0.00031243259072430955, 0.0, -0.0002299135350200363, 0.0, -0.00013517117588986483, array([[ -9.30931467e-17]])]
[8.349999999999984, -1.6300169443711636, 4.855337619781494, 0.7313216924667358, 0.0, -0.0001994740935848035, 0.0, -0.00017995547942295314, 0.0, -0.00014463003808468867, array([[ -8.75605106e-15]])]
[8.399999999999984, -1.3568366843834432, 4.887650966644287, 0.16458845138549805, 0.0, 3.8315054190791274e-05, 0.0, 0.00015293872349139668, 0.0, -0.00023062460860835603, array([[ -1.56987495e-13]])]
[8.449999999999985, -0.7822914508356074, 4.890061855316162, -0.21888025104999542, 0.0, 0.00015457157383833085, 0.0, 0.0004614285219988178, 0.0, -0.00031286254428003897, array([[ -1.84886551e-14]])]
[8.499999999999986, 0.4976862317323869, 4.86476993560791, -0.793233335018158, 0.0, 0.00037716568847044233, 0.0, 0.0010791600742427368, 0.0, -0.00031606649622314254, array([[ -2.54510609e-16]])]
[8.549999999999986, 1.2583078167214992, 4.83186674118042, -0.976891040802002, 0.0, 0.0004339749885524086, 0.0, 0.0014740334014460461, 0.0, -0.0002984170938040486, array([[ -1.57208052e-20]])]
[8.599999999999987, 1.808807447478175, 4.790965557098389, -0.36461901664733887, 0.0, 0.0003854488322996942, 0.0, 0.00108166012327426, 0.0, -0.00023758408997579978, array([[ -4.30011992e-18]])]
[8.649999999999988, 1.394656993895769, 4.792385101318359, 0.2745792865753174, 0.0, 0.00027340304837945303, 0.0, 0.0006209067950722636, 0.0, -0.00021680281553149795, array([[ -8.29103052e-13]])]
[8.699999999999989, -0.05883163416675269, 4.84345817565918, 1.198683261871338, 0.0, 0.00022325762163243529, 0.0, 0.00034266790834621785, 0.0, -0.00019206707850139308, array([[ -8.83447078e-15]])]
[8.74999999999999, -0.8766877724975258, 4.894684791564941, 1.0663917064666748, 0.0, 0.0001230210024030532, 0.0, 9.228269745125201e-05, 0.0, -0.00010628867282865019, array([[ -1.25580101e-17]])]
[8.79999999999999, -1.5691797099262474, 4.947555065155029, 0.5140616297721863, 0.0, -6.925463378474858e-05, 0.0, 0.00011899624180117469, 0.0, -7.140088008058014e-05, array([[ -1.59965167e-14]])]
[8.84999999999999, -1.1723308083042343, 4.963866233825684, 0.13063858449459076, 0.0, -0.00016421597321288352, 0.0, 0.0002625426161188072, 0.0, -4.579303317498093e-05, array([[ -4.15325401e-14]])]
[8.899999999999991, -0.4157790261879148, 4.965682029724121, -0.17662076652050018, 0.0, -0.0003222727115671244, 0.0, 0.0005467113814289552, 0.0, -2.1245812504728707e-05, array([[ -6.83537217e-15]])]
[8.949999999999992, 0.3804952381551334, 4.937404632568359, -0.8303800225257874, 0.0, -0.00044490911300503936, 0.0, 0.0010106678915805909, 0.0, 4.4535131835963275e-05, array([[ -1.32385449e-19]])]
[8.999999999999993, 1.3636368609592318, 4.878633499145508, -1.2112174034118652, 0.0, -0.0005741400303884475, 0.0, 0.001502050166677031, 0.0, 0.00012980260870877733, array([[ -1.17915287e-22]])]
[9.049999999999994, 1.5876821948215365, 4.840766429901123, -0.759900689125061, 0.0, -0.00045508289488870615, 0.0, 0.0013248296941427821, 0.0, 0.00018792641406576729, array([[ -4.13611642e-18]])]
[9.099999999999994, 0.90825496815145, 4.830481052398682, 0.18946906924247742, 0.0, -0.00041580529336867294, 0.0, 0.000488464422503452, 0.0, 7.736435906510252e-05, array([[ -3.31230976e-14]])]
[9.149999999999995, 0.10278764888647532, 4.853606700897217, 0.7289810180664062, 0.0, -0.00019184764037706814, 0.0, 0.0003996769213317044, 0.0, 8.33281256815051e-05, array([[ -9.25010121e-15]])]
[9.199999999999996, -1.302125372588625, 4.908886909484863, 0.6871713399887085, 0.0, -6.087448642550457e-05, 0.0, -3.0426985614911992e-05, 0.0, 9.398839587066116e-05, array([[ -6.17804474e-16]])]
[9.249999999999996, -1.7312409501150243, 4.933191776275635, 0.32760655879974365, 0.0, -0.00018605943656727238, 0.0, -0.0003648513100101214, 0.0, 0.00012622160313020437, array([[ -6.17203144e-14]])]
[9.299999999999997, -1.0957947881146648, 4.941661357879639, 0.022620251402258873, 0.0, -0.0002235858579569788, 0.0, -0.0005237513104245217, 0.0, 0.00012000847940999547, array([[ -4.12730220e-14]])]
[9.349999999999998, -0.3677183939236734, 4.9273247718811035, -0.6310481429100037, 0.0, -0.00038012182753604764, 0.0, -0.0004719056988913137, 0.0, 0.00014465338953861432, array([[ -1.57205755e-17]])]
[9.399999999999999, 0.9252699841186404, 4.877472877502441, -1.1877862215042114, 0.0, -0.00047484510334223055, 0.0, -0.0003284068152564128, 0.0, 0.00021485831404769942, array([[ -1.16697224e-20]])]
[9.45, 1.5541454095765947, 4.836877346038818, -0.918679416179657, 0.0, -0.00053919092565061, 0.0, -0.00021484316606564297, 0.0, 0.00024990444169322254, array([[ -7.39784997e-20]])]
[9.5, 1.5090288287401197, 4.815000534057617, -0.0176239013671875, 0.0, -0.00021630872291794574, 0.0, -0.0002964280837494216, 0.0, 0.00022846798183546714, array([[ -2.27159804e-15]])]
[9.55, 0.7688598960638068, 4.831672668457031, 0.6183009147644043, 0.0, -0.0003937736016592313, 0.0, -0.00037225442251140805, 0.0, 0.0001612428430990489, array([[ -5.00923700e-14]])]
[9.600000000000001, -0.7200202491878962, 4.8611955642700195, 0.9772430658340454, 0.0, -0.00022181244752011179, 0.0, -0.00034314414199861716, 0.0, 0.00012580425476453833, array([[ -1.30999448e-16]])]
[9.650000000000002, -1.3930215935781596, 4.943161964416504, 0.9611562490463257, 0.0, 5.937285254262463e-05, 0.0, -0.00032838352693062843, 0.0, 0.0001498644344220219, array([[ -4.50513036e-17]])]
[9.700000000000003, -1.60560774192214, 4.972540378570557, 0.6685200333595276, 0.0, 0.00010397472430649581, 0.0, -0.0002722458282716855, 0.0, 0.00012086301010795046, array([[ -2.24321411e-15]])]
[9.750000000000004, -1.050390636399386, 5.0030903816223145, 0.0196550190448761, 0.0, 0.00016454779002883914, 0.0, 1.6704320298525964e-05, 0.0, 0.00018747054336265076, array([[ -1.44622954e-14]])]
[9.800000000000004, 0.22329608783127322, 4.992794036865234, -0.5540082454681396, 0.0, 0.000170529236810594, 0.0, 0.0005894363794901398, 0.0, 0.00020235513369397723, array([[ -1.07650392e-15]])]
[9.850000000000005, 1.0223577977716933, 4.967703342437744, -0.8759844899177551, 0.0, 0.00023656357135297165, 0.0, 0.0009371462547533931, 0.0, 0.00014492743325679003, array([[ -2.31196063e-20]])]
[9.900000000000006, 1.764960197880864, 4.919628143310547, -0.6688886284828186, 0.0, 0.0001426745807437332, 0.0, 0.0009979991636419568, 0.0, 0.00018045972399222167, array([[ -1.03430078e-21]])]
[9.950000000000006, 1.6726918689534067, 4.909732341766357, -0.04303140193223953, 0.0, 0.00011396765085973475, 0.0, 0.0004861339370408073, 0.0, 0.00019963517907275875, array([[ -5.48830480e-14]])]
[10.000000000000007, 0.3281464336067987, 4.942255973815918, 0.8715636134147644, 0.0, 0.0001338308119072653, 0.0, 0.0001245407790075192, 0.0, 3.423157238493121e-05, array([[ -2.12546946e-16]])]
[10.050000000000008, -0.9164037202903997, 4.98249626159668, 0.866712212562561, 0.0, 0.0001843043611690966, 0.0, 2.3522595344297264e-05, 0.0, 5.2264256289104366e-05, array([[ -1.20132334e-16]])]
[10.100000000000009, -1.2956710924208161, 5.010394096374512, 0.6631595492362976, 0.0, 6.591305665338996e-06, 0.0, -0.00016119358799157667, 0.0, 4.9395571888050585e-05, array([[ -1.20604124e-15]])]
[10.15000000000001, -1.3259615143388497, 5.041384696960449, 0.03105110116302967, 0.0, -0.00012541317093041498, 0.0, -0.00024883878194433955, 0.0, -1.2122688748374192e-05, array([[ -7.57479145e-15]])]
[10.20000000000001, -0.380522519750513, 5.031890392303467, -0.5449012517929077, 0.0, -0.00031559421426879096, 0.0, -0.00016137935395882724, 0.0, -4.5155957174012296e-05, array([[ -6.09170671e-16]])]
[10.25000000000001, 0.4147962503880268, 5.006185531616211, -0.9299208521842957, 0.0, -0.0004741421570561986, 0.0, 2.8151571698326106e-05, 0.0, -0.00012358123571536194, array([[ -2.62837099e-21]])]
[10.300000000000011, 1.399868603684008, 4.9452338218688965, -1.2650392055511475, 0.0, -0.0006405784750886982, 0.0, 0.000315917028664506, 0.0, -4.949729211869865e-05, array([[ -1.55797839e-25]])]
[10.350000000000012, 1.6759233965724705, 4.907069206237793, -0.8044528365135193, 0.0, -0.0005652524081485392, 0.0, 0.0002308036477564283, 0.0, -7.896413288270716e-05, array([[ -4.28582297e-19]])]
[10.400000000000013, 0.8894948782771825, 4.892534255981445, -0.30255457758903503, 0.0, -0.00036786880304628413, 0.0, -7.823929171874819e-05, 0.0, -8.326778313733792e-05, array([[ -6.22627695e-15]])]
[10.450000000000014, 0.08427205670625595, 4.9143266677856445, 0.6638481616973877, 0.0, -0.0003361211624654946, 0.0, -7.521175035901025e-05, 0.0, -7.382863969069557e-05, array([[ -7.09053194e-15]])]
[10.500000000000014, -1.2982059114426303, 4.962063789367676, 0.5178202390670776, 0.0, -0.00019789819269157549, 0.0, -0.00033594447864075905, 0.0, -0.00012278267192915575, array([[ -2.00378094e-15]])]
[10.550000000000015, -1.6138460685312725, 4.979665756225586, 0.15135294198989868, 0.0, -8.886188014477045e-05, 0.0, -0.0005103061440020509, 0.0, -8.216367911052918e-05, array([[ -3.18369344e-14]])]
[10.600000000000016, -0.8792450668289938, 4.977207660675049, -0.423155814409256, 0.0, 2.8264467933694304e-05, 0.0, -0.000415422347242785, 0.0, -0.00013715171225234428, array([[ -2.54938407e-16]])]
[10.650000000000016, -0.11506473664194317, 4.956369400024414, -0.8079193830490112, 0.0, 9.2518044780038e-05, 0.0, -0.00024054398367049222, 0.0, -0.0001466821623948875, array([[ -1.62796842e-19]])]
[10.700000000000017, 1.1867285827174783, 4.929646968841553, -1.1156936883926392, 0.0, 0.00014605525938922548, 0.0, -6.624532447910652e-05, 0.0, -0.0001271197348523226, array([[ -3.45186653e-23]])]
[10.750000000000018, 1.8204070694372056, 4.854176044464111, -1.0008275508880615, 0.0, 0.00025205830984522634, 0.0, 0.0002847061066867576, 0.0, -1.1933823911549789e-05, array([[ -5.07017372e-21]])]
[10.800000000000018, 1.4938604515045881, 4.829038619995117, -0.062022361904382706, 0.0, 6.867491174507646e-05, 0.0, -1.1654388476189712e-05, 0.0, -0.00016673332130406692, array([[ -1.85466842e-13]])]
[10.85000000000002, 0.7091933410616584, 4.843796253204346, 0.5740727782249451, 0.0, 4.403910486776952e-05, 0.0, -0.0001674437644088134, 0.0, -0.0002768241676920241, array([[ -6.23263037e-14]])]
[10.90000000000002, -0.7853142692520592, 4.87216329574585, 0.9326533079147339, 0.0, 2.324307426671757e-05, 0.0, -0.0001758827158562387, 0.0, -0.00016740932878697395, array([[ -2.48695074e-16]])]
[10.95000000000002, -1.4590394875407215, 4.944758415222168, 0.7524126172065735, 0.0, -2.683121241704015e-05, 0.0, -0.00016723859674923626, 0.0, -5.529441791034565e-05, array([[ -1.33714838e-15]])]
[11.000000000000021, -1.3426389472559082, 4.979507923126221, 0.1860438585281372, 0.0, -9.46511116958299e-05, 0.0, 1.3679759844272186e-05, 0.0, 7.367203881210733e-05, array([[ -1.70089755e-14]])]
[11.050000000000022, -0.7384043118357488, 4.983219146728516, -0.1981908231973648, 0.0, -0.0001154832851660007, 0.0, 0.0003118064429930231, 0.0, 0.00014142680964799033, array([[ -4.26458732e-15]])]
[11.100000000000023, 0.5445374354487327, 4.976354122161865, -0.5055360198020935, 0.0, -0.00018186769684786798, 0.0, 0.0007152650186712047, 0.0, 0.00020763464797354214, array([[ -6.60041929e-17]])]
[11.150000000000023, 1.2915669556707143, 4.934024810791016, -0.8888554573059082, 0.0, -0.00020346091444047796, 0.0, 0.0012221463767443416, 0.0, 0.0003190959442105068, array([[ -2.93840567e-20]])]
[11.200000000000024, 1.748219710960984, 4.905241966247559, -0.17936784029006958, 0.0, -0.00019370423295912711, 0.0, 0.0007158703546753319, 0.0, 0.00034410184837612855, array([[ -2.98849006e-17]])]
[11.250000000000025, 1.2080323164165019, 4.91547966003418, 0.45642948150634766, 0.0, -0.0002324531995550898, 0.0, 0.00039736698355650644, 0.0, 0.0002943916895849989, array([[ -4.47760742e-14]])]
[11.300000000000026, -0.2580135028250067, 4.977182865142822, 1.3336069583892822, 0.0, -4.72786437448122e-06, 0.0, 0.00016017545894199688, 0.0, 0.00022691825664846965, array([[ -4.83707408e-17]])]
[11.350000000000026, -1.0710888475179672, 5.032409191131592, 1.1389950513839722, 0.0, -7.469682728145739e-05, 0.0, -3.2250619821393434e-05, 0.0, 0.00023939530700501597, array([[ -2.04732677e-19]])]
[11.400000000000027, -1.6145766124874352, 5.090882301330566, 0.5810886025428772, 0.0, -0.00021161049228956498, 0.0, -3.5605260227994456e-05, 0.0, 0.00028795103918803817, array([[ -3.30337748e-17]])]
[11.450000000000028, -1.292157756835222, 5.111081600189209, 0.19685529172420502, 0.0, -0.00024052944306024037, 0.0, 2.6188112166694072e-05, 0.0, 0.0003253705236958373, array([[ -2.98263538e-15]])]
[11.500000000000028, -0.15650763615965543, 5.114668846130371, -0.3787786364555359, 0.0, -0.0004964609891992435, 0.0, 0.0002880996912525929, 0.0, 0.0004161707618765337, array([[ -4.02460626e-17]])]
[11.55000000000003, 0.6397705996781587, 5.097421169281006, -0.7624124884605408, 0.0, -0.0005800760353505297, 0.0, 0.0005746069714479426, 0.0, 0.0004347888560067576, array([[ -3.78126437e-20]])]
[11.60000000000003, 1.5070268096029755, 5.052305698394775, -0.8713245391845703, 0.0, -0.0007045909354878594, 0.0, 0.0008730321419234084, 0.0, 0.0004130687609287886, array([[ -8.74405075e-22]])]
[11.65000000000003, 1.5003792006894945, 5.032390117645264, -0.34248703718185425, 0.0, -0.0005960058183992992, 0.0, 0.0006368131208882722, 0.0, 0.0004442066362758978, array([[ -3.22413658e-16]])]
[11.700000000000031, 0.5519608082994821, 5.047954559326172, 0.5858625769615173, 0.0, -0.0003382008087449398, 0.0, 4.778207299383932e-05, 0.0, 0.0004394992567505719, array([[ -1.37255052e-15]])]
[11.750000000000032, -0.26354605983942603, 5.081079959869385, 0.7558297514915466, 0.0, -0.00032451243322818244, 0.0, 1.298271049816543e-05, 0.0, 0.00040224741712269484, array([[ -1.08260470e-16]])]
[11.800000000000033, -1.2612530440092085, 5.1272101402282715, 0.4103267192840576, 0.0, -0.00022598253188878823, 0.0, -5.1182503860608766e-05, 0.0, 0.000350498977802686, array([[ -2.29377023e-16]])]
[11.850000000000033, -1.4208110464736814, 5.140990257263184, 0.033708684146404266, 0.0, -0.00016045308907028952, 0.0, 2.8412732764620183e-05, 0.0, 0.00028440465724627936, array([[ -1.21339992e-15]])]
[11.900000000000034, -0.6879330145567643, 5.1359076499938965, -0.5400025248527527, 0.0, -3.181749101582989e-05, 0.0, 0.0002383361876521334, 0.0, 0.00012972420465730912, array([[ -9.76002359e-17]])]
[11.950000000000035, 0.07893755193799744, 5.112941265106201, -0.9238771796226501, 0.0, 3.2194677506110984e-05, 0.0, 0.000490075500602182, 0.0, 9.112937304783464e-05, array([[ -4.30327452e-22]])]
[12.000000000000036, 1.3236819529160857, 5.050168991088867, -1.452357530593872, 0.0, 0.00014899201120759404, 0.0, 0.0008729540227420946, 0.0, -2.901629560195746e-05, array([[ -5.55532786e-26]])]
[12.050000000000036, 1.7562795130908488, 5.003720283508301, -1.0766220092773438, 0.0, 0.00014746926656677569, 0.0, 0.0009135014713817966, 0.0, -0.00014213611836269002, array([[ -3.37279125e-23]])]
[12.100000000000037, 1.3322368064522743, 4.9756622314453125, -0.13624772429466248, 0.0, 8.152374448631245e-05, 0.0, 0.00010973020701449799, 0.0, -0.0001418618154898896, array([[ -7.97904046e-15]])]
[12.150000000000038, 0.08046576164663637, 4.988813400268555, 0.4991409480571747, 0.0, 0.00014424852053445168, 0.0, 0.00014745129333152535, 0.0, -3.766864680576329e-05, array([[ -8.95791295e-15]])]
[12.200000000000038, -0.9555271322652608, 5.014382839202881, 0.7029631733894348, 0.0, -7.468297269120352e-05, 0.0, 1.7470100526947603e-05, 0.0, -4.9649638652371315e-05, array([[ -6.84224225e-16]])]
[12.250000000000039, -1.471213120184838, 5.055415630340576, 0.16081754863262177, 0.0, -0.00020722067057934234, 0.0, -0.00024047853228053746, 0.0, -2.7370534783236273e-05, array([[ -8.08191974e-15]])]
[12.30000000000004, -0.8780257445201196, 5.061617851257324, -0.14247606694698334, 0.0, -0.00025186517075716073, 0.0, -0.00040320103470283176, 0.0, -3.442534506605841e-05, array([[ -1.59706640e-15]])]
[12.35000000000004, -0.1486274481192215, 5.042736053466797, -0.7935988306999207, 0.0, -0.0003136801184221269, 0.0, -0.0004674460917753198, 0.0, 2.4771366882382334e-05, array([[ -4.78899496e-20]])]
[12.400000000000041, 1.1228906716406346, 5.017592906951904, -1.1010746955871582, 0.0, -0.00031119887559380986, 0.0, -0.00045650356252157216, 0.0, 5.2248828837847915e-05, array([[ -1.10340392e-23]])]
[12.450000000000042, 1.6673878976330159, 4.942863941192627, -1.0807559490203857, 0.0, -0.0004498937098914526, 0.0, -0.00029288416215217654, 0.0, 2.5775460319243683e-05, array([[ -8.79734116e-23]])]
[12.500000000000043, 1.5268369547650216, 4.920568466186523, -0.5945907831192017, 0.0, -0.0002862336140219675, 0.0, -0.00029002042556747405, 0.0, 4.126112360371537e-05, array([[ -3.34311466e-17]])]
[12.550000000000043, 0.7560427761054598, 4.927460670471191, 0.48704248666763306, 0.0, -0.00016229939294393536, 0.0, -0.0004879225244535596, 0.0, 9.807316186920094e-05, array([[ -2.91643930e-14]])]
[12.600000000000044, -0.7365930299833124, 4.984172821044922, 1.0057352781295776, 0.0, -0.00017140963447834717, 0.0, -0.0003958159074498993, 0.0, 4.310800142353747e-05, array([[ -2.89059039e-16]])]
[12.650000000000045, -1.4037979951873416, 5.025853633880615, 0.7517467737197876, 0.0, -0.00018791343883653444, 0.0, -0.0003161570575037283, 0.0, 1.6804150367223935e-05, array([[ -3.11470323e-16]])]
[12.700000000000045, -1.3836634236574168, 5.051215171813965, 0.45754125714302063, 0.0, -0.00014713545496548183, 0.0, -3.496496618985923e-05, 0.0, -3.278767502486274e-05, array([[ -3.61026042e-15]])]
[12.750000000000046, -0.8141821432858668, 5.073591709136963, -0.19124113023281097, 0.0, -7.398093999267183e-06, 0.0, 0.00047561557175984745, 0.0, -0.00015198329095783658, array([[ -8.76190361e-16]])]
[12.800000000000047, 0.4374346669018277, 5.067919731140137, -0.49844276905059814, 0.0, 8.033198955902112e-05, 0.0, 0.000979938915141092, 0.0, -0.00017655594504259182, array([[ -1.40217410e-17]])]
[12.850000000000048, 1.1314453348889948, 5.026734828948975, -0.987078070640564, 0.0, 0.00016082136901371624, 0.0, 0.0016733424209930939, 0.0, -0.00019601693892687462, array([[ -3.38110475e-22]])]
[12.900000000000048, 1.6564456034451722, 4.991935729980469, -0.32864534854888916, 0.0, 0.00019088065494289732, 0.0, 0.001232248259975992, 0.0, -0.00028791402016729254, array([[ -2.56658254e-19]])]
[12.950000000000049, 1.1620606156811117, 4.9978346824646, 0.30782195925712585, 0.0, 8.616392020448383e-05, 0.0, 0.0006131249715481971, 0.0, -0.00023726035543864373, array([[ -2.00872146e-14]])]
[13.00000000000005, -0.3001253544911541, 5.053346633911133, 1.1413294076919556, 0.0, 9.04907204232994e-05, 0.0, 0.00027039365994926094, 0.0, -0.00018366372663769588, array([[ -2.22685942e-19]])]
[13.05000000000005, -1.117997368313372, 5.1014628410339355, 0.9049810767173767, 0.0, 9.306892751804125e-05, 0.0, 4.9470011753812285e-05, 0.0, -0.00018215637214023112, array([[ -7.03568879e-18]])]
[13.100000000000051, -1.4523879282549021, 5.1512227058410645, 0.3467390239238739, 0.0, -3.663044165165971e-05, 0.0, -0.00010021485427864427, 0.0, -0.00012500571393417035, array([[ -1.00114267e-15]])]
[13.150000000000052, -1.1071971824765192, 5.164852142333984, -0.03567689657211304, 0.0, -9.612804844305485e-05, 0.0, -2.8038568294353103e-05, 0.0, -0.00010511288981184151, array([[ -5.45052634e-16]])]
[13.200000000000053, 0.12230382591486032, 5.156137943267822, -0.6091644763946533, 0.0, -0.0002123401068914712, 0.0, 0.00018963027075837114, 0.0, -3.196744342507518e-05, array([[ -3.42483681e-19]])]
[13.250000000000053, 0.9203866515681147, 5.1311936378479, -0.9667986631393433, 0.0, -0.0002281065706484496, 0.0, 0.0005022436950669818, 0.0, -1.3122805256138848e-05, array([[ -8.90472267e-23]])]
[13.300000000000054, 1.6643083831667898, 5.0820722579956055, -0.7365491986274719, 0.0, -0.00021136663804125134, 0.0, 0.0004663189394827283, 0.0, 5.766982814280471e-06, array([[ -2.10362905e-23]])]
[13.350000000000055, 1.5665490117669105, 5.070703506469727, -0.12818923592567444, 0.0, -0.00018331552551017043, 0.0, 0.0002140419955895344, 0.0, 6.109331018119652e-05, array([[ -1.61895501e-15]])]
[13.400000000000055, 0.28021624686196606, 5.100491523742676, 0.7849117517471313, 0.0, -4.6430362895971405e-05, 0.0, -0.00018848113034662482, 0.0, 1.8970456978034633e-05, array([[ -4.63708674e-17]])]
[13.450000000000056, -0.9625331226736307, 5.138321399688721, 0.7483391165733337, 0.0, -7.359420098693816e-06, 0.0, -0.00011598385290743987, 0.0, -7.105915799382843e-05, array([[ -4.13411391e-17]])]
[13.500000000000057, -1.310591476149857, 5.165253639221191, 0.5383212566375732, 0.0, -2.2344024344876384e-05, 0.0, -0.00014978394168219984, 0.0, -2.7056602677195177e-05, array([[ -2.40429389e-16]])]
[13.550000000000058, -1.3118596822768445, 5.193906307220459, -0.09184922277927399, 0.0, -2.297058643642141e-05, 0.0, -0.00013971961982412907, 0.0, -2.520221005654705e-05, array([[ -2.18110095e-16]])]
[13.600000000000058, -0.39906131330877515, 5.1914825439453125, -0.3980483114719391, 0.0, -3.323626006162595e-05, 0.0, -7.953049431602042e-06, 0.0, -8.555796811849334e-05, array([[ -7.14135812e-18]])]
[13.650000000000059, 0.38619765965268016, 5.154209136962891, -1.0482064485549927, 0.0, -0.00013635361695389794, 0.0, 0.0002867908767326421, 0.0, -8.406036626455939e-05, array([[ -5.02073911e-24]])]
[13.70000000000006, 1.4406411272287367, 5.089723587036133, -1.3334376811981201, 0.0, -0.00014881541462904424, 0.0, 0.0006166697512192723, 0.0, -1.6820330271064357e-05, array([[ -1.27280270e-26]])]
[13.75000000000006, 1.682694800160825, 5.05136775970459, -0.8358359932899475, 0.0, -0.0001427672457993194, 0.0, 0.00038172709092801485, 0.0, 1.7429185298506107e-06, array([[ -1.38939558e-20]])]
[13.800000000000061, 0.908522824384272, 5.038723468780518, 0.11056928336620331, 0.0, -0.00010274999897791271, 0.0, 7.1550909308526e-05, 0.0, 4.003582914953486e-05, array([[ -9.36207523e-15]])]
[13.850000000000062, 0.10078831542284233, 5.059820652008057, 0.6388754844665527, 0.0, -6.157214920716416e-05, 0.0, -5.1026722404298886e-05, 0.0, 4.914479503594656e-05, array([[ -6.75138932e-16]])]
[13.900000000000063, -1.2868643764406436, 5.090358734130859, 0.7783371806144714, 0.0, 8.234204016374464e-05, 0.0, -0.00025156949562608167, 0.0, 7.138640218696084e-05, array([[ -6.12974113e-17]])]
[13.950000000000063, -1.6987872407212852, 5.1401543617248535, 0.23349641263484955, 0.0, 6.170765344201332e-05, 0.0, -0.00041702855271439965, 0.0, 4.373556072509064e-05, array([[ -1.68951134e-15]])]
[14.000000000000064, -0.9392633116617781, 5.147930145263672, -0.3373313248157501, 0.0, -7.421918758200336e-05, 0.0, -0.00034678655433953984, 0.0, -4.99732919639924e-05, array([[ -3.79695024e-17]])]
[14.050000000000065, -0.18911970246583218, 5.133762836456299, -0.7204442024230957, 0.0, -6.808153081181898e-05, 0.0, -0.0001646958994061474, 0.0, -0.00012011290873042521, array([[ -5.03472818e-20]])]
[14.100000000000065, 1.106725833080709, 5.08347225189209, -1.2714307308197021, 0.0, -0.00014087059308301577, 0.0, 0.00022390969521085313, 0.0, -0.00016514711910284581, array([[ -1.99398157e-23]])]
[14.150000000000066, 1.6907012804970145, 5.044188022613525, -0.9086980819702148, 0.0, -0.00011117769863247152, 0.0, 0.00048336384895502206, 0.0, -0.00014695077960766775, array([[ -2.26191040e-21]])]
[14.200000000000067, 1.3726949740573762, 5.0271077156066895, 0.0343288779258728, 0.0, -0.00017584103792074896, 0.0, -9.64126188476582e-05, 0.0, -0.00018821934353472743, array([[ -1.15845075e-16]])]
[14.250000000000068, 0.5833531684428455, 5.047499656677246, 0.6664626002311707, 0.0, -9.960665952052898e-06, 0.0, -9.51767731567399e-05, 0.0, -3.3126948085507374e-05, array([[ -6.16949062e-16]])]
[14.300000000000068, -0.9091202772408716, 5.082455635070801, 1.0515360832214355, 0.0, -0.0001158615079285306, 0.0, -2.652150193556864e-05, 0.0, -2.6045215315842808e-05, array([[ -5.35306809e-19]])]
[14.350000000000069, -1.6102702324464917, 5.169313907623291, 0.8821415901184082, 0.0, -6.783486551665897e-05, 0.0, -0.00032082012138538805, 0.0, -6.851989254160603e-05, array([[ -2.94893249e-18]])]
[14.40000000000007, -1.5245197901129721, 5.217222690582275, 0.32085099816322327, 0.0, 7.318620303932158e-05, 0.0, -0.0002903908864419982, 0.0, 1.2537791203068837e-06, array([[ -3.14632365e-16]])]
[14.45000000000007, -0.9010526442155238, 5.229830265045166, -0.06134183332324028, 0.0, 0.00016242045636719488, 0.0, -0.0001946197005364264, 0.0, 6.564898320209669e-05, array([[ -1.35973772e-16]])]
[14.500000000000071, 0.37580661945045, 5.21959924697876, -0.6350157856941223, 0.0, 0.00022670344442703744, 0.0, 9.853142102057575e-05, 0.0, 5.792093709437734e-05, array([[ -6.06334557e-20]])]
[14.550000000000072, 1.13935275208205, 5.195545673370361, -0.891333281993866, 0.0, 0.00029228404936808744, 0.0, 0.0003594693584483898, 0.0, 0.00010162643586197579, array([[ -2.18943610e-22]])]
[14.600000000000072, 1.7652252181991932, 5.158751487731934, -0.42133229970932007, 0.0, 0.00011618678409920172, 0.0, 0.00025639052337250815, 0.0, 0.00011743601147218969, array([[ -2.20529472e-21]])]
[14.650000000000073, 1.4499010146036742, 5.160862922668457, 0.21214917302131653, 0.0, 0.0002152743993254995, 0.0, -8.583725249168304e-05, 0.0, 0.0001228066740501903, array([[ -1.15891816e-15]])]
[14.700000000000074, 0.024506766945124846, 5.214154243469238, 1.1027876138687134, 0.0, 3.666305145653977e-05, 0.0, -5.8395837143957026e-05, 0.0, 7.653760123162982e-05, array([[ -2.57295273e-17]])]
[14.750000000000075, -0.7921212586015463, 5.263858318328857, 0.9214745163917542, 0.0, -2.2879561585697794e-05, 0.0, -0.0002036336505186869, 0.0, 9.053375398176561e-05, array([[ -2.47913853e-19]])]
[14.800000000000075, -1.3889379594475029, 5.314151287078857, 0.37030142545700073, 0.0, 5.5159336060246544e-05, 0.0, -0.00034870993306233686, 0.0, -8.776161944604547e-06, array([[ -8.19959485e-18]])]
[14.850000000000076, -1.2371044582501052, 5.328490257263184, -0.011606753803789616, 0.0, 1.9161246365411824e-05, 0.0, -0.0003814778346566587, 0.0, -6.035794287788393e-05, array([[ -2.75693055e-17]])]
[14.900000000000077, -0.24802694175858045, 5.320915222167969, -0.5865084528923035, 0.0, 7.012357458367612e-05, 0.0, -0.00015669431993951965, 0.0, -0.0001905092358782664, array([[ -2.32630482e-20]])]
[14.950000000000077, 0.5481712679937482, 5.296530246734619, -0.9702011942863464, 0.0, 6.953745660063879e-05, 0.0, -2.5110899935252118e-05, 0.0, -0.000266706133434744, array([[ -3.46752211e-24]])]
[15.000000000000078, 1.5041070357710122, 5.237039566040039, -1.2356435060501099, 0.0, 4.4336531897421856e-05, 0.0, 0.00029454646078549214, 0.0, -0.00029923609773147936, array([[ -8.72098083e-27]])]
[15.050000000000079, 1.5867771557345987, 5.201335906982422, -0.7852560877799988, 0.0, 4.814778212497311e-05, 0.0, 0.0002130448013128709, 0.0, -0.0003806652088512494, array([[ -3.03019235e-21]])]
[15.10000000000008, 0.8613635072857141, 5.194880485534668, 0.1565142273902893, 0.0, 2.229050688424697e-05, 0.0, -6.154306068977267e-05, 0.0, -0.000274713835902751, array([[ -3.36247882e-17]])]
[15.15000000000008, 0.05629398852586751, 5.219192028045654, 0.6329788565635681, 0.0, 0.00010251835265747468, 0.0, -8.386101510389314e-05, 0.0, -0.00020745108108039938, array([[ -3.71212277e-17]])]
[15.200000000000081, -1.2740014265105128, 5.265402793884277, 0.3782717287540436, 0.0, -1.6708052564984448e-06, 0.0, -0.0002314905424513743, 0.0, -0.00012618746772777995, array([[ -2.91404542e-17]])]
[15.250000000000082, -1.5078140040859578, 5.280329704284668, 0.007930687628686428, 0.0, -9.128055757577196e-05, 0.0, -0.0003910564521866338, 0.0, -0.00012128077890353891, array([[ -7.65975725e-17]])]
[15.300000000000082, -0.7218624705122781, 5.274057865142822, -0.5651419162750244, 0.0, -0.00019438714338737006, 0.0, -0.0003837386871030039, 0.0, -1.2185288828080008e-05, array([[ -5.14008110e-18]])]
