time, uz, alt, vel_alt, uthe, roll, uphi, pitch, upsi, yaw, F
[0.0, 0.0, 0.006426319945603609, 0.007368430495262146, 0.0, -0.015894336424300486, 0.0, 0.022820119218370214, 0.0, -0.08775884017728636]
[0.05, 2.1673721636008936, 0.007029825821518898, 0.007558519020676613, 0.0, -0.015897417334542495, 0.0, 0.022843517870229726, 0.0, -0.0877248159420864]
[0.1, 2.1671601645050567, 0.007297721691429615, 0.00815004762262106, 0.0, -0.01590928957949881, 0.0, 0.022851601015275516, 0.0, -0.08773717321843437]
[0.15000000000000002, 2.166954992737155, 0.01900576427578926, 0.5486201643943787, 0.0, -0.012930260132431787, 0.0, 0.016985430296543577, 0.0, -0.08416261983719941]
[0.2, 2.045286856742576, 0.0435812808573246, 0.9991359710693359, 0.0, -0.011514256640171123, 0.0, 0.01421915923282901, 0.0, -0.08150478388790033]
[0.25, 1.9396862267497925, 0.14380502700805664, 2.003507137298584, 0.0, -0.007251315159035888, 0.0, 0.008018697544542508, 0.0, -0.0634522458244802]
[0.3, 1.6914357778072358, 0.21475301682949066, 2.4602718353271484, 0.0, -0.00595544735472269, 0.0, 0.00657957750852305, 0.0, -0.05888142961463516]
[0.35, 1.571375691412389, 0.4125157296657562, 3.374521017074585, 0.0, -0.002229632287931747, 0.0, 0.0029839478740037355, 0.0, -0.04310644118115208]
[0.39999999999999997, 1.3153267067760233, 0.5266581773757935, 3.78533673286438, 0.0, -0.0019523973841146722, 0.0, 0.0026639451886114962, 0.0, -0.04070431507020007]
[0.44999999999999996, 1.1931356520295144, 0.8117734789848328, 4.619600772857666, 0.0, -0.0006496117712910934, 0.0, 0.0013900283346829942, 0.0, -0.030783709830956338]
[0.49999999999999994, 0.9299437776267532, 0.9651758670806885, 4.993625164031982, 0.0, -0.0005731052390915862, 0.0, 0.0012565803492790117, 0.0, -0.028761524052120253]
[0.5499999999999999, 0.8047269418001177, 1.3283017873764038, 5.654690742492676, 0.0, -8.319445804819409e-05, 0.0, 0.0007538586038114162, 0.0, -0.0219005624175782]
[0.6, 0.5574431328177452, 1.5122617483139038, 5.835751056671143, 0.0, -9.867280118164223e-06, 0.0, 0.0006114704188208623, 0.0, -0.02044765024416824]
[0.65, 0.4658590270400048, 1.914986252784729, 5.91783332824707, 0.0, 6.609047616159827e-05, 0.0, 0.00034792583415246267, 0.0, -0.015428754338567885]
[0.7000000000000001, 0.33419388195276256, 2.102968454360962, 5.822482109069824, 0.0, 5.4813973512393845e-05, 0.0, 0.0002730694068592069, 0.0, -0.014302478102610003]
[0.7500000000000001, 0.30200842344760903, 2.487612009048462, 5.454208850860596, 0.0, 0.000140686624478224, 0.0, 0.000207801266949993, 0.0, -0.01007270350078684]
[0.8000000000000002, 0.274075391507149, 2.658709764480591, 5.242936134338379, 0.0, 0.00017068148606628783, 0.0, 0.00021146778629784754, 0.0, 0.03553243768769805]
[0.8500000000000002, 0.27204322006702464, 2.998863458633423, 4.762518882751465, 0.0, 0.0004960945362369791, 0.0, 0.00020155146061008318, 0.0, 0.036508833872285096]
[0.9000000000000002, 0.28122921030521386, 3.1475439071655273, 4.529181957244873, 0.0, 0.0006621814444909601, 0.0, 0.00020578184209915388, 0.0, 0.036081075501158286]
[0.9500000000000003, 0.2903575063705446, 3.4388113021850586, 4.04022741317749, 0.0, 0.0018742002871536471, 0.0, 0.0003390425909351539, 0.0, 0.030677106222158575]
[1.0000000000000002, 0.3152137659072878, 3.564596652984619, 3.8163421154022217, 0.0, 0.002030682211726452, 0.0, 0.0003687556916589769, 0.0, 0.02876028259830138]
[1.0500000000000003, 0.32873544158935575, 3.809431552886963, 3.3624267578125, 0.0, 0.0018553077468169573, 0.0, 0.00045018733190747693, 0.0, 0.02018851990172437]
[1.1000000000000003, 0.3590260126590729, 3.9141621589660645, 3.158987283706665, 0.0, 0.001687237640389843, 0.0, 0.0004307437520286557, 0.0, 0.018402365605704345]
[1.1500000000000004, 0.37401380739212053, 4.115966320037842, 2.755171298980713, 0.0, 0.0007462191168634599, 0.0, 0.000329454266361182, 0.0, 0.009585195873212639]
[1.2000000000000004, 0.4054801933765413, 4.201760292053223, 2.5813803672790527, 0.0, 0.0004834575054225945, 0.0, 0.00027567602805854646, 0.0, 0.007605652322476718]
[1.2500000000000004, 0.4193207691192628, 4.366218566894531, 2.2417685985565186, 0.0, -0.00040607030460619933, 0.0, 0.00039636828455598167, 0.0, 0.000938698492854614]
[1.3000000000000005, 0.44726917548179634, 4.435863971710205, 2.0994420051574707, 0.0, -0.0005791621034004048, 0.0, 0.0004139793824751369, 0.0, -0.0004347381830313796]
[1.3500000000000005, 0.4587778016567231, 4.5694661140441895, 1.8323169946670532, 0.0, -0.0010611304816066265, 0.0, 0.000419653078031301, 0.0, -0.004526798741795912]
[1.4000000000000006, 0.4795622941732408, 4.626257419586182, 1.722099781036377, 0.0, -0.0010457478218860122, 0.0, 0.00040693964613950663, 0.0, -0.005260483230748554]
[1.4500000000000006, 0.48766767840385444, 4.73536491394043, 1.5108792781829834, 0.0, -0.0010502638672185173, 0.0, 0.0004487627831510544, 0.0, -0.007120539901444902]
[1.5000000000000007, 0.5031239228725435, 4.782156467437744, 1.4241448640823364, 0.0, -0.0010455029453371966, 0.0, 0.0003826882942686567, 0.0, -0.007337815092763129]
[1.5500000000000007, 0.5089095040082932, 4.873116493225098, 1.2618438005447388, 0.0, -0.0007581338744490847, 0.0, 0.00041232454439400936, 0.0, -0.00780788001718764]
[1.6000000000000008, 0.5187754216432572, 4.912477016448975, 1.1954394578933716, 0.0, -0.0007032640934507801, 0.0, 0.0004174472481235415, 0.0, -0.007840914043494573]
[1.6500000000000008, 0.5222064969778062, 4.989795207977295, 1.0692105293273926, 0.0, -0.0006202106108567488, 0.0, 0.00046144011957636864, 0.0, -0.007419269903167714]
[1.7000000000000008, 0.5280237068653107, 5.023360252380371, 1.0155400037765503, 0.0, -0.0005443476732278186, 0.0, 0.0004703632397128323, 0.0, -0.007269632971783497]
[1.7500000000000009, 0.5303021399259568, 5.089105606079102, 0.9124179482460022, 0.0, -0.00039134959889826056, 0.0, 0.00041848980858796077, 0.0, -0.006257887647785632]
[1.800000000000001, 0.5343259567379952, 5.117428779602051, 0.8675923943519592, 0.0, -0.000357975972182684, 0.0, 0.0004413825966775624, 0.0, -0.00607850706387668]
[1.850000000000001, 0.5361471211552621, 5.172046661376953, 0.7790420055389404, 0.0, -0.0001816770394382364, 0.0, 0.0004783201522925164, 0.0, -0.005018389614084535]
[1.900000000000001, 0.5401210282802582, 5.196004390716553, 0.7408167123794556, 0.0, -0.0001404393204175113, 0.0, 0.00048109095661238023, 0.0, -0.004818519157279234]
[1.950000000000001, 0.5417291004896165, 5.243202209472656, 0.6652626395225525, 0.0, -0.00021300374384416367, 0.0, 0.0004018203677568053, 0.0, -0.0038274848924928703]
[2.000000000000001, 0.5449514982104302, 5.26378059387207, 0.6329841613769531, 0.0, -0.00031269290967032615, 0.0, 0.000474177011720066, 0.0, -0.0036138312900531374]
[2.0500000000000007, 0.5462112070083619, 5.303861618041992, 0.5698585510253906, 0.0, -0.00012827125454544034, 0.0, 0.0005016156329399057, 0.0, -0.0029648112110039794]
[2.1000000000000005, 0.5487208425521851, 5.321366310119629, 0.5421956777572632, 0.0, -0.00011807354099074475, 0.0, 0.00047605851768071466, 0.0, -0.002855646796195157]
[2.1500000000000004, 0.5498374372243882, 5.356245040893555, 0.4870827794075012, 0.0, -0.00012953597207729066, 0.0, 0.00043870441811328227, 0.0, -0.0026031027309298873]
[2.2, 0.5520608962655067, 5.371583461761475, 0.4633670151233673, 0.0, -0.0001236712865804182, 0.0, 0.0003989989286077256, 0.0, -0.0025617951128245435]
[2.25, 0.5529246124327183, 5.401888370513916, 0.4162716567516327, 0.0, -0.00012032847261551652, 0.0, 0.00039186103284791695, 0.0, -0.0023874745742044037]
[2.3, 0.5546834201753139, 5.414923667907715, 0.39578044414520264, 0.0, -0.0001573772950602426, 0.0, 0.0003240850786523276, 0.0, -0.002398940434791757]
[2.3499999999999996, 0.5554911312818528, 5.440816402435303, 0.35582947731018066, 0.0, -0.00020615722121513017, 0.0, 0.00039240285029133347, 0.0, -0.0024434624207669282]
[2.3999999999999995, 0.5569308740615845, 5.452139377593994, 0.33749815821647644, 0.0, -0.00018939606374044035, 0.0, 0.0004054267251524457, 0.0, -0.0024304791459475727]
[2.4499999999999993, 0.5577489570558072, 5.475193977355957, 0.30189114809036255, 0.0, -0.00020163798241240108, 0.0, 0.0003986492808824342, 0.0, -0.0024283735010442458]
[2.499999999999999, 0.5590385787606239, 5.485208511352539, 0.2869717478752136, 0.0, -0.0002020477039009468, 0.0, 0.0003430722933905954, 0.0, -0.002433256998696112]
[2.549999999999999, 0.5594788244605065, 5.50485897064209, 0.2563064396381378, 0.0, -0.00014347904767193388, 0.0, 0.0004367158650630937, 0.0, -0.0023773670912628623]
[2.5999999999999988, 0.560647202306986, 5.5133280754089355, 0.24222570657730103, 0.0, -0.0001270968619057465, 0.0, 0.0003884519642025165, 0.0, -0.002344232947111734]
[2.6499999999999986, 0.5613400545716285, 5.529969692230225, 0.21528109908103943, 0.0, -0.00011525097897368213, 0.0, 0.00043723093050207815, 0.0, -0.0021479976614841366]
[2.6999999999999984, 0.56254299518466, 5.536941051483154, 0.20241844654083252, 0.0, -8.399516281810607e-05, 0.0, 0.0004220980041490108, 0.0, -0.0020822409673568834]
[2.7499999999999982, 0.5633919013738632, 5.550609111785889, 0.1792524755001068, 0.0, -0.0001919161530664901, 0.0, 0.00030697021581562833, 0.0, -0.0020455006645519174]
[2.799999999999998, 0.5646067556083202, 5.55620002746582, 0.16903544962406158, 0.0, -0.00025025627205827285, 0.0, 0.000330432397284027, 0.0, -0.0020564707294896223]
[2.849999999999998, 0.5652659687787295, 5.566911697387695, 0.14916256070137024, 0.0, -0.00021619210607674844, 0.0, 0.0003899423723295423, 0.0, -0.0018099967133911117]
[2.8999999999999977, 0.5665942270338535, 5.571507930755615, 0.1411091685295105, 0.0, -0.00013610255005790553, 0.0, 0.000390653861142055, 0.0, -0.001764041023956988]
[2.9499999999999975, 0.5670604032397271, 5.58043098449707, 0.1254051774740219, 0.0, -0.0001915904155146986, 0.0, 0.0003864720047044766, 0.0, -0.0017305868032509385]
[2.9999999999999973, 0.5679805992096664, 5.584205627441406, 0.11871539801359177, 0.0, -0.0001768018012067611, 0.0, 0.0003704004101675471, 0.0, -0.001755870623669373]
[3.049999999999997, 0.5683800792083145, 5.591275691986084, 0.10585063695907593, 0.0, -0.00015641809009115987, 0.0, 0.0004074653014290364, 0.0, -0.0015731209416217874]
[3.099999999999997, 0.5692015826582909, 5.59433650970459, 0.10025713592767715, 0.0, -0.00019304833523235986, 0.0, 0.00042516615020307956, 0.0, -0.0015124386708334659]
[3.149999999999997, 0.569562490542233, 5.5998854637146, 0.08872676640748978, 0.0, -0.0001927408315853361, 0.0, 0.00037039183417253, 0.0, -0.0013226882033273394]
[3.1999999999999966, 0.5705211717501283, 5.602204322814941, 0.08440347760915756, 0.0, -0.00015505877253855558, 0.0, 0.00035656727168128133, 0.0, -0.001241758113975224]
[3.2499999999999964, 0.5708133580729365, 5.607394695281982, 0.07713599503040314, 0.0, -0.00016033216441293862, 0.0, 0.00036782507156430825, 0.0, -0.0010888512202620255]
[3.2999999999999963, 0.5709396946102381, 5.609699726104736, 0.07397985458374023, 0.0, -0.00015141939670200878, 0.0, 0.0003587831612207875, 0.0, -0.0011082364437811209]
[3.349999999999996, 0.5709801791667939, 5.614497661590576, 0.06727218627929688, 0.0, -0.00021887520127871233, 0.0, 0.0003161053045012443, 0.0, -0.0010365099047046238]
[3.399999999999996, 0.5710947013378144, 5.61683464050293, 0.06396728754043579, 0.0, -0.00016920821528130858, 0.0, 0.0003615815711101027, 0.0, -0.0010503300661357565]
[3.4499999999999957, 0.5711587450146676, 5.621753692626953, 0.05777409300208092, 0.0, -0.0002061837345409202, 0.0, 0.0004426458179079002, 0.0, -0.00116911495185614]
[3.4999999999999956, 0.5711264062039555, 5.623879909515381, 0.0551682747900486, 0.0, -0.0001889451514512947, 0.0, 0.00042141676797395286, 0.0, -0.0012235629507421112]
[3.5499999999999954, 0.5710968493647873, 5.627584934234619, 0.04856008663773537, 0.0, -0.0001750658023387337, 0.0, 0.00032372240604766134, 0.0, -0.0013750271608871875]
[3.599999999999995, 0.5714981140919031, 5.629281997680664, 0.045345015823841095, 0.0, -0.0001646051491577944, 0.0, 0.0003364873337372497, 0.0, -0.0013753636929909933]
[3.649999999999995, 0.5717231335893274, 5.633444786071777, 0.03956085443496704, 0.0, -0.00024089604295692333, 0.0, 0.00043270635683379676, 0.0, -0.0012873855208188243]
[3.699999999999995, 0.5718147097706795, 5.635089874267578, 0.036629028618335724, 0.0, -0.00025737720317342046, 0.0, 0.0004312300554269335, 0.0, -0.0012840171494735142]
[3.7499999999999947, 0.5719923712268472, 5.638557434082031, 0.030504567548632622, 0.0, -8.27133990157176e-05, 0.0, 0.00034505161906232704, 0.0, -0.001038512629483698]
[3.7999999999999945, 0.572354736065492, 5.640085697174072, 0.02730965055525303, 0.0, -9.423506165276115e-05, 0.0, 0.0003038125260899054, 0.0, -0.0010400299604740777]
[3.8499999999999943, 0.572622994216159, 5.644643306732178, 0.023412344977259636, 0.0, -0.00014309383895779146, 0.0, 0.00041576757775929943, 0.0, -0.0008911827431982449]
[3.899999999999994, 0.5721898909594864, 5.646538734436035, 0.02237384021282196, 0.0, -0.0001643668140873022, 0.0, 0.00046527714730253025, 0.0, -0.0008818345977254867]
[3.949999999999994, 0.5718822442620993, 5.650230884552002, 0.01713651418685913, 0.0, -0.0001613622082518154, 0.0, 0.0004089036821105522, 0.0, -0.0007180466834737826]
[3.999999999999994, 0.5719869246840478, 5.6514973640441895, 0.014773483388125896, 0.0, -0.00016495793208533155, 0.0, 0.00034601278959515503, 0.0, -0.000666791668928943]
[4.049999999999994, 0.5721469012683257, 5.654174327850342, 0.008662912994623184, 0.0, -5.038573098823737e-05, 0.0, 0.0003430539300250679, 0.0, -0.0006394606172735354]
[4.099999999999993, 0.5727294093020261, 5.6551384925842285, 0.006248633377254009, 0.0, -5.3205223054333673e-05, 0.0, 0.00037798659388659525, 0.0, -0.0006308640738162947]
[4.149999999999993, 0.5729859528338537, 5.656650543212891, 0.0009502993780188262, 0.0, -0.0001144719157698817, 0.0, 0.00029977440622112384, 0.0, -0.0006189014722476227]
[4.199999999999993, 0.5737194360872148, 5.657228469848633, -0.0006057724240235984, 0.0, -0.0001021538457635776, 0.0, 0.0003263945495338822, 0.0, -0.0005548377802898264]
[4.249999999999993, 0.5738970671225921, 5.658565044403076, -0.0034821126610040665, 0.0, -0.00013371406656291073, 0.0, 0.00021336772990535765, 0.0, -0.0004729019047066614]
[4.299999999999993, 0.5741496706377716, 5.659041404724121, -0.004819763824343681, 0.0, -0.00011768449545757473, 0.0, 0.00025872469263584934, 0.0, -0.0005066203408788292]
[4.3499999999999925, 0.5743081397239119, 5.660199165344238, -0.0077140796929597855, 0.0, -9.599039059183216e-05, 0.0, 0.0004054415309993177, 0.0, -0.00036880437030492797]
[4.399999999999992, 0.5746151590760797, 5.66047477722168, -0.008966960944235325, 0.0, -0.00011067653635072117, 0.0, 0.0003515791925271245, 0.0, -0.00037875102249519866]
[4.449999999999992, 0.5748117348371073, 5.661128997802734, -0.0107405511662364, 0.0, -0.00015586337233645497, 0.0, 0.00022571604418718217, 0.0, -0.00041280380855346355]
[4.499999999999992, 0.5750154646256939, 5.661063194274902, -0.011622501537203789, 0.0, -0.00014333813200194788, 0.0, 0.00022887897591409236, 0.0, -0.00042207492770029287]
[4.549999999999992, 0.5752271880928427, 5.661587715148926, -0.013760117813944817, 0.0, -9.16425886587547e-05, 0.0, 0.0003088213810700968, 0.0, -0.00029394626263649833]
[4.599999999999992, 0.5755472538147122, 5.661955833435059, -0.013571364805102348, 0.0, -0.00012538416763225238, 0.0, 0.0003162124031717835, 0.0, -0.0002801277703750131]
[4.6499999999999915, 0.5754019971136004, 5.6634135246276855, -0.013133715838193893, 0.0, -6.412332871046852e-05, 0.0, 0.0002664963551296214, 0.0, -0.00022245960427159597]
[4.699999999999991, 0.5748946457661688, 5.663780689239502, -0.013176397420465946, 0.0, -7.835353250632712e-05, 0.0, 0.0002710177391046741, 0.0, -0.00019144159815862648]
[4.749999999999991, 0.5748003424627706, 5.6643571853637695, -0.014422093518078327, 0.0, -6.925653314820717e-05, 0.0, 0.0002020074030574887, 0.0, -0.00020020451991300785]
[4.799999999999991, 0.574910405052267, 5.664368629455566, -0.015568374656140804, 0.0, -4.008481075846062e-05, 0.0, 0.00020500889782246463, 0.0, -0.0002238038679281154]
[4.849999999999991, 0.5751582099543885, 5.664350509643555, -0.018321562558412552, 0.0, -0.00010141804022512127, 0.0, 0.00030567935181906336, 0.0, -0.0003563249453226742]
[4.899999999999991, 0.5757662733279169, 5.6642165184021, -0.018892860040068626, 0.0, -0.00010656404621355706, 0.0, 0.00029372619062680884, 0.0, -0.0003428381041743655]
[4.94999999999999, 0.5759292132038623, 5.664361476898193, -0.02016308717429638, 0.0, -0.00011095512844293829, 0.0, 0.00024550044208275176, 0.0, -0.00047062530977294955]
[4.99999999999999, 0.576166471162811, 5.664371490478516, -0.02038951776921749, 0.0, -6.799591949979574e-05, 0.0, 0.00018476654071855153, 0.0, -0.0004694378600282755]
[5.04999999999999, 0.5762132326293737, 5.665010452270508, -0.020920125767588615, 0.0, -6.415984453382832e-05, 0.0, 0.0002947229478631193, 0.0, -0.0005441252419201997]
[5.09999999999999, 0.5761490568671376, 5.6652045249938965, -0.02047278732061386, 0.0, -9.06504631456586e-05, 0.0, 0.00030378607324118526, 0.0, -0.0005021513415396085]
[5.14999999999999, 0.5759963030174374, 5.665926933288574, -0.020420799031853676, 0.0, -6.927946013990971e-05, 0.0, 0.0003364124944645275, 0.0, -0.0006327201328050599]
[5.1999999999999895, 0.5757809817206114, 5.666175365447998, -0.02037057653069496, 0.0, -7.213396301766195e-05, 0.0, 0.00037800362813931456, 0.0, -0.0006035564961346964]
[5.249999999999989, 0.5756998505942523, 5.666851043701172, -0.021241214126348495, 0.0, 4.577971185675442e-05, 0.0, 0.0002392922527819179, 0.0, -0.0006032002105562716]
[5.299999999999989, 0.5756997762568294, 5.666929721832275, -0.021805979311466217, 0.0, 3.233585804081567e-05, 0.0, 0.00022135276695880592, 0.0, -0.0005865119582862631]
[5.349999999999989, 0.5758012489959597, 5.667145252227783, -0.022781366482377052, 0.0, -2.4887422830877242e-05, 0.0, 0.00029627446449015675, 0.0, -0.00042897429358176316]
[5.399999999999989, 0.5759540145557374, 5.667080402374268, -0.023636844009160995, 0.0, -4.084469678890934e-05, 0.0, 0.0002916337052581848, 0.0, -0.000389780012610146]
[5.449999999999989, 0.5761596712477506, 5.66843843460083, -0.02463288977742195, 0.0, -4.5563859232031375e-05, 0.0, 0.00013709877887970438, 0.0, -0.0003481360945169117]
[5.4999999999999885, 0.5759944327734411, 5.668741226196289, -0.024638382717967033, 0.0, -8.172017323050433e-05, 0.0, 0.00019854059517295962, 0.0, -0.00035454740441376797]
[5.549999999999988, 0.5759101576600224, 5.669492244720459, -0.025561027228832245, 0.0, -7.399045312778969e-05, 0.0, 0.0002673342306236786, 0.0, -0.000190007885857882]
[5.599999999999988, 0.5759002042785286, 5.669711112976074, -0.025980796664953232, 0.0, -4.517967046649181e-05, 0.0, 0.0002796485285564111, 0.0, -0.00018132205447265345]
[5.649999999999988, 0.5759303472764791, 5.67022705078125, -0.027230046689510345, 0.0, 8.671194304081181e-05, 0.0, 0.00023349232790420026, 0.0, -8.301916615376425e-05]
[5.699999999999988, 0.5760582837894559, 5.670358180999756, -0.028022320941090584, 0.0, 7.603062922807542e-05, 0.0, 0.00020450223486299707, 0.0, -9.78572054976515e-05]
[5.749999999999988, 0.5761947737898677, 5.671008110046387, -0.02951832301914692, 0.0, 8.769917373181458e-06, 0.0, 0.00026588761127712383, 0.0, -0.00011185656712521205]
[5.799999999999987, 0.5763389232750983, 5.671152591705322, -0.030304817482829094, 0.0, 5.923139651073727e-05, 0.0, 0.0002569195818746, 0.0, -0.00013359789738360962]
[5.849999999999987, 0.5764703783903271, 5.674655437469482, -0.029911169782280922, 0.0, -3.603544580982867e-05, 0.0, 0.00023548388696604028, 0.0, -0.00016075231873406918]
[5.899999999999987, 0.5753953161846846, 5.676028728485107, -0.029583534225821495, 0.0, -0.00012569182122495107, 0.0, 0.00025298589652529867, 0.0, -0.000149131445151703]
[5.949999999999987, 0.5749358839441091, 5.679088115692139, -0.03104618564248085, 0.0, 1.8757868241496077e-05, 0.0, 0.00015305904843856323, 0.0, -0.00011455369572922786]
[5.999999999999987, 0.5743925395958125, 5.680091381072998, -0.03198205307126045, 0.0, 1.92382608373283e-07, 0.0, 0.00013673004885364723, 0.0, -0.00011860121544976586]
[6.0499999999999865, 0.5743142727456987, 5.6821794509887695, -0.035880930721759796, 0.0, -3.5297257476036014e-05, 0.0, 0.00011966071245672094, 0.0, -0.00021301227808417784]
[6.099999999999986, 0.5745786648139358, 5.682684421539307, -0.03756114840507507, 0.0, -4.086136931874461e-05, 0.0, 0.00012007677015784797, 0.0, -0.00018266688961648766]
[6.149999999999986, 0.5748040793001652, 5.684149265289307, -0.041363153606653214, 0.0, 6.352005413269814e-05, 0.0, 0.00017919102160451862, 0.0, -0.0003012599849216571]
[6.199999999999986, 0.5752231930486857, 5.684755802154541, -0.04323803260922432, 0.0, 8.485554178430507e-05, 0.0, 0.0001269746231770101, 0.0, -0.0003245253489895727]
[6.249999999999986, 0.5754625661931932, 5.687093734741211, -0.04621078073978424, 0.0, -6.483838858941782e-05, 0.0, 0.00015045535266978869, 0.0, -0.0003040522328455889]
[6.299999999999986, 0.575453599664569, 5.687687397003174, -0.04712971672415733, 0.0, 4.5435240121525414e-05, 0.0, 0.00013718628158837853, 0.0, -0.00028903996129419626]
[6.349999999999985, 0.5754872557885945, 5.689271450042725, -0.04864338040351868, 0.0, -2.1028779817146752e-05, 0.0, 0.00017678426591279914, 0.0, -0.0003465332350930324]
[6.399999999999985, 0.5753715699613094, 5.689612865447998, -0.050252120941877365, 0.0, -8.520111548986001e-05, 0.0, 0.00016208321558573133, 0.0, -0.0003172040761287591]
[6.449999999999985, 0.5756275025703013, 5.6899189949035645, -0.0532265305519104, 0.0, 5.475517668950738e-06, 0.0, 0.00015609971286648647, 0.0, -0.0003021924665955353]
[6.499999999999985, 0.5761924779295922, 5.689770698547363, -0.05427008867263794, 0.0, 2.9588296565818166e-05, 0.0, 0.00014896173957434152, 0.0, -0.00032444422510709574]
[6.549999999999985, 0.576462881219387, 5.689087867736816, -0.05620398372411728, 0.0, 3.6517814882822315e-06, 0.0, 0.00015307358707961275, 0.0, -0.00017870236077341983]
[6.5999999999999845, 0.5770791673734784, 5.688504695892334, -0.056801650673151016, 0.0, -3.67504384427424e-06, 0.0, 0.0001366104769748043, 0.0, -0.0001535833693251182]
[6.649999999999984, 0.5773746858470142, 5.690860748291016, -0.05540510639548302, 0.0, -2.6590392232517987e-06, 0.0, 0.00015613479051191154, 0.0, -0.0002921621643839059]
[6.699999999999984, 0.5764037290580571, 5.691401958465576, -0.05502980202436447, 0.0, -4.7678120444359354e-05, 0.0, 0.0001351098160159403, 0.0, -0.0002724404526431092]
[6.749999999999984, 0.5761687537685037, 5.692498683929443, -0.05451832339167595, 0.0, -4.558778525306349e-05, 0.0, 0.0001776756697967708, 0.0, -0.00018831615585968313]
[6.799999999999984, 0.5757471343494952, 5.692672252655029, -0.05506967753171921, 0.0, -1.6793551947270007e-05, 0.0, 0.0001368040726681313, 0.0, -0.0001696000553210233]
[6.849999999999984, 0.5758188824549317, 5.6933183670043945, -0.057807557284832, 0.0, -7.040033490466366e-05, 0.0, 8.514671190214496e-05, 0.0, -0.00020854560642377516]
[6.8999999999999835, 0.5762360800400377, 5.693060398101807, -0.05918891355395317, 0.0, -3.86954884037275e-05, 0.0, 4.9683540660089126e-05, 0.0, -0.00022068186294874715]
[6.949999999999983, 0.5766114216841758, 5.692257881164551, -0.06192273646593094, 0.0, 7.13986380497621e-05, 0.0, 7.76952261786596e-05, 0.0, -0.00030969227201654354]
[6.999999999999983, 0.5774366794332862, 5.691451549530029, -0.06314946711063385, 0.0, 8.883180199189789e-05, 0.0, 0.0001045984360431833, 0.0, -0.00033278687263250484]
[7.049999999999983, 0.5779329608649015, 5.691705703735352, -0.06267926841974258, 0.0, -3.3603077978153635e-05, 0.0, 0.00015153040165511098, 0.0, -0.00023341178609495274]
[7.099999999999983, 0.5777582396194338, 5.691531658172607, -0.062426164746284485, 0.0, -1.246447667615946e-05, 0.0, 0.00012218825082988357, 0.0, -0.000248920041295468]
[7.149999999999983, 0.5777519429773093, 5.6915483474731445, -0.06158909946680069, 0.0, -8.86558499907881e-05, 0.0, 0.0001512445945180101, 0.0, -0.00017862504340213252]
[7.199999999999982, 0.5775639142915606, 5.691372394561768, -0.06121889129281044, 0.0, -6.91534046926048e-05, 0.0, 0.00021301086269736978, 0.0, -0.00016615023750221034]
[7.249999999999982, 0.5775325102083385, 5.691355228424072, -0.06200294941663742, 0.0, -8.453900656046051e-06, 0.0, 0.0001478949462641034, 0.0, -0.00022953235538167026]
[7.299999999999982, 0.577709064938128, 5.6912407875061035, -0.06234819442033768, 0.0, -2.4081030878461462e-05, 0.0, 0.00011925508693060908, 0.0, -0.0002460547300986369]
[7.349999999999982, 0.577816980265081, 5.691248893737793, -0.06317143142223358, 0.0, -0.00012605623942410734, 0.0, 0.00017426618839268902, 0.0, -0.00023325163643380303]
[7.399999999999982, 0.5779949807792902, 5.6909685134887695, -0.06280256062746048, 0.0, -6.639616869558259e-05, 0.0, 0.00014496741717463294, 0.0, -0.0002469010437829056]
[7.4499999999999815, 0.5779933494195342, 5.691122531890869, -0.06188705936074257, 0.0, -4.45799041582441e-05, 0.0, 7.676668113269048e-05, 0.0, -0.00023003920352540925]
[7.499999999999981, 0.5777493752472103, 5.690977573394775, -0.061587169766426086, 0.0, -1.8769307375160154e-06, 0.0, 0.0001370247575187462, 0.0, -0.00022936327144235043]
[7.549999999999981, 0.5777246212095022, 5.690920829772949, -0.06186668574810028, 0.0, 6.881297784357534e-05, 0.0, 9.007020428261483e-05, 0.0, -0.0002777446239492102]
[7.599999999999981, 0.5778018539339304, 5.6906867027282715, -0.06215055286884308, 0.0, -1.0566199531143349e-05, 0.0, 8.513841520097222e-05, 0.0, -0.00020340113491568957]
[7.649999999999981, 0.5779301148980855, 5.690676689147949, -0.06238183379173279, 0.0, -7.161274230046305e-05, 0.0, 7.667780521930225e-06, 0.0, -8.808718568141433e-05]
[7.699999999999981, 0.5779835922539235, 5.690455436706543, -0.06321686506271362, 0.0, -2.6128370969642396e-05, 0.0, 4.2210175770699533e-05, 0.0, -7.561199574148938e-05]
[7.7499999999999805, 0.5782289236664773, 5.690437316894531, -0.06416776031255722, 0.0, -6.298474065121696e-05, 0.0, 0.00010799317165582048, 0.0, -1.9475244484988758e-05]
[7.79999999999998, 0.5784422849491239, 5.69030237197876, -0.06457247585058212, 0.0, -3.751792652770415e-05, 0.0, 0.0001126211723562631, 0.0, -5.150556023628518e-05]
[7.84999999999998, 0.5785690126016736, 5.6916961669921875, -0.06398618966341019, 0.0, -2.0155412362264156e-05, 0.0, 6.798629770863305e-05, 0.0, -6.650841040694017e-05]
[7.89999999999998, 0.5780471475943924, 5.692070960998535, -0.06358665972948074, 0.0, 3.0964362388260944e-05, 0.0, 5.479122364859902e-05, 0.0, -8.252267898416393e-05]
[7.94999999999998, 0.5778538461908698, 5.6933393478393555, -0.06281451880931854, 0.0, 9.50806265295199e-05, 0.0, 8.375567612675991e-05, 0.0, -7.004407867200237e-05]
[7.99999999999998, 0.5773266817241907, 5.693514347076416, -0.0629325658082962, 0.0, 3.875154780348257e-05, 0.0, 8.273187373622311e-05, 0.0, -5.891968973239303e-05]
[8.04999999999998, 0.5773031317323447, 5.694081783294678, -0.06395483016967773, 0.0, -1.7116391743175977e-05, 0.0, 8.346151587646548e-05, 0.0, -0.00019176886961649674]
[8.09999999999998, 0.577366820383072, 5.693748474121094, -0.06455312669277191, 0.0, 6.452719496508139e-05, 0.0, 2.355833654658572e-05, 0.0, -0.00022801368367170857]
[8.14999999999998, 0.5775919405013323, 5.692870616912842, -0.06735838949680328, 0.0, -0.00014423109178456338, 0.0, 7.830738834169193e-05, 0.0, -0.00024327723924237973]
[8.199999999999982, 0.5784541121453046, 5.692354679107666, -0.06784352660179138, 0.0, -0.0001008762547596377, 0.0, 9.646041493801917e-05, 0.0, -0.00023417275854698314]
[8.249999999999982, 0.5787060064136982, 5.69489860534668, -0.06647401303052902, 0.0, -6.838940381805994e-05, 0.0, 3.0616235130617504e-05, 0.0, -0.0002581083284214864]
[8.299999999999983, 0.5776879325643182, 5.695670127868652, -0.06572911888360977, 0.0, -7.274654846555711e-05, 0.0, 5.230967527332316e-05, 0.0, -0.00021562516433517665]
[8.349999999999984, 0.57730699993819, 5.697578430175781, -0.06581350415945053, 0.0, 1.633090324984901e-06, 0.0, 5.389862875412313e-05, 0.0, -0.00021562323582591803]
[8.399999999999984, 0.5767867665722967, 5.698153972625732, -0.06615441292524338, 0.0, 1.534357763868602e-05, 0.0, 8.992934350584069e-05, 0.0, -0.0002673788974789271]
[8.449999999999985, 0.576698949958384, 5.6995768547058105, -0.06791219115257263, 0.0, -1.7659076569970065e-05, 0.0, 8.391536239572762e-05, 0.0, -0.000296545969958781]
[8.499999999999986, 0.5766822237789632, 5.699871063232422, -0.06899373233318329, 0.0, -2.1034503782644042e-05, 0.0, 0.00010558049995627672, 0.0, -0.00028609392105370944]
[8.549999999999986, 0.5768360262304545, 5.70091438293457, -0.07222256809473038, 0.0, -9.388634795656013e-05, 0.0, -6.498378259064436e-05, 0.0, -0.0003560535280070711]
[8.599999999999987, 0.5772486121103169, 5.701648712158203, -0.07276003807783127, 0.0, -8.335059529198272e-05, 0.0, -3.8991681812551824e-05, 0.0, -0.00031947148947305615]
[8.649999999999988, 0.5771590168967842, 5.705626010894775, -0.07346844673156738, 0.0, -9.014390046067653e-06, 0.0, 1.1475670203307903e-05, 0.0, -0.00042762195949413653]
[8.699999999999989, 0.5761913669586181, 5.70670747756958, -0.07383938878774643, 0.0, 2.2572356395826566e-06, 0.0, 6.45234733630683e-05, 0.0, -0.00045290994219632577]
[8.74999999999999, 0.5759673052266239, 5.709499835968018, -0.07500777393579483, 0.0, -6.6307213795152e-05, 0.0, -3.4382835458299456e-05, 0.0, -0.0003800791258663881]
[8.79999999999999, 0.5754348987981677, 5.71016788482666, -0.07636485248804092, 0.0, -3.9837754883834207e-07, 0.0, -2.754192568769185e-05, 0.0, -0.0003435811060752517]
[8.84999999999999, 0.5755435088083148, 5.7117600440979, -0.07980194687843323, 0.0, -2.329104345733056e-05, 0.0, 4.988369560689347e-05, 0.0, -0.0003938207350576801]
[8.899999999999991, 0.5758467659175397, 5.712092399597168, -0.08195946365594864, 0.0, 1.8540942819945616e-06, 0.0, 7.013428308813689e-05, 0.0, -0.0003848849574194693]
[8.949999999999992, 0.5762254381343722, 5.71287727355957, -0.08595121651887894, 0.0, -6.929541774135208e-06, 0.0, 7.63234633755462e-05, 0.0, -0.00028027679819005744]
[8.999999999999993, 0.5768780620917678, 5.7128496170043945, -0.08793962001800537, 0.0, 5.574673617271325e-06, 0.0, 0.00010906141055070177, 0.0, -0.0002035689685180322]
[9.049999999999994, 0.5773213299036026, 5.715928554534912, -0.08905375003814697, 0.0, 2.3507242609524525e-05, 0.0, -5.558510945467716e-06, 0.0, -0.00017372937010883812]
[9.099999999999994, 0.5766961403131485, 5.716723918914795, -0.08966366946697235, 0.0, 3.705384823455415e-05, 0.0, -1.1114658535117148e-05, 0.0, -0.00018283322967482178]
[9.149999999999995, 0.5766051813036204, 5.7188310623168945, -0.09161936491727829, 0.0, -1.9376065569179866e-05, 0.0, 3.558520420344976e-06, 0.0, -0.000196488636682175]
[9.199999999999996, 0.5764386320248246, 5.719017028808594, -0.09343309700489044, 0.0, -1.1451341615064811e-05, 0.0, -2.3693884757798492e-07, 0.0, -0.00025886593427176525]
[9.249999999999996, 0.5767833410114049, 5.718944549560547, -0.09598623961210251, 0.0, -6.0917601412043796e-05, 0.0, -3.047712032974677e-06, 0.0, -0.00019210523728338636]
[9.299999999999997, 0.577362940134108, 5.718579292297363, -0.09807758778333664, 0.0, -6.16717235752334e-05, 0.0, 1.864845551981286e-05, 0.0, -0.00010351322793764441]
[9.349999999999998, 0.5779240575090051, 5.718005657196045, -0.10068372637033463, 0.0, 7.249445092106679e-05, 0.0, 4.338431920431792e-05, 0.0, -9.120420142616216e-05]
[9.399999999999999, 0.5786567390486599, 5.717220783233643, -0.10121195763349533, 0.0, 9.55042345262749e-05, 0.0, 2.8399470013706754e-05, 0.0, -4.551723719130675e-05]
[9.45, 0.5789939916148782, 5.71881628036499, -0.09964494407176971, 0.0, 1.0732513373997306e-05, 0.0, 7.467022694796063e-05, 0.0, -4.3663731417645985e-05]
[9.5, 0.5782004068046809, 5.718878746032715, -0.09824129939079285, 0.0, 1.7500633126727144e-05, 0.0, 5.454666151112451e-05, 0.0, -2.3938931044441766e-05]
[9.55, 0.5778753745615481, 5.71955680847168, -0.09656592458486557, 0.0, -2.53391941596668e-05, 0.0, -1.780574664890554e-05, 0.0, 1.8713425072710153e-05]
[9.600000000000001, 0.5773170504525305, 5.719357490539551, -0.0965084582567215, 0.0, -3.5000141333765665e-05, 0.0, -2.5811040429347635e-05, 0.0, -2.073579637858853e-05]
[9.650000000000002, 0.5773607327789069, 5.718799114227295, -0.0979076698422432, 0.0, 7.46298434754497e-05, 0.0, 7.252756833171039e-06, 0.0, -0.00011025587754989933]
[9.700000000000003, 0.5778247897490859, 5.718148708343506, -0.09930360317230225, 0.0, 2.1716392860293837e-06, 0.0, 3.343999190405631e-05, 0.0, -9.407172317753037e-05]
[9.750000000000004, 0.5783141087293625, 5.7169647216796875, -0.10032258927822113, 0.0, -2.137748101560809e-05, 0.0, 0.0001295751320078551, 0.0, -7.839451791873762e-05]
[9.800000000000004, 0.5788715061217546, 5.716100692749023, -0.101004958152771, 0.0, 7.1612899234511335e-06, 0.0, 0.00014860023199660978, 0.0, -6.557995976918735e-05]
[9.850000000000005, 0.5792648602724075, 5.717984676361084, -0.09842711687088013, 0.0, 2.943378562087367e-05, 0.0, 5.26669690160464e-05, 0.0, -7.299756159045993e-05]
[9.900000000000006, 0.5781684644579888, 5.71819543838501, -0.09728729724884033, 0.0, 3.7891931468407865e-05, 0.0, 6.46096227985313e-05, 0.0, -0.00010755752597874275]
[9.950000000000006, 0.5778593458414077, 5.718345642089844, -0.0960899293422699, 0.0, -7.956854951485644e-05, 0.0, 6.511619972243169e-05, 0.0, -0.00017550207035340478]
[10.000000000000007, 0.5775547197639942, 5.717846393585205, -0.09559299796819687, 0.0, -0.00010245692168234505, 0.0, 2.559056359262467e-05, 0.0, -0.00019927159667867278]
[10.050000000000008, 0.5775868296459317, 5.717019081115723, -0.09707118570804596, 0.0, -0.00010255697579277706, 0.0, 3.950471397464874e-06, 0.0, -0.00013520728330821576]
[10.100000000000009, 0.5781441030710937, 5.716187953948975, -0.09803500771522522, 0.0, -4.3138893580085e-05, 0.0, 1.7830697637346855e-05, 0.0, -0.00013284725318287105]
[10.15000000000001, 0.5785898072898389, 5.714897632598877, -0.09766022861003876, 0.0, 3.3749718289738674e-05, 0.0, -1.0087253496401823e-06, 0.0, -6.136582431233365e-05]
[10.20000000000001, 0.5788719883829356, 5.714181423187256, -0.09714397042989731, 0.0, 5.281899827829576e-05, 0.0, 3.0619032144036184e-05, 0.0, -8.243842146919066e-05]
[10.25000000000001, 0.5789611137583852, 5.717214584350586, -0.09335419535636902, 0.0, -7.364048540281308e-05, 0.0, -5.8081281343134345e-05, 0.0, -0.00010469062600551903]
[10.300000000000011, 0.5772748916208744, 5.717921257019043, -0.09161615371704102, 0.0, -0.00011605126070400557, 0.0, -3.977104459317191e-05, 0.0, -7.485049015204118e-05]
[10.350000000000012, 0.5766947668075562, 5.719784259796143, -0.09065694361925125, 0.0, 1.9048968822059237e-05, 0.0, 2.8158871607581723e-05, 0.0, -4.6698436805804356e-05]
[10.400000000000013, 0.575958774112165, 5.719864845275879, -0.09091513603925705, 0.0, -1.7006323620876326e-05, 0.0, -8.545934284630308e-06, 0.0, -1.7533015135007237e-05]
[10.450000000000014, 0.5759925689712168, 5.720365524291992, -0.09308181703090668, 0.0, 0.00010629270079596608, 0.0, -1.923379995886489e-05, 0.0, -6.65930383553448e-05]
[10.500000000000014, 0.5763257304221392, 5.720044136047363, -0.09499762207269669, 0.0, 8.003736263893241e-05, 0.0, -4.13311471256919e-05, 0.0, -0.00010368289429683174]
[10.550000000000015, 0.5768360196277499, 5.720037937164307, -0.09831047058105469, 0.0, 3.6043515384864235e-05, 0.0, -1.4726290404562706e-05, 0.0, -0.00012981256084667792]
[10.600000000000016, 0.5775632833957672, 5.719612121582031, -0.09941864013671875, 0.0, 6.364519745399363e-05, 0.0, -1.5213402192290255e-06, 0.0, -0.00014616530896940867]
[10.650000000000016, 0.577926180267334, 5.724335670471191, -0.09768519550561905, 0.0, 4.863667254811587e-05, 0.0, 1.2913675453641939e-05, 0.0, -7.771846935482103e-05]
[10.700000000000017, 0.5762130980417133, 5.725742340087891, -0.09707745164632797, 0.0, 6.156633422110084e-05, 0.0, -2.0595241563122754e-05, 0.0, -9.01948836798902e-05]
[10.750000000000018, 0.5756828993037343, 5.728671073913574, -0.09763073176145554, 0.0, 2.7846417954976214e-06, 0.0, 1.5261062292674936e-05, 0.0, 3.152586181375027e-05]
[10.800000000000018, 0.5749772860899567, 5.729333400726318, -0.09898821264505386, 0.0, -5.2519368586880516e-05, 0.0, 1.1051712158555498e-05, 0.0, 3.118837558562634e-05]
[10.85000000000002, 0.5750875995442271, 5.730311393737793, -0.10421138256788254, 0.0, -8.972027835412287e-05, 0.0, -8.43595767375268e-05, 0.0, 4.661819766001084e-05]
[10.90000000000002, 0.5759553863301874, 5.730073928833008, -0.10649700462818146, 0.0, -7.47535985416164e-05, 0.0, -9.890586798306661e-05, 0.0, 7.055751939638373e-05]
[10.95000000000002, 0.5765229739040137, 5.729580402374268, -0.11067157238721848, 0.0, -9.932339755115455e-05, 0.0, 1.3940185669732126e-05, 0.0, 2.4865947704119858e-05]
[11.000000000000021, 0.5775765267625451, 5.729639053344727, -0.11146858334541321, 0.0, -2.9615258445131114e-05, 0.0, -4.120391968484101e-05, 0.0, 1.121167155525931e-05]
[11.050000000000022, 0.5777345149934292, 5.7334136962890625, -0.11024946719408035, 0.0, -7.596905118262132e-05, 0.0, -2.3474390897172476e-05, 0.0, 4.974219663310466e-06]
[11.100000000000023, 0.5764019468531013, 5.734164714813232, -0.10937003791332245, 0.0, -3.344054932979121e-05, 0.0, -2.472737049010903e-05, 0.0, 4.678341411570087e-05]
[11.150000000000023, 0.5759973393112421, 5.735782146453857, -0.11001664400100708, 0.0, 4.6078119755682945e-05, 0.0, -2.2125583120029428e-05, 0.0, 4.3747917899349966e-05]
[11.200000000000024, 0.5756823450922967, 5.7358012199401855, -0.11135932058095932, 0.0, 4.450704525053928e-05, 0.0, 1.30759379428764e-05, 0.0, 7.712902179159262e-05]
[11.250000000000025, 0.5759710068181157, 5.735434055328369, -0.115175262093544, 0.0, -9.959458641524737e-05, 0.0, -3.9997958057856305e-05, 0.0, -2.604475993640098e-05]
[11.300000000000026, 0.5769103485792875, 5.734585285186768, -0.11712358146905899, 0.0, -7.920929714900728e-05, 0.0, -8.219227392084845e-05, 0.0, -5.335465367040642e-05]
[11.350000000000026, 0.5775766383334994, 5.732835292816162, -0.11956837773323059, 0.0, -4.016707191528893e-05, 0.0, -5.164036359536091e-05, 0.0, -0.0001389992655646981]
[11.400000000000027, 0.578606071561575, 5.732242107391357, -0.12026656419038773, 0.0, -4.9029253922149055e-05, 0.0, -5.5769079768589474e-05, 0.0, -0.00013680729947019814]
[11.450000000000028, 0.5789264306411147, 5.7336015701293945, -0.11858715862035751, 0.0, -7.627630896046732e-05, 0.0, -3.284026411102034e-05, 0.0, -0.00011657692746403785]
[11.500000000000028, 0.5781748644903303, 5.733534336090088, -0.11743708699941635, 0.0, -7.465446712404322e-05, 0.0, -6.907259560751317e-05, 0.0, -8.302671115162423e-05]
[11.55000000000003, 0.5779419789746404, 5.733635902404785, -0.1151893138885498, 0.0, -9.968977852819838e-05, 0.0, -9.036520464014415e-05, 0.0, -1.1037969789782121e-05]
[11.60000000000003, 0.5774210444927216, 5.73307466506958, -0.11524461209774017, 0.0, -7.236869881517619e-06, 0.0, -0.00011236077721310594, 0.0, -9.769598575500663e-05]
[11.65000000000003, 0.5775915921002626, 5.732146739959717, -0.11599571257829666, 0.0, -4.128215614921052e-05, 0.0, -6.970449530676227e-05, 0.0, -0.00014641670902437883]
[11.700000000000031, 0.5780180363640189, 5.731294631958008, -0.11643587797880173, 0.0, -7.63838921589192e-05, 0.0, -5.470023218234738e-06, 0.0, -0.0001774380184129303]
[11.750000000000032, 0.5783549826756119, 5.729514122009277, -0.11602799594402313, 0.0, 0.00010002914256100937, 0.0, 4.599683618257967e-06, 0.0, -0.00012955917884709434]
[11.800000000000033, 0.5787682944685221, 5.728997230529785, -0.11536023765802383, 0.0, 6.70013101500761e-05, 0.0, 2.5933097804177315e-05, 0.0, -0.00012989571490076466]
[11.850000000000033, 0.578767973868549, 5.730536937713623, -0.11191672086715698, 0.0, 2.0822387715410993e-05, 0.0, -3.615605101054347e-05, 0.0, -0.00010250150503047087]
[11.900000000000034, 0.5775791843533515, 5.730679035186768, -0.11049342155456543, 0.0, 6.75428262321294e-05, 0.0, -2.407934200913489e-05, 0.0, -6.777294102029313e-05]
[11.950000000000035, 0.5772273676872254, 5.731115341186523, -0.10960996896028519, 0.0, 6.814934808379801e-06, 0.0, -3.7374037623305565e-05, 0.0, -4.5855895442096794e-05]
[12.000000000000036, 0.5769107223853469, 5.731015205383301, -0.10972300171852112, 0.0, -3.412721995233641e-05, 0.0, -8.392868866873489e-05, 0.0, -8.631531504768206e-05]
[12.050000000000036, 0.5769637448966504, 5.731024742126465, -0.11097102612257004, 0.0, -4.7319609109027436e-05, 0.0, -6.214544837059794e-05, 0.0, -0.00010047660966634047]
[12.100000000000037, 0.5772343700185418, 5.7305803298950195, -0.11167990416288376, 0.0, -4.334531130664782e-05, 0.0, -5.759944111289726e-05, 0.0, -6.338760754804541e-05]
[12.150000000000038, 0.5775150718823076, 5.729774475097656, -0.11210928857326508, 0.0, 2.3317851399488644e-06, 0.0, -9.227052623700533e-05, 0.0, 2.1241902643979197e-05]
[12.200000000000038, 0.5778365998774766, 5.729413986206055, -0.11185865104198456, 0.0, 9.31470334181947e-06, 0.0, -9.355260596424408e-05, 0.0, 2.2253098810310406e-05]
[12.250000000000039, 0.5778834762722254, 5.73131799697876, -0.11118685454130173, 0.0, 5.5503228412083003e-05, 0.0, -2.5015219254170253e-05, 0.0, 8.041548730039067e-05]
[12.30000000000004, 0.5771988505974412, 5.731438159942627, -0.11056908220052719, 0.0, 5.56208863685137e-05, 0.0, -7.140323722585446e-05, 0.0, 0.00012610137635003468]
[12.35000000000004, 0.5770296364501118, 5.732327461242676, -0.11014612764120102, 0.0, 3.231382020780813e-05, 0.0, -0.00015875943975623654, 0.0, 0.00011750284055714755]
[12.400000000000041, 0.5766859596446157, 5.73222541809082, -0.1101468950510025, 0.0, -4.6147835957482005e-06, 0.0, -0.00011648302406760185, 0.0, 0.0001188543734480583]
[12.450000000000042, 0.576714934489131, 5.731779098510742, -0.11226959526538849, 0.0, 4.546217156834195e-05, 0.0, -0.00010143612473581109, 0.0, 9.693543923343438e-05]
[12.500000000000043, 0.5773058018535375, 5.730934143066406, -0.11268593370914459, 0.0, 5.077882647062365e-05, 0.0, -5.371283057825552e-05, 0.0, 0.00010131965318936942]
[12.550000000000043, 0.5776355108946561, 5.729063510894775, -0.11413121968507767, 0.0, 7.10712027515141e-05, 0.0, -1.877344183186017e-05, 0.0, 0.00019910103120644978]
[12.600000000000044, 0.5784801079854369, 5.727808475494385, -0.11413183063268661, 0.0, 4.55789557494153e-05, 0.0, -8.495014540428175e-06, 0.0, 0.00022253516943060648]
[12.650000000000045, 0.5788345382764936, 5.730100631713867, -0.11226192861795425, 0.0, 3.000680143352386e-05, 0.0, -9.715747897126592e-05, 0.0, 0.0002665351928063575]
[12.700000000000045, 0.5777779540345073, 5.730483055114746, -0.11078771203756332, 0.0, 3.638814001490463e-05, 0.0, -9.628150531862315e-05, 0.0, 0.00023821223898127887]
[12.750000000000046, 0.5773471424773337, 5.731631755828857, -0.10851060599088669, 0.0, 6.133360485214139e-05, 0.0, -3.5218885480885204e-05, 0.0, 0.00015130610202698046]
[12.800000000000047, 0.5765241780415177, 5.731542110443115, -0.10865025222301483, 0.0, 6.219079931004421e-07, 0.0, -6.47551831635518e-07, 0.0, 0.00012854788436175916]
[12.850000000000048, 0.5765800674587488, 5.73170804977417, -0.11027418076992035, 0.0, -6.481058671843048e-06, 0.0, -0.00018276221995398018, 0.0, 8.572727991893338e-05]
[12.900000000000048, 0.5768888631373644, 5.73101806640625, -0.11085224896669388, 0.0, 9.609134037490836e-06, 0.0, -0.00015742932119573562, 0.0, 4.408484605174532e-05]
[12.950000000000049, 0.5772102423772216, 5.729658603668213, -0.11217255145311356, 0.0, 1.63724171721939e-05, 0.0, -0.00015209221833337102, 0.0, 1.694178761802082e-05]
[13.00000000000005, 0.5778831649526953, 5.728572368621826, -0.11268965899944305, 0.0, 6.871691770673698e-05, 0.0, -0.00013239475062831906, 0.0, 5.137366509820546e-06]
[13.05000000000005, 0.5783030556589365, 5.7297587394714355, -0.11136581003665924, 0.0, 6.804278774146e-05, 0.0, 4.380687694907377e-06, 0.0, -1.2728198894493622e-05]
[13.100000000000051, 0.5776782202452421, 5.729520320892334, -0.11053977906703949, 0.0, 7.733967533291025e-05, 0.0, -4.713980663070177e-05, 0.0, -5.841735344599541e-05]
[13.150000000000052, 0.5775646250277757, 5.72910737991333, -0.10946401208639145, 0.0, -2.7737376254162967e-05, 0.0, -0.00014745369031531812, 0.0, -6.431404420649336e-05]
[13.200000000000053, 0.5774456052973866, 5.728518962860107, -0.10905443876981735, 0.0, -4.29875210606379e-05, 0.0, -0.00017888682287660405, 0.0, -3.2954989757096116e-05]
[13.250000000000053, 0.5775220188751817, 5.726834774017334, -0.10904227197170258, 0.0, -6.339692535954785e-05, 0.0, -7.73614514283503e-05, 0.0, 3.964255899847914e-06]
[13.300000000000054, 0.5779948008567094, 5.7254414558410645, -0.10864998400211334, 0.0, -6.93542100651408e-05, 0.0, -5.374901033550783e-05, 0.0, -2.7224999594822736e-05]
[13.350000000000055, 0.5783022235125304, 5.722506523132324, -0.10822877287864685, 0.0, -0.00010992774019788365, 0.0, -6.8238420886062e-05, 0.0, -4.812794913773937e-05]
[13.400000000000055, 0.5790385097801686, 5.721216201782227, -0.10779964923858643, 0.0, -9.369283252768503e-05, 0.0, -7.815719526573264e-05, 0.0, 2.279591147029804e-06]
[13.450000000000056, 0.5793087894201279, 5.720331192016602, -0.10531166195869446, 0.0, -2.752894830559697e-05, 0.0, -0.0001267892830273453, 0.0, -8.151025774675784e-05]
[13.500000000000057, 0.5790137584626674, 5.719544887542725, -0.10460934042930603, 0.0, -6.455584608021868e-05, 0.0, -0.00012334717322845585, 0.0, -4.812771839487484e-05]
[13.550000000000058, 0.5790819238007068, 5.718332767486572, -0.10151192545890808, 0.0, 3.2258917081859206e-05, 0.0, -7.581163369094177e-05, 0.0, -6.398013721704198e-05]
[13.600000000000058, 0.5787457714140415, 5.717403411865234, -0.10043177753686905, 0.0, 1.8489014793980706e-05, 0.0, -6.529717379498811e-05, 0.0, -7.847803356278587e-05]
[13.650000000000059, 0.5787715761110187, 5.716271877288818, -0.09840932488441467, 0.0, 4.9924388255444815e-05, 0.0, -0.0001998821963811593, 0.0, 3.818005429201077e-05]
[13.70000000000006, 0.5786480911910534, 5.715644836425781, -0.09744901955127716, 0.0, 6.219314214158413e-05, 0.0, -0.0001506871386652125, 0.0, 1.6938346823319514e-05]
[13.75000000000006, 0.5786147979587317, 5.714945316314697, -0.09594209492206573, 0.0, 6.0935011490746816e-05, 0.0, -2.6409565070083245e-05, 0.0, 9.533536423910003e-05]
[13.800000000000061, 0.5784822559922934, 5.714480876922607, -0.09575877338647842, 0.0, 1.926893884710197e-05, 0.0, -6.197946666671486e-05, 0.0, 9.46612221756217e-05]
[13.850000000000062, 0.5785732198163867, 5.7164411544799805, -0.09313465654850006, 0.0, 4.141196537563606e-06, 0.0, -0.00018626028368580748, 0.0, 8.892946240282557e-05]
[13.900000000000063, 0.577445151874423, 5.71688985824585, -0.09185738861560822, 0.0, -9.96166389475356e-06, 0.0, -0.00016121790240265004, 0.0, 0.00013090891101001417]
[13.950000000000063, 0.5770387611240149, 5.7185516357421875, -0.0915299579501152, 0.0, 6.043103231559623e-05, 0.0, 8.576582668901315e-06, 0.0, 9.432490368187387e-05]
[14.000000000000064, 0.5764979340210556, 5.718670845031738, -0.09194234013557434, 0.0, 9.540773538965793e-06, 0.0, 1.872453866290874e-05, 0.0, 9.719071947985407e-05]
[14.050000000000065, 0.5765545929372311, 5.718837261199951, -0.09445586055517197, 0.0, -0.0001289302760574963, 0.0, -1.4706899768159877e-05, 0.0, 0.00010612670987638737]
[14.100000000000065, 0.5770580746248365, 5.718500137329102, -0.0951942503452301, 0.0, -8.414959146001685e-05, 0.0, -3.8380729309091866e-05, 0.0, 6.431770405664407e-05]
[14.150000000000066, 0.5773149520576001, 5.717737197875977, -0.09744520485401154, 0.0, -1.1046934430251865e-05, 0.0, -7.696865965973734e-05, 0.0, 5.84159556908595e-05]
[14.200000000000067, 0.5780232889026403, 5.717116832733154, -0.09825674444437027, 0.0, -4.576014696097435e-05, 0.0, -0.00010758748074200778, 0.0, 5.015721007125575e-05]
[14.250000000000068, 0.5783761451527476, 5.716704845428467, -0.09822943806648254, 0.0, -9.117838708677359e-05, 0.0, -9.729658031177824e-05, 0.0, 0.00013023819412694645]
[14.300000000000068, 0.5784864690721034, 5.715866565704346, -0.09763186424970627, 0.0, -5.8846661693305704e-05, 0.0, -5.8224933819180867e-05, 0.0, 9.601223160192385e-05]
[14.350000000000069, 0.5785922467723489, 5.714150905609131, -0.09557703137397766, 0.0, 3.909403040586171e-05, 0.0, -8.600741318789892e-06, 0.0, -1.7364668538473125e-05]
[14.40000000000007, 0.5786265692174435, 5.7129974365234375, -0.09450960159301758, 0.0, 4.995635370629996e-05, 0.0, -3.0613041446740415e-05, 0.0, -2.5794636386847256e-05]
[14.45000000000007, 0.5787184264183045, 5.710715293884277, -0.09286629408597946, 0.0, 4.1144683274757945e-05, 0.0, -9.639593334574335e-05, 0.0, 9.744152404368924e-05]
[14.500000000000071, 0.579002790941298, 5.709545612335205, -0.09226596355438232, 0.0, -1.1564809277912385e-05, 0.0, -7.213290759373096e-05, 0.0, 9.676957470613652e-05]
[14.550000000000072, 0.5792015196561814, 5.707748889923096, -0.08996463567018509, 0.0, 9.468829654734292e-06, 0.0, -5.2288630896397636e-05, 0.0, 0.00013832570557333767]
[14.600000000000072, 0.5792047435864806, 5.706936836242676, -0.08937813341617584, 0.0, 5.6692703109173814e-05, 0.0, -5.083254963562768e-05, 0.0, 9.533472795535271e-05]
[14.650000000000073, 0.5793055423468352, 5.706953525543213, -0.08665169775485992, 0.0, 9.2668044731917e-06, 0.0, -0.0002666130355612696, 0.0, 0.0001206230419467814]
[14.700000000000074, 0.5787037415474653, 5.706538677215576, -0.08494697511196136, 0.0, -6.424996248189522e-05, 0.0, -0.00020898971258762565, 0.0, 7.73040319859973e-05]
[14.750000000000075, 0.5784475189715624, 5.705286026000977, -0.08358385413885117, 0.0, 9.950491639578532e-05, 0.0, -5.8310793761369624e-05, 0.0, 0.00013882881419100985]
[14.800000000000075, 0.5785026189163327, 5.70436954498291, -0.08333677798509598, 0.0, 5.9130888367946424e-05, 0.0, -8.36804539276296e-06, 0.0, 0.0001374827687792011]
[14.850000000000076, 0.5787072318300605, 5.702987194061279, -0.08258056640625, 0.0, -3.2919636769794724e-06, 0.0, -9.240969536633602e-05, 0.0, 8.724412628275114e-05]
[14.900000000000077, 0.5789318591594697, 5.702075481414795, -0.08282379060983658, 0.0, 3.863911395192558e-05, 0.0, -2.3351913004984296e-05, 0.0, 3.245262138946504e-05]
[14.950000000000077, 0.5792425017401576, 5.700376033782959, -0.08203765749931335, 0.0, -3.492068524157159e-05, 0.0, -6.644107639062696e-05, 0.0, 9.618026590393656e-05]
[15.000000000000078, 0.5795500926554205, 5.699315071105957, -0.08125470578670502, 0.0, -5.502532188205675e-06, 0.0, -8.841822632107647e-06, 0.0, 8.808693545189267e-05]
[15.050000000000079, 0.5796781359940768, 5.6993408203125, -0.07898260653018951, 0.0, 7.654264936199392e-05, 0.0, -5.158982988789939e-05, 0.0, 6.616857607015338e-05]
[15.10000000000008, 0.5791732772558928, 5.6989617347717285, -0.07728884369134903, 0.0, 7.308649946851415e-05, 0.0, -8.545470797182161e-05, 0.0, 4.0542144454111066e-05]
[15.15000000000008, 0.5789093590423464, 5.698770999908447, -0.0760510265827179, 0.0, 2.2800820611391246e-05, 0.0, -0.00014438005451026476, 0.0, 7.392392441183518e-05]
[15.200000000000081, 0.5786921215474605, 5.698477745056152, -0.07506657391786575, 0.0, 1.5660502128317833e-05, 0.0, -0.00012144523202933327, 0.0, 8.302833849354383e-05]
[15.250000000000082, 0.5785593122586609, 5.698537349700928, -0.0735551193356514, 0.0, 3.292651929287521e-05, 0.0, -0.00019022937337599, 0.0, 5.4366301408839714e-05]
[15.300000000000082, 0.5782114773139359, 5.698315620422363, -0.07268697023391724, 0.0, 4.5327158938531906e-05, 0.0, -0.0001895878502228065, 0.0, 7.408986105408088e-05]
[15.350000000000083, 0.5780839468359947, 5.697635650634766, -0.07151562720537186, 0.0, -3.621021228971499e-05, 0.0, -4.234462530107439e-05, 0.0, 0.00010663229061615284]
[15.400000000000084, 0.578019378183782, 5.697446346282959, -0.07144106179475784, 0.0, -1.745574071031398e-05, 0.0, -5.4038725986556495e-05, 0.0, 9.735968918887218e-05]
[15.450000000000085, 0.5780564889773726, 5.6988654136657715, -0.07062964886426926, 0.0, -1.937502106115738e-05, 0.0, -0.00015828940144176477, 0.0, 0.00010022673659626204]
[15.500000000000085, 0.5774781868234277, 5.6990814208984375, -0.07087916135787964, 0.0, -6.618024082209263e-05, 0.0, -0.00016340888993465858, 0.0, 8.050588581702756e-05]
[15.550000000000086, 0.5774718512177468, 5.6998467445373535, -0.07030407339334488, 0.0, -6.441164707758266e-07, 0.0, -0.00013756820112529496, 0.0, 4.4254234126296977e-05]
[15.600000000000087, 0.5771298560902476, 5.699933052062988, -0.07058142870664597, 0.0, -6.281937831497971e-05, 0.0, -9.840800418300461e-05, 0.0, 8.438107952126328e-05]
[15.650000000000087, 0.5771662322893739, 5.700252532958984, -0.07111430168151855, 0.0, -0.00010263829631189584, 0.0, -3.725711139973483e-05, 0.0, 8.690871140228211e-05]
[15.700000000000088, 0.5771927420139313, 5.700203895568848, -0.0717693418264389, 0.0, -9.952776835426422e-05, 0.0, -2.2579405471665583e-05, 0.0, 6.583449934092207e-05]
[15.750000000000089, 0.5773499261409045, 5.70042610168457, -0.07288600504398346, 0.0, -1.5787165513876716e-05, 0.0, -0.00015034896723532524, 0.0, 4.1315778424954815e-06]
[15.80000000000009, 0.5775317465990782, 5.700848579406738, -0.07357554882764816, 0.0, -5.377071273369819e-05, 0.0, -0.00011611668660016099, 0.0, 6.325148956687861e-06]
[15.85000000000009, 0.5775634912267327, 5.704517364501953, -0.07239674776792526, 0.0, -0.00010551462167394704, 0.0, -0.0001617924181278653, 0.0, -2.4015167315947667e-05]
[15.900000000000091, 0.5762696357622742, 5.706581115722656, -0.07202516496181488, 0.0, -3.061632671042256e-05, 0.0, -2.8665325831752934e-05, 0.0, -6.0269553030383886e-05]
[15.950000000000092, 0.5756056621581316, 5.709131240844727, -0.07311205565929413, 0.0, 0.00010486560713108196, 0.0, -4.951225997276219e-05, 0.0, -8.421199723373874e-05]
[16.000000000000092, 0.5751237908989192, 5.710528373718262, -0.07567869871854782, 0.0, 1.3399250533690309e-05, 0.0, -2.486508824310492e-05, 0.0, -6.094450798932753e-05]
[16.050000000000093, 0.5752914751186967, 5.7121100425720215, -0.0790935605764389, 0.0, -3.0357250801329433e-05, 0.0, -3.070917562979575e-05, 0.0, 7.089146351390583e-05]
[16.100000000000094, 0.5755928247481584, 5.7126383781433105, -0.08185447007417679, 0.0, -5.731831363841577e-06, 0.0, -5.9807420556785826e-05, 0.0, 6.027016324656584e-05]
[16.150000000000095, 0.5760483147963882, 5.712985515594482, -0.08581137657165527, 0.0, 5.397985569478161e-05, 0.0, -3.8436237170925825e-05, 0.0, 0.00013276153189959038]
[16.200000000000095, 0.5768168804168701, 5.7129926681518555, -0.0878395289182663, 0.0, -0.00010868203775513829, 0.0, 6.757737631485637e-06, 0.0, 0.0001228155461093681]
[16.250000000000096, 0.5772590266138315, 5.713576793670654, -0.09015599638223648, 0.0, -6.804751618157651e-05, 0.0, -4.0634037458169986e-05, 0.0, 0.00015906358448548316]
[16.300000000000097, 0.5776014343544842, 5.713359355926514, -0.09139738231897354, 0.0, 8.817177008727973e-06, 0.0, 2.4803832671852082e-05, 0.0, 0.0001487784805944483]
[16.350000000000097, 0.5779346805498004, 5.712356090545654, -0.09214247763156891, 0.0, 2.992684105461565e-06, 0.0, -9.627348712752192e-05, 0.0, 0.00024655891230943364]
[16.400000000000098, 0.5783810782402754, 5.711541175842285, -0.09297078847885132, 0.0, -6.054486103787675e-06, 0.0, -0.00013238271121644894, 0.0, 0.0002689815795959146]
[16.4500000000001, 0.5787925287365914, 5.7099385261535645, -0.09199285507202148, 0.0, 7.37313822988404e-05, 0.0, -0.0001279689668780767, 0.0, 0.000307920147414834]
[16.5000000000001, 0.5790307893276214, 5.708417892456055, -0.09066519886255264, 0.0, 5.7426495463419575e-05, 0.0, -5.3755566535780626e-05, 0.0, 0.0003283223952346332]
[16.5500000000001, 0.5791693075105547, 5.7063798904418945, -0.08881669491529465, 0.0, 6.809961362489962e-05, 0.0, -9.420665283117926e-05, 0.0, 0.00023264737938281824]
[16.6000000000001, 0.5793398131147026, 5.705586910247803, -0.08771353214979172, 0.0, 3.2000977470231985e-05, 0.0, -4.686461787196262e-05, 0.0, 0.00017701601645608487]
[16.6500000000001, 0.5793220787778497, 5.705936908721924, -0.08340831845998764, 0.0, 3.3028200774289836e-05, 0.0, 3.625938093796876e-05, 0.0, 6.625544017483988e-05]
[16.700000000000102, 0.5782804324105382, 5.706050872802734, -0.08115905523300171, 0.0, -3.0815630322193856e-05, 0.0, -9.938667499194351e-06, 0.0, 0.00011227934990514165]
[16.750000000000103, 0.5777556717038155, 5.705808639526367, -0.07842657715082169, 0.0, -7.64726208501588e-05, 0.0, -0.0001464725478915893, 0.0, 5.0076053226439504e-05]
[16.800000000000104, 0.5772256414577365, 5.705729007720947, -0.07721606642007828, 0.0, 2.342831163005477e-05, 0.0, -0.00011849099281543528, 0.0, 5.782408423409829e-05]
[16.850000000000104, 0.5769830196663738, 5.705026626586914, -0.07731419056653976, 0.0, 2.2952859172857266e-06, 0.0, -6.76506947310825e-05, 0.0, 0.00011784250274457735]
[16.900000000000105, 0.5772027910485864, 5.704124450683594, -0.07857264578342438, 0.0, -4.942412660423309e-05, 0.0, -6.321085186360972e-05, 0.0, 0.00012880232228883586]
[16.950000000000106, 0.5777330769985913, 5.702959060668945, -0.08001644909381866, 0.0, -9.214449316130662e-05, 0.0, -0.00010284401312812022, 0.0, 5.117101105482703e-05]
[17.000000000000107, 0.578378259524703, 5.7023844718933105, -0.07964929938316345, 0.0, -0.00010313476692107807, 0.0, -0.00011714741806009507, 0.0, 7.629183484375778e-05]
[17.050000000000107, 0.5784600601494312, 5.703023433685303, -0.07743459939956665, 0.0, -4.846294604987034e-05, 0.0, -0.00010213492105547417, 0.0, 0.00019244497976904912]
[17.100000000000108, 0.5777946619391442, 5.70291805267334, -0.076936736702919, 0.0, -4.304081777191036e-05, 0.0, -0.00013978738407704629, 0.0, 0.00021385611145754519]
[17.15000000000011, 0.5777153790682554, 5.702819347381592, -0.07659586519002914, 0.0, -2.5088633244225493e-05, 0.0, -9.035234218794172e-05, 0.0, 0.00018317133193915776]
[17.20000000000011, 0.5776685927107931, 5.702443599700928, -0.0769224539399147, 0.0, 6.0219027786748665e-05, 0.0, -4.328425235918509e-05, 0.0, 0.0001381560624724785]
[17.25000000000011, 0.5778461892172695, 5.701486110687256, -0.07658645510673523, 0.0, 1.4296470526314666e-05, 0.0, 4.9305719363400685e-05, 0.0, 0.00012837964962298176]
[17.30000000000011, 0.5780429046213627, 5.700645446777344, -0.07665275037288666, 0.0, 1.297389962756611e-05, 0.0, 4.897780328395658e-06, 0.0, 8.842411767633392e-05]
[17.35000000000011, 0.578294742706418, 5.699398517608643, -0.07647965103387833, 0.0, -7.087161242452768e-05, 0.0, -0.00019209786937658213, 0.0, 6.128832332445238e-05]
[17.400000000000112, 0.5786088420554996, 5.69917631149292, -0.07585491240024567, 0.0, -3.3642497077570885e-05, 0.0, -3.761780858300006e-05, 0.0, -2.4023070270360643e-05]
[17.450000000000113, 0.5785347530812025, 5.700456142425537, -0.07251127809286118, 0.0, -7.099506918816008e-05, 0.0, -1.1216948468462785e-05, 0.0, -3.9617636759726487e-05]
[17.500000000000114, 0.5774412008956075, 5.700718402862549, -0.07136962562799454, 0.0, -6.015834881943147e-05, 0.0, -5.756826156362429e-05, 0.0, -4.4168162659272846e-05]
[17.550000000000114, 0.5771171428844333, 5.701330184936523, -0.07127781957387924, 0.0, -6.843459130269518e-05, 0.0, 3.198432683693615e-05, 0.0, 3.523366856696562e-05]
[17.600000000000115, 0.576924331279099, 5.701387405395508, -0.07174663245677948, 0.0, -0.0001585019210741099, 0.0, 4.198135542972716e-05, 0.0, 0.00011750207855639956]
[17.650000000000116, 0.5770108479648829, 5.70128059387207, -0.0726400837302208, 0.0, -0.00010931661349318897, 0.0, -5.4217457918722004e-05, 0.0, 0.0001891580222245388]
[17.700000000000117, 0.5772366666868329, 5.700996398925781, -0.07340116798877716, 0.0, -0.00013399746224741896, 0.0, -8.314472163870873e-05, 0.0, 0.00019792715725555838]
[17.750000000000117, 0.5774835723727941, 5.700554847717285, -0.07409191131591797, 0.0, -1.5255643742425733e-05, 0.0, -3.093461390206112e-05, 0.0, 0.00016715463258430032]
[17.800000000000118, 0.5777594950675965, 5.700209617614746, -0.07388895750045776, 0.0, -3.038192614347044e-05, 0.0, 1.723783183053604e-05, 0.0, 0.00017760655285265886]
[17.85000000000012, 0.5778125066399573, 5.7004170417785645, -0.07313338667154312, 0.0, -9.093398519828864e-05, 0.0, -5.5432967636277556e-05, 0.0, 0.00014338609516939207]
[17.90000000000012, 0.5775884807869792, 5.70012092590332, -0.07311190664768219, 0.0, -0.00012865846381301645, 0.0, 1.9874223900691546e-05, 0.0, 0.0002091313778200126]
