time, uz, alt, vel_alt, uthe, roll, uphi, pitch, upsi, yaw, F
[0.0, 0.0, 0.018478654325008392, 0.03675941750407219, 0.0, -0.013728913203292689, 0.0, 0.023939682770448154, 0.0, -0.08499317751201779, array([[-6.25471643]])]
[0.05, 6.256472994978231, 0.018478654325008392, 0.03675941750407219, 0.0, -0.013728913203292689, 0.0, 0.023939682770448154, 0.0, -0.08499317751201779, array([[-20.07385152]])]
[0.1, 20.076710559979936, 0.01839815266430378, 0.06470249593257904, 0.0, -0.01370172362110081, 0.0, 0.023711509219395157, 0.0, -0.08486898650607529, array([[-45.65028229]])]
[0.15000000000000002, 45.65294173667357, 0.027774998918175697, 0.5247647166252136, 0.0, -0.01183585941102028, 0.0, 0.019204187369539376, 0.0, -0.08246219811101976, array([[ 12.68887839]])]
[0.2, -13.061797817265095, 0.050708942115306854, 0.9767684936523438, 0.0, -0.010404902872459643, 0.0, 0.015338172558172245, 0.0, -0.07957320032935784, array([[ 0.02462937]])]
[0.25, -0.714326446417164, 0.129024475812912, 1.0494015216827393, 0.0, -0.006541237908178691, 0.0, 0.00852980176187054, 0.0, -0.061475571868438036, array([[ 0.00577415]])]
[0.3, -0.6348958988239303, 0.1571781039237976, 0.7559146285057068, 0.0, -0.005887942604518496, 0.0, 0.007686174802098291, 0.0, -0.05780885443448491, array([[ 1.16882214]])]
[0.35, -1.2502444632406582, 0.18532681465148926, 0.10797466337680817, 0.0, -0.0024844773538285282, 0.0, 0.0033623706961841554, 0.0, -0.03966426335114617, array([[-1516.52234728]])]
[0.39999999999999997, 1517.0316340928498, 0.18338266015052795, -0.19785332679748535, 0.0, -0.0014995991503882259, 0.0, 0.0021005197918045186, 0.0, -0.03421226510470368, array([[-2439.97628206]])]
[0.44999999999999996, 2440.756291397318, 0.16004902124404907, -0.08702825754880905, 0.0, 0.0013925487919193363, 0.0, -0.000960809586254777, 0.0, -0.01807458598662016, array([[-6545.20777446]])]
[0.49999999999999994, 6545.7645860514285, 0.16435609757900238, 0.40091371536254883, 0.0, 0.0017415185272220436, 0.0, -0.0007249993939307029, 0.0, -0.015179970948564672, array([[-3395.32501111]])]
[0.5499999999999999, 3395.4123197825966, 0.22622735798358917, 1.4499249458312988, 0.0, 0.001765853375320091, 0.0, -0.0005139544482748939, 0.0, -0.009485388548272617, array([[ -7.70711581e-06]])]
[0.6, -0.8426179262971596, 0.33800822496414185, 2.1869468688964844, 0.0, 0.001102595037773474, 0.0, -0.00013185820811807323, 0.0, -0.007845392434901031, array([[ -1.62964492e-13]])]
[0.65, -1.0955856359934666, 0.41987332701683044, 1.913390040397644, 0.0, 0.00074412763662378, 0.0, -2.0338040397018945e-05, 0.0, -0.0070367757819909844, array([[ -3.56598189e-13]])]
[0.7000000000000001, -0.9004028201658437, 0.47566959261894226, 1.6166003942489624, 0.0, 0.0005186668876254666, 0.0, 4.926250255890086e-05, 0.0, -0.006653469341681671, array([[ -4.88953288e-08]])]
[0.7500000000000001, -0.34722622971892403, 0.5616896152496338, 0.9674955010414124, 0.0, -0.00042285284072087105, 0.0, 0.0004130784149807021, 0.0, -0.0050047779638818235, array([[-2.53320583]])]
[0.8000000000000002, 2.5893633511288128, 0.5870171785354614, 0.6613402366638184, 0.0, -0.0007075645510847957, 0.0, 0.0005608604273380964, 0.0, -0.0045093251871795685, array([[-393.69120507]])]
[0.8500000000000002, 393.8393083024301, 0.6207506656646729, 0.8037222623825073, 0.0, -0.0011171175320311125, 0.0, 0.000763132494663257, 0.0, -0.0029237333315871115, array([[-46.41272777]])]
[0.9000000000000002, 46.0145573229242, 0.653053343296051, 1.296746850013733, 0.0, -0.0007824827761520394, 0.0, 0.0006471807777914328, 0.0, -0.0026330835021532873, array([[-0.00120978]])]
[0.9500000000000003, -1.1289758508439078, 0.7734327912330627, 2.315033197402954, 0.0, -0.0005367139310726277, 0.0, 0.0004138616296444713, 0.0, -0.0018929263740885317, array([[ -1.58870557e-21]])]
[1.0000000000000002, -1.9854291100427506, 0.9086064100265503, 2.080247163772583, 0.0, -0.00028777145581375635, 0.0, 0.0006482085040820923, 0.0, -0.0015222690941569818, array([[ -1.88411259e-21]])]
[1.0500000000000003, -1.761453418023884, 0.9830843806266785, 1.7058358192443848, 0.0, -0.00015582986113163954, 0.0, 0.0008410334690259178, 0.0, -0.001312265731913189, array([[ -1.11719741e-09]])]
[1.1000000000000003, -0.8876430979794061, 1.0319154262542725, 1.400094747543335, 0.0, 1.309550574954349e-05, 0.0, 0.0009416146563238073, 0.0, -0.0011878607940131298, array([[ -3.63099565e-05]])]
[1.1500000000000004, -0.281462874627711, 1.1024956703186035, 0.7467984557151794, 0.0, 0.00036717365007861067, 0.0, 0.0013375726333374484, 0.0, -0.0008097327824753916, array([[-50.04529218]])]
[1.2000000000000004, 50.35432394058747, 1.1203417778015137, 0.43965280055999756, 0.0, 0.00047162790217018607, 0.0, 0.001511535684031807, 0.0, -0.0007013045125366525, array([[-1385.67636684]])]
[1.2500000000000004, 1386.2818120013621, 1.1394588947296143, 0.5860646963119507, 0.0, 0.0006131173838787526, 0.0, 0.0016817287331119637, 0.0, -0.0003171875186536352, array([[-337.18452564]])]
[1.3000000000000005, 337.4131761020069, 1.200101613998413, 1.0862878561019897, 0.0, 0.0002927469214850938, 0.0, 0.0010246394420215714, 0.0, -0.00014104198251050344, array([[-0.10285666]])]
[1.3500000000000005, -0.2237750000997913, 1.2713080644607544, 2.1187381744384766, 0.0, 0.00032075990816190445, 0.0, 0.0009246580795051301, 0.0, -7.537886352265748e-05, array([[ -1.20426888e-17]])]
[1.4000000000000006, -1.2897157685272396, 1.3413736820220947, 2.2026262283325195, 0.0, 0.0002813504747364153, 0.0, 0.000818824626216987, 0.0, -6.748835778706068e-05, array([[ -1.76186192e-19]])]
[1.4500000000000006, -1.352354873465374, 1.469435691833496, 1.6062504053115845, 0.0, -0.0001506951601178869, 0.0, 0.00035368264278395027, 0.0, -8.516328452943126e-05, array([[ -1.09157111e-08]])]
[1.5000000000000007, -0.8625409285205831, 1.5152289867401123, 1.3004926443099976, 0.0, -0.0002426236172924156, 0.0, 0.0002793206047238667, 0.0, -0.00010489524568194151, array([[-0.00014978]])]
[1.5500000000000007, -0.5092388702752704, 1.5800565481185913, 0.6483104825019836, 0.0, -0.0006601249565515135, 0.0, 9.243615356606376e-05, 0.0, -8.58414946914073e-05, array([[-34.91234032]])]
[1.6000000000000008, 35.00032618010219, 1.601218819618225, 0.18471282720565796, 0.0, -0.0009382812357633349, 0.0, 5.112161151869567e-05, 0.0, 3.217621229852732e-05, array([[-413.35882036]])]
[1.6500000000000008, 414.0357128970519, 1.6173131465911865, 0.6901373267173767, 0.0, -0.0007313160369692239, 0.0, 0.00012628007452757507, 0.0, -7.877648964921669e-05, array([[-17.98713425]])]
[1.7000000000000008, 18.064590755806726, 1.6864981651306152, 1.6227936744689941, 0.0, -0.0006322102212788063, 0.0, 0.00033762416613872714, 0.0, -8.541194752333381e-05, array([[-0.00146353]])]
[1.7500000000000009, -0.7310994433265106, 1.7629334926605225, 2.2178072929382324, 0.0, -0.00042670081744103643, 0.0, 0.0002438370251871771, 0.0, 0.00021144085701498762, array([[ -1.26348750e-20]])]
[1.800000000000001, -1.6184066346799955, 1.8368961811065674, 2.3005707263946533, 0.0, -0.00040584565181700245, 0.0, 0.00023120768515368675, 0.0, 0.0003701710021092718, array([[ -1.35342426e-22]])]
[1.850000000000001, -1.5962420575972647, 1.9735171794891357, 1.7048149108886719, 0.0, -0.000526796832102823, 0.0, 0.000685251202945219, 0.0, 0.0009019306817371289, array([[ -2.58729534e-11]])]
[1.900000000000001, -1.1812233533218681, 2.0230612754821777, 1.3991327285766602, 0.0, -0.0006102961315817404, 0.0, 0.0008816533020061862, 0.0, 0.0010693338284179183, array([[ -6.62932486e-07]])]
[1.950000000000001, -0.8926347069504331, 2.095501661300659, 0.7475783228874207, 0.0, -0.000719865949239913, 0.0, 0.001589435488125323, 0.0, 0.0018758908831778204, array([[-0.60084475]])]
[2.000000000000001, 0.3255497748384462, 2.114152669906616, 0.4406272768974304, 0.0, -0.0007083429195954301, 0.0, 0.0018944508284936279, 0.0, 0.0020911628136081576, array([[-13.15490031]])]
[2.0500000000000007, 13.442835064284445, 2.1216602325439453, -0.09295111894607544, 0.0, -0.0008002885261343125, 0.0, 0.002465787137523515, 0.0, 0.002774302188515228, array([[-11.50729403]])]
[2.1000000000000005, 12.311405555178665, 2.127664566040039, 0.11780670285224915, 0.0, -0.0004626380056937038, 0.0, 0.0017724733160795847, 0.0, 0.0030332383113739142, array([[-28.44776331]])]
[2.1500000000000004, 28.96794215507322, 2.1611533164978027, 1.180490255355835, 0.0, -0.0003719419597677299, 0.0, 0.0013413486466807263, 0.0, 0.003035421401770619, array([[ -9.56905915e-05]])]
[2.2, -0.31293921898098104, 2.2061634063720703, 1.6716322898864746, 0.0, -0.00034506827483073686, 0.0, 0.0013276729291580934, 0.0, 0.003002820025896884, array([[ -2.24868193e-11]])]
[2.25, -0.8475482526941737, 2.336745023727417, 1.8457037210464478, 0.0, -0.00017394707987768116, 0.0, 0.0007762694456888767, 0.0, 0.0025847151945169395, array([[ -9.01753753e-15]])]
[2.3, -1.4705004118196574, 2.3907248973846436, 1.5541311502456665, 0.0, -0.00011982529170439753, 0.0, 0.0006512983649995864, 0.0, 0.0024466705062189953, array([[ -3.77978198e-10]])]
[2.3499999999999996, -1.4817034737990695, 2.473118543624878, 0.9055313467979431, 0.0, -0.00015013638564688494, 0.0, 0.0003336206136455523, 0.0, 0.001770817107364227, array([[-0.0032778]])]
[2.3999999999999995, -1.0010609071817334, 2.496558666229248, 0.599270224571228, 0.0, -0.00015793787960087163, 0.0, 0.00024398790772415304, 0.0, 0.0015938060487499194, array([[-0.21555378]])]
[2.4499999999999993, -0.3726883002778909, 2.513352870941162, -0.054136719554662704, 0.0, -7.169038030440647e-05, 0.0, -5.440247119904626e-05, 0.0, 0.0006309402887344958, array([[-0.71233255]])]
[2.499999999999999, 0.9649943514827797, 2.50589919090271, -0.36109688878059387, 0.0, -5.5719801552588144e-05, 0.0, -4.496152933198043e-05, 0.0, 0.00037510820639194257, array([[-0.0520343]])]
[2.549999999999999, 0.6843370813306332, 2.4708008766174316, -0.2694990038871765, 0.0, -0.00017490389851443556, 0.0, 8.256894055783715e-06, 0.0, -0.0005234645775926771, array([[-0.18054866]])]
[2.5999999999999988, 1.0048291928661421, 2.4704976081848145, 0.05388152599334717, 0.0, -0.00022480244882540777, 0.0, 0.0002170010285219827, 0.0, -0.0006762284144968431, array([[-1.83862299]])]
[2.6499999999999986, 2.268135507143868, 2.489326238632202, 0.7928178906440735, 0.0, -9.628303942591749e-05, 0.0, 0.0002454576591560608, 0.0, -0.0006195704806000698, array([[-0.0180358]])]
[2.6999999999999984, -0.28121220843760625, 2.5218751430511475, 1.2916951179504395, 0.0, -0.00013333105148863973, 0.0, 0.00026498824892313527, 0.0, -0.0005657126847324193, array([[ -4.12696595e-07]])]
[2.7499999999999982, -1.049871097691734, 2.622666120529175, 1.3828500509262085, 0.0, -5.2608127165233044e-05, 0.0, 0.0005905160786464465, 0.0, -0.0003934142352133564, array([[ -1.19547303e-08]])]
[2.799999999999998, -1.5876199858204518, 2.6614363193511963, 1.0887316465377808, 0.0, 9.555101966377349e-06, 0.0, 0.0007835394774317526, 0.0, -0.000354282682472431, array([[ -1.95922763e-05]])]
[2.849999999999998, -1.4973662555902008, 2.7094645500183105, 0.4384155869483948, 0.0, 0.00026354229234105573, 0.0, 0.001527756215235072, 0.0, -0.0003525679142643102, array([[-0.11680847]])]
[2.8999999999999977, -0.7644611356873442, 2.7169957160949707, 0.13131941854953766, 0.0, 0.00029205567704886174, 0.0, 0.0016914452801230248, 0.0, -0.0003208277912599191, array([[-0.25500186]])]
[2.9499999999999975, -0.08407357751591504, 2.7005021572113037, -0.5220797657966614, 0.0, 0.0004470629977059929, 0.0, 0.0026934057635918073, 0.0, -0.00031246502242402444, array([[-0.00078803]])]
[2.9999999999999973, 0.3116683939942222, 2.6774981021881104, -0.8297649025917053, 0.0, 0.000482545943039207, 0.0, 0.0029641259616335278, 0.0, -0.0002643887954343511, array([[ -2.81706117e-06]])]
[3.049999999999997, 0.7561010700058161, 2.598917007446289, -1.3460031747817993, 0.0, 0.0005758464776203418, 0.0, 0.0038039504585609825, 0.0, -0.00014093989199907172, array([[ -4.59953559e-12]])]
[3.099999999999997, 1.1502354099088707, 2.5549795627593994, -1.2931345701217651, 0.0, 0.00041693412402687903, 0.0, 0.0035278057946538806, 0.0, -0.000151920693597005, array([[ -4.20281152e-11]])]
[3.149999999999997, 0.8105425563222983, 2.4855480194091797, -0.5310502648353577, 0.0, 0.00020576352746954905, 0.0, 0.0020273001924877685, 0.0, -0.00023311650200665926, array([[-0.0048952]])]
[3.1999999999999966, -0.17647721637893937, 2.4749534130096436, -0.11130572110414505, 0.0, 0.00011604993104571062, 0.0, 0.0017993192284925642, 0.0, -0.00022377973221013184, array([[-0.75279135]])]
[3.2499999999999964, -0.13662268706052316, 2.474060535430908, -0.11214794218540192, 0.0, -9.726592220650522e-05, 0.0, 0.0008301717516126526, 0.0, 8.726171666087713e-06, array([[-0.67665408]])]
[3.2999999999999963, -0.2160012277210216, 2.4645798206329346, -0.40639421343803406, 0.0, -0.00016815791934639184, 0.0, 0.0007482379411931521, 0.0, 9.620050061541546e-05, array([[-0.04059683]])]
[3.349999999999996, -0.4797521558195094, 2.41207218170166, -1.0549761056900024, 0.0, -0.0003015015716531135, 0.0, 0.0003126108343618583, 0.0, 0.0003976505377834597, array([[ -1.50855884e-07]])]
[3.399999999999996, 0.28380659269194297, 2.372328996658325, -1.3621039390563965, 0.0, -0.0003574246967394249, 0.0, 0.0002734423200565116, 0.0, 0.0004581716693148402, array([[ -3.25815513e-11]])]
[3.4499999999999957, 0.5402309683849887, 2.256685972213745, -1.9250943660736084, 0.0, -0.0005918965961464979, 0.0, 9.619258104587353e-05, 0.0, 0.0006465042311678187, array([[ -5.88982289e-20]])]
[3.4999999999999956, 1.3396628386666996, 2.191781759262085, -2.0441157817840576, 0.0, -0.000593778094855413, 0.0, 9.293895963449196e-05, 0.0, 0.0007223694327576371, array([[ -5.53979502e-22]])]
[3.5499999999999954, 1.8258173703216014, 2.0622053146362305, -1.4706133604049683, 0.0, -0.0003343808735573506, 0.0, 0.00023212523311241852, 0.0, 0.0007908046953181796, array([[ -1.88807694e-11]])]
[3.599999999999995, 1.5204987903640352, 2.022068738937378, -0.9817318320274353, 0.0, -0.0002819496507592534, 0.0, 0.00018823379976056393, 0.0, 0.0007710921791144181, array([[ -3.46537550e-05]])]
[3.649999999999995, 0.966604118120037, 1.9908138513565063, 0.10465695708990097, 0.0, -0.00021755174011238082, 0.0, 0.0003207574326716401, 0.0, 0.0005965116208148038, array([[-56.35635349]])]
[3.699999999999995, 55.91889159538033, 2.0017831325531006, 0.6037123799324036, 0.0, -0.0001344131784363901, 0.0, 0.0003047553508221181, 0.0, 0.0005372675395189249, array([[-6.67635299]])]
[3.7499999999999947, 5.572398716461623, 2.076467990875244, 1.632672905921936, 0.0, -0.00010892360916080554, 0.0, 0.00026189352088035016, 0.0, 0.0004399988356908921, array([[ -1.89039506e-10]])]
[3.7999999999999945, -2.2152116291430035, 2.1355390548706055, 2.1057589054107666, 0.0, -0.00016285701220997715, 0.0, 0.00028202286242935714, 0.0, 0.0004123418023438827, array([[ -3.83707733e-19]])]
[3.8499999999999943, -2.4220038320403545, 2.2820913791656494, 1.9865057468414307, 0.0, 0.00021220937527367332, 0.0, 0.0005833594696621056, 0.0, 0.00024839113157615485, array([[ -3.09249240e-17]])]
[3.899999999999994, -2.0115138899674636, 2.382598400115967, 1.4209247827529907, 0.0, 0.0005678188298287194, 0.0, 0.0010605300141884352, 0.0, 9.007389464729982e-05, array([[ -4.64931566e-12]])]
[3.949999999999994, -1.1464241500431744, 2.430485248565674, 1.0370982885360718, 0.0, 0.0008031971266964752, 0.0, 0.001427149353117648, 0.0, -5.211043581329575e-05, array([[-0.00034839]])]
[3.999999999999994, 0.017948051374594143, 2.4576618671417236, 0.7300640344619751, 0.0, 0.0008930100387256303, 0.0, 0.0015904713129678135, 0.0, -7.523849746765332e-05, array([[-0.06141157]])]
[4.049999999999994, 0.5917574943916535, 2.480778694152832, 0.07994376122951508, 0.0, 0.0012074644017067825, 0.0, 0.002489528867995954, 0.0, -0.0002254158359972813, array([[-1.54199575]])]
[4.099999999999993, 2.4825222353473686, 2.474381685256958, -0.04203467071056366, 0.0, 0.0010290620329693333, 0.0, 0.0022181501950606862, 0.0, -0.00033729813095169717, array([[-0.81719371]])]
[4.149999999999993, 1.5817795389512632, 2.4814870357513428, 0.5130914449691772, 0.0, 0.0005900092946241627, 0.0, 0.0015943030386308895, 0.0, -0.0003126808527058335, array([[-0.46140795]])]
[4.199999999999993, 0.3138298113168044, 2.5049784183502197, 1.0148124694824219, 0.0, 0.00046498509605443964, 0.0, 0.001325959170155556, 0.0, -0.00031495020711782364, array([[-0.00034213]])]
[4.249999999999993, -0.9071152303408805, 2.591914415359497, 1.3152698278427124, 0.0, 0.0002721116289854581, 0.0, 0.0005424517207437167, 0.0, -5.589721205302385e-05, array([[ -1.05170302e-07]])]
[4.299999999999993, -1.7035864566445793, 2.6296274662017822, 1.0762839317321777, 0.0, 0.00017370219166617493, 0.0, 0.00041065581046786866, 0.0, -7.5507669541913794e-06, array([[ -3.30512396e-05]])]
[4.3499999999999925, -1.4584398816366848, 2.6791999340057373, 0.4363877773284912, 0.0, -0.0002543882544149497, 0.0, 0.00027120138179618825, 0.0, 0.0002117112745277786, array([[-0.15017961]])]
[4.399999999999992, -0.47602357520379035, 2.6873414516448975, 0.12956994771957397, 0.0, -0.0003491299804596418, 0.0, 0.0002942601416479525, 0.0, 0.00023681392405766846, array([[-0.32274941]])]
[4.449999999999992, 0.6005888440864255, 2.6711196899414062, -0.5232588648796082, 0.0, -0.0008375229754645987, 0.0, 0.0005344454261431234, 0.0, 0.00033459079021524226, array([[-0.00098504]])]
[4.499999999999992, 1.1254696345156272, 2.650228261947632, -0.662675142288208, 0.0, -0.0009867102982259162, 0.0, 0.0006545698200994753, 0.0, 0.0003407293940007214, array([[-0.00011382]])]
[4.549999999999992, 1.0218253210197161, 2.61312198638916, -0.11194293946027756, 0.0, -0.0006626856780685443, 0.0, 0.0003826021751079291, 0.0, 0.0002695287786216088, array([[-0.20141631]])]
[4.599999999999992, 0.3604076630435883, 2.6165759563446045, 0.3968612253665924, 0.0, -0.0006649366242927212, 0.0, 0.0003841135106872822, 0.0, 0.00016517224370221146, array([[-0.35987948]])]
[4.6499999999999915, -0.3508462089502825, 2.6656606197357178, 0.825413167476654, 0.0, -0.0003273418523321638, 0.0, -6.452401306380242e-05, 0.0, -4.94698381981645e-05, array([[-0.00242214]])]
[4.699999999999991, -1.487363909627524, 2.6876330375671387, 0.588297426700592, 0.0, -0.0002877360456384053, 0.0, -7.982046614855997e-05, 0.0, -6.127003256915807e-05, array([[-0.04622053]])]
[4.749999999999991, -1.558889658066351, 2.704057216644287, -0.051606833934783936, 0.0, -0.0003202880672187669, 0.0, 0.0002029393046506395, 0.0, -0.00015943187625988103, array([[-0.13063779]])]
[4.799999999999991, -0.8256731246150242, 2.6824495792388916, -0.6274637579917908, 0.0, -0.00030755858111642444, 0.0, 0.0005630329340715107, 0.0, -0.0001552712748292512, array([[-0.00924596]])]
[4.849999999999991, -0.2726100311655512, 2.6487224102020264, -1.0116171836853027, 0.0, -0.00040024386125172423, 0.0, 0.0008764017753671531, 0.0, -0.00019278649574259505, array([[ -4.12189204e-08]])]
[4.899999999999991, 0.8524967024496093, 2.6108436584472656, -1.3188729286193848, 0.0, -0.0004524441738571772, 0.0, 0.0010668060181885338, 0.0, -0.00019858443202615923, array([[ -9.90637165e-12]])]
[4.94999999999999, 1.315176394379825, 2.5077760219573975, -1.4013463258743286, 0.0, -0.0004643514214197416, 0.0, 0.001647808906093648, 0.0, -0.00027147120530310206, array([[ -1.99225394e-12]])]
[4.99999999999999, 1.1483263682756935, 2.4678966999053955, -1.0179716348648071, 0.0, -0.00040605380057056104, 0.0, 0.001438161987360565, 0.0, -0.00033308358824762414, array([[ -2.36364495e-07]])]
[5.04999999999999, 0.41628091718134835, 2.4335296154022217, 0.042992137372493744, 0.0, -0.0003423998770414902, 0.0, 0.0006633151113046887, 0.0, -0.00019331471579110064, array([[-1.99183347]])]
[5.09999999999999, 0.9965856666213441, 2.4374310970306396, 0.17126703262329102, 0.0, -0.00037866357652585386, 0.0, 0.0006406572198821794, 0.0, -0.0001590992117517841, array([[-2.7056656]])]
[5.14999999999999, 1.3620831446740718, 2.4546163082122803, 0.6337214112281799, 0.0, -0.0001539460826994864, 0.0, 0.0003836023682785578, 0.0, -3.054384588336626e-05, array([[-0.17810621]])]
[5.1999999999999895, -1.742248734724552, 2.5196709632873535, 1.553931474685669, 0.0, -0.00022822598951330702, 0.0, 0.00018165244656930904, 0.0, -2.07289049408841e-08, array([[ -3.45511742e-05]])]
[5.249999999999989, -2.0291731366297876, 2.582987070083618, 1.4994951486587524, 0.0, -0.00011989258427677579, 0.0, 0.0002999869136032049, 0.0, 7.281176619845259e-05, array([[ -4.26729108e-10]])]
[5.299999999999989, -2.0872768078047064, 2.626132011413574, 1.217207670211792, 0.0, -0.00013898412155212162, 0.0, 0.0004039405162586092, 0.0, 8.106246721885986e-05, array([[ -1.18684070e-06]])]
[5.349999999999989, -1.3282820048636979, 2.6859469413757324, 0.5709947347640991, 0.0, -0.0001151384992616996, 0.0, 0.0012151446461390433, 0.0, 0.0002204423964906567, array([[-0.04890243]])]
[5.399999999999989, -0.2949278878859894, 2.6989591121673584, 0.26354679465293884, 0.0, -9.888258259177848e-05, 0.0, 0.001462028131332757, 0.0, 0.00022482335885512942, array([[-0.27607218]])]
[5.449999999999989, 0.4621110635571743, 2.6939566135406494, -0.3887127935886383, 0.0, -7.167429706409617e-05, 0.0, 0.0026570053471439764, 0.0, 0.00018720553577157036, array([[-0.00566179]])]
[5.4999999999999885, 0.7737579947742516, 2.6597487926483154, -0.6467019319534302, 0.0, -8.889492563993306e-05, 0.0, 0.0030381615877191513, 0.0, 0.00022290633094665854, array([[-0.00034559]])]
[5.549999999999988, 0.6856460929099368, 2.6370725631713867, -0.44360390305519104, 0.0, -7.000883544532472e-05, 0.0, 0.0022798858412509046, 0.0, 0.0002675528541139625, array([[-0.00446354]])]
[5.599999999999988, 0.2389638171712424, 2.6185801029205322, -0.18007150292396545, 0.0, -0.00016083222469082518, 0.0, 0.0012183065400088395, 0.0, 0.00031617203583312567, array([[-0.04671734]])]
[5.649999999999988, 0.07582895773507313, 2.6078598499298096, -0.3488868772983551, 0.0, -0.00016204121261838425, 0.0, 0.0008880288704924334, 0.0, 0.00022566659391493873, array([[-0.02067202]])]
[5.699999999999988, 0.21683953906558834, 2.5922844409942627, -0.5907709002494812, 0.0, -0.00015341035922136577, 0.0, 0.0007123476740669583, 0.0, 0.00023310174779108417, array([[-0.00071163]])]
[5.749999999999988, 0.713106337317476, 2.53098464012146, -1.1461130380630493, 0.0, -0.00011060660590741858, 0.0, 5.659239922279011e-05, 0.0, -2.023361567222938e-05, array([[ -3.67384467e-09]])]
[5.799999999999987, 1.4400007525544012, 2.4921417236328125, -1.182226538658142, 0.0, -0.00016085491338903578, 0.0, -5.599182255766092e-05, 0.0, -3.691613353132726e-05, array([[ -2.12268486e-09]])]
[5.849999999999987, 1.3769018436978484, 2.4280989170074463, -0.47658950090408325, 0.0, -0.00015565426859675941, 0.0, -4.1756923637467255e-05, 0.0, -0.00011632204412265837, array([[-0.01746947]])]
[5.899999999999987, 0.34376061427482174, 2.426823377609253, 0.40878942608833313, 0.0, -0.00011553812180271225, 0.0, -7.714063594539764e-05, 0.0, -0.00022657698506159876, array([[-2.3292832]])]
[5.949999999999987, 1.7929337897378308, 2.443166732788086, 0.3791443407535553, 0.0, 2.721820617058864e-05, 0.0, 8.171804108360546e-05, 0.0, -0.00020095506435378283, array([[-1.42391687]])]
[5.999999999999987, 0.20659515349003188, 2.4572253227233887, 0.6180873513221741, 0.0, 6.532681488284065e-05, 0.0, 0.000153089298431562, 0.0, -0.00020196270041620456, array([[-0.22817609]])]
[6.0499999999999865, -1.4560158085333619, 2.512617826461792, 0.7325316667556763, 0.0, -0.00015054712791000088, 0.0, 9.518609043558089e-06, 0.0, -0.00021486534400294487, array([[-0.03300963]])]
[6.099999999999986, -1.8169506948582956, 2.5316107273101807, 0.46149495244026184, 0.0, -0.00021420191031300194, 0.0, 1.7590903322564122e-05, 0.0, -0.00022869067730145974, array([[-0.48680065]])]
[6.149999999999986, -1.0345843954288503, 2.540459632873535, -0.18232285976409912, 0.0, -0.00036361794913811885, 0.0, 0.00024138956878967197, 0.0, -0.0002555380746783285, array([[-0.21100478]])]
[6.199999999999986, -0.24259685572506315, 2.5294361114501953, -0.48957398533821106, 0.0, -0.00038769394483933914, 0.0, 0.00035782034938484697, 0.0, -0.0002950129987510111, array([[-0.00654001]])]
[6.249999999999986, 0.1691085891540117, 2.47339129447937, -1.142519474029541, 0.0, -0.0005680624882010998, 0.0, 0.0010006155293104339, 0.0, -0.00012520747759715313, array([[ -7.26351565e-09]])]
[6.299999999999986, 1.2187500811464993, 2.43190598487854, -1.4268083572387695, 0.0, -0.0006106682241361942, 0.0, 0.0011981362225193014, 0.0, -0.00013169543607423266, array([[ -2.01701984e-12]])]
[6.349999999999985, 1.5767343159610552, 2.3320460319519043, -1.1552586555480957, 0.0, -0.000422690802730857, 0.0, 0.001207942144847424, 0.0, -3.616441464836193e-05, array([[ -2.08770479e-08]])]
[6.399999999999985, 1.2985831859896977, 2.3026490211486816, -0.666117787361145, 0.0, -0.0004813428434660087, 0.0, 0.0009781095443114804, 0.0, -2.1140242018676774e-05, array([[-0.00237258]])]
[6.449999999999985, 0.5702230055402076, 2.2936031818389893, 0.4126068651676178, 0.0, -0.00024938950849225056, 0.0, 0.0005515958413278781, 0.0, 1.27991806535207e-06, array([[-3.68811763]])]
[6.499999999999985, 2.717576937914646, 2.3125863075256348, 0.7158905863761902, 0.0, -0.00026861386271776275, 0.0, 0.0004975041515305757, 0.0, 2.218671813592989e-05, array([[-0.21366072]])]
[6.549999999999985, -1.3167846992365906, 2.3792216777801514, 1.435152530670166, 0.0, -0.0002559066219568978, 0.0, 0.00019846075241065878, 0.0, 9.505789007057004e-05, array([[ -1.61394192e-08]])]
[6.5999999999999845, -2.295654615567001, 2.426313638687134, 1.4381035566329956, 0.0, -0.00025069658352452895, 0.0, 0.00011408878741614896, 0.0, 0.00014429649852135237, array([[ -1.15484767e-08]])]
[6.649999999999984, -2.1289428450399237, 2.5031015872955322, 0.8316127061843872, 0.0, -0.00022568243709457323, 0.0, 0.0002665571611691917, 0.0, 3.402457554086067e-05, array([[-0.00825747]])]
[6.699999999999984, -0.8810991932983707, 2.524207353591919, 0.5257973670959473, 0.0, -0.000247962852256814, 0.0, 0.00035327889077335655, 0.0, 3.856271387038744e-05, array([[-0.31533866]])]
[6.749999999999984, 0.3040432246739901, 2.536424160003662, -0.12664170563220978, 0.0, -0.0003381165660217282, 0.0, 0.0009820555710557497, 0.0, 3.4225807225343676e-05, array([[-0.3351806]])]
[6.799999999999984, 1.3227232678705694, 2.5276637077331543, -0.377977579832077, 0.0, -0.00040406601115340894, 0.0, 0.001135829952662095, 0.0, 3.2645070002139444e-05, array([[-0.03162794]])]
[6.849999999999984, 1.134144361029218, 2.507056951522827, 0.08750155568122864, 0.0, -0.000285965438831958, 0.0, 0.0008295863345391791, 0.0, 4.894032011392618e-05, array([[-1.19552794]])]
[6.8999999999999835, 1.5203019365867099, 2.517817258834839, 0.5900846123695374, 0.0, -0.00031964123960333827, 0.0, 0.0006229072683493788, 0.0, 9.650102493519771e-05, array([[-0.18429797]])]
[6.949999999999983, -0.35005989804414817, 2.5933637619018555, 1.6314955949783325, 0.0, -0.00010063180137909796, 0.0, 0.00026009741405366927, 0.0, 5.983543381119318e-05, array([[ -4.18566893e-12]])]
[6.999999999999983, -1.9490908161532186, 2.647254228591919, 1.6340548992156982, 0.0, -0.00011412174905069517, 0.0, 0.00017930675180015802, 0.0, 5.17460950826127e-05, array([[ -2.71472664e-12]])]
[7.049999999999983, -2.2817750413968088, 2.738633155822754, 1.0276027917861938, 0.0, -0.00016737763152534563, 0.0, 0.00040975298085697956, 0.0, -1.214403520904948e-06, array([[ -3.06074531e-05]])]
[7.099999999999983, -1.5871872261539088, 2.7829196453094482, 0.45322924852371216, 0.0, -0.00026573537584322245, 0.0, 0.0007451254584249455, 0.0, -7.646909387383391e-05, array([[-0.00471901]])]
[7.149999999999983, -0.7230604907123388, 2.793113946914673, 0.06947553902864456, 0.0, -0.00028146289997662465, 0.0, 0.0011632852290077592, 0.0, -5.208863345600263e-05, array([[-0.09180552]])]
[7.199999999999982, 0.5528209059373627, 2.790224075317383, -0.4969315528869629, 0.0, -0.00034092088689236476, 0.0, 0.0013829901025293515, 0.0, -6.177015537970049e-05, array([[-0.01444058]])]
[7.249999999999982, 1.0444804888553685, 2.7575740814208984, -0.6144283413887024, 0.0, -0.0004919254160853971, 0.0, 0.0021245784140356307, 0.0, -4.0629046920168705e-06, array([[ -8.29444613e-05]])]
[7.299999999999982, 1.398877288277374, 2.740414619445801, -0.38899287581443787, 0.0, -0.0004264811725559252, 0.0, 0.0019265534484805792, 0.0, 4.3211781966790153e-07, array([[-0.00390217]])]
[7.349999999999982, 0.8230635953915584, 2.7494614124298096, 0.6608068346977234, 0.0, -0.00019261286954714793, 0.0, 0.0008026909480455978, 0.0, -1.0951191868008937e-05, array([[-0.01040697]])]
[7.399999999999982, -0.5442111301844302, 2.777759552001953, 1.0714093446731567, 0.0, -0.00016298644146580733, 0.0, 0.0006823872169498575, 0.0, -3.6802391212492855e-06, array([[ -9.45456542e-06]])]
[7.4499999999999815, -1.249704500136599, 2.85425066947937, 0.9206218719482422, 0.0, -0.0003832363080847327, 0.0, 0.0004482910122526462, 0.0, 5.8329629858259526e-05, array([[ -8.35370616e-05]])]
[7.499999999999981, -1.5524362110747736, 2.8790252208709717, 0.6224358677864075, 0.0, -0.0004524925083301601, 0.0, 0.00040285121123716466, 0.0, 6.843963035583802e-05, array([[-0.00536622]])]
[7.549999999999981, -1.454869152881911, 2.8991189002990723, -0.028371714055538177, 0.0, -0.0008938413228729642, 0.0, 0.0007376721178119797, 0.0, 0.00012737528819929664, array([[-0.02226091]])]
[7.599999999999981, -0.7239778907192577, 2.893162965774536, -0.33547350764274597, 0.0, -0.0009739308716035027, 0.0, 0.0008511852494866197, 0.0, 0.00010014789704461283, array([[-0.00175272]])]
[7.649999999999981, 0.019435302151970542, 2.847273111343384, -0.9885343909263611, 0.0, -0.0014104939080298157, 0.0, 0.0014503930893943258, 0.0, 0.00015601634706474178, array([[ -8.36832236e-09]])]
[7.699999999999981, 0.843424668368341, 2.810335159301758, -1.2940258979797363, 0.0, -0.0015165943937442276, 0.0, 0.0016871435563683309, 0.0, 0.00010990410167219034, array([[ -2.16896915e-12]])]
[7.7499999999999805, 1.0870900029897026, 2.7120590209960938, -1.3103777170181274, 0.0, -0.0013335375317318605, 0.0, 0.0016722751776798925, 0.0, 9.08452182089048e-06, array([[ -3.69611951e-12]])]
[7.79999999999998, 0.7272568407505458, 2.6558046340942383, -0.4894004762172699, 0.0, -0.0007638439780807086, 0.0, 0.0007674701816646135, 0.0, 0.00010380961690521239, array([[ -4.37266485e-07]])]
[7.84999999999998, -0.058470797826243925, 2.6434175968170166, -0.15377981960773468, 0.0, -0.0006828858640881215, 0.0, 0.00047977614212589586, 0.0, 8.590005352395393e-05, array([[-0.10481324]])]
[7.89999999999998, -1.0267712495543255, 2.639596462249756, -0.1567186564207077, 0.0, -0.0006004387892300873, 0.0, 0.00040952444560279276, 0.0, 6.722772069942844e-05, array([[-0.11875233]])]
[7.94999999999998, -1.3706114309810262, 2.608786106109619, -0.7588167786598206, 0.0, -0.00016162197165380904, 0.0, 0.0002644602537284147, 0.0, 1.2201214467820716e-05, array([[ -2.06666377e-05]])]
[7.99999999999998, -0.7891190898247931, 2.5460715293884277, -1.3337702751159668, 0.0, 0.00020413526323228087, 0.0, 0.0004823670664703704, 0.0, -7.337057417007478e-05, array([[ -2.10372020e-08]])]
[8.04999999999998, -0.10559828569318765, 2.485198736190796, -1.7180497646331787, 0.0, 0.00034652161454420114, 0.0, 0.000738427891237755, 0.0, -8.593592908684572e-05, array([[ -2.58554875e-17]])]
[8.09999999999998, 1.0930458376370369, 2.42537260055542, -2.026111602783203, 0.0, 0.0004491742764006402, 0.0, 0.000925743216784904, 0.0, -9.259946363949785e-05, array([[ -9.67081101e-23]])]
[8.14999999999998, 1.7610546709317711, 2.281742811203003, -1.8511103391647339, 0.0, 0.0006605288858367797, 0.0, 0.0013993701442958852, 0.0, -0.00016382630411401815, array([[ -1.06055572e-18]])]
[8.199999999999982, 1.5560832701670004, 2.2298107147216797, -1.3853944540023804, 0.0, 0.0005304995368687437, 0.0, 0.0011580411758853478, 0.0, -0.00015032570041939092, array([[ -6.09346266e-11]])]
[8.249999999999982, 0.9472626840094365, 2.170954704284668, -0.3362281620502472, 0.0, 0.0002455290258223699, 0.0, 0.0005499626699595132, 0.0, -0.0001615235105140417, array([[-0.81487687]])]
[8.299999999999983, 0.8314652577370879, 2.1676981449127197, 0.13048897683620453, 0.0, 0.0002697059027485272, 0.0, 0.00041739030642576634, 0.0, -0.0001851369608760978, array([[-18.38993044]])]
[8.349999999999984, 17.957370372458637, 2.2052464485168457, 0.9190801382064819, 0.0, 0.00012169895639506377, 0.0, -0.00013361261086882614, 0.0, 4.475182173276338e-05, array([[-0.01669274]])]
[8.399999999999984, -1.1852856195187054, 2.2825872898101807, 1.6466692686080933, 0.0, 0.00012979962734365773, 0.0, -0.0001496643854213147, 0.0, 2.266216571762903e-06, array([[ -1.03396707e-06]])]
[8.449999999999985, -1.5480028491060374, 2.344243288040161, 1.4052729606628418, 0.0, 3.380158929232919e-05, 0.0, -4.3303112171685855e-05, 0.0, -3.515120263184329e-05, array([[ -5.04098363e-08]])]
[8.499999999999986, -1.5539319248244636, 2.411289691925049, 0.8449100852012634, 0.0, -0.0001883159367997573, 0.0, 0.0003643620209893616, 0.0, -9.553906385058918e-05, array([[-0.00010302]])]
[8.549999999999986, -0.9719029492900672, 2.4370548725128174, 0.46154293417930603, 0.0, -0.0003543019211179306, 0.0, 0.0007913295818379448, 0.0, -0.0001070245943556194, array([[-0.88395339]])]
[8.599999999999987, 0.4985310822979466, 2.4467592239379883, 0.15420708060264587, 0.0, -0.000380646138489113, 0.0, 0.0010073939360903483, 0.0, -0.00012949827448848397, array([[-2.33471254]])]
[8.649999999999988, 2.3505136838799725, 2.4364795684814453, -0.3497064709663391, 0.0, -0.0006183823935485297, 0.0, 0.0019720483707232985, 0.0, -7.074213277694365e-05, array([[-0.08412882]])]
[8.699999999999989, 0.9379389001548574, 2.426652193069458, -0.15757595002651215, 0.0, -0.0005357483722603689, 0.0, 0.0019683220123208806, 0.0, -5.194644489784844e-05, array([[-0.70809134]])]
[8.74999999999999, 1.259450313273191, 2.449009418487549, 0.8018040657043457, 0.0, -0.0002460746700962577, 0.0, 0.0006883605778235944, 0.0, -6.288350203721393e-05, array([[-0.01938015]])]
[8.79999999999999, -0.7855271890034069, 2.522977828979492, 1.57517409324646, 0.0, -9.495480251186807e-05, 0.0, 0.0002720423021356911, 0.0, -0.00011220782367162765, array([[ -1.37378807e-06]])]
[8.84999999999999, -1.620678818762572, 2.5829598903656006, 1.3355780839920044, 0.0, -0.00013803631376687608, 0.0, 0.00023915290285964912, 0.0, -0.00011558316148823668, array([[ -5.89551531e-08]])]
[8.899999999999991, -2.032634661530504, 2.6215128898620605, 1.041488766670227, 0.0, -0.00011809719019538988, 0.0, 0.00020358718515573436, 0.0, -7.326324238307648e-05, array([[ -6.94311569e-05]])]
[8.949999999999992, -1.7986011633677046, 2.6713144779205322, 0.392813116312027, 0.0, -9.928001836485774e-05, 0.0, 0.0005650194740895319, 0.0, -2.809739504868487e-06, array([[-0.18808457]])]
[8.999999999999993, -0.7145144473405292, 2.679316997528076, 0.08604297786951065, 0.0, -7.771893041266909e-05, 0.0, 0.0006997104519940649, 0.0, 9.666585356550329e-06, array([[-0.29345926]])]
[9.049999999999994, 0.12440627138846017, 2.663717746734619, -0.5666797757148743, 0.0, -0.0003219231064343562, 0.0, 0.0014832881110531217, 0.0, 8.64994815399524e-05, array([[-0.00045641]])]
[9.099999999999994, 1.0001598159541951, 2.6411893367767334, -0.8587005734443665, 0.0, -0.0003434326504637718, 0.0, 0.001715717429225286, 0.0, 0.00011055163864610472, array([[ -1.81424423e-06]])]
[9.149999999999995, 1.496242823926647, 2.5838725566864014, -0.5007463097572327, 0.0, -0.00026078587236602396, 0.0, 0.0014317905963277153, 0.0, 0.00013291308231451704, array([[-0.00281038]])]
[9.199999999999996, 1.1424079030401213, 2.575932264328003, -0.0012728630099445581, 0.0, -0.00017956752731193289, 0.0, 0.0010090852818479363, 0.0, 0.00010620375866097069, array([[-0.53365246]])]
[9.249999999999996, 0.9120798468408979, 2.61307430267334, 1.0589892864227295, 0.0, -7.444454768517069e-05, 0.0, 0.0005369808871853537, 0.0, 0.0001243132121843371, array([[ -4.52946724e-05]])]
[9.299999999999997, -1.1178035356624592, 2.6543376445770264, 1.4888032674789429, 0.0, 8.300268875368751e-07, 0.0, 0.000427364991557355, 0.0, 0.00010292277875847288, array([[ -3.45668658e-10]])]
[9.349999999999998, -1.8105209208641584, 2.7660560607910156, 1.4771114587783813, 0.0, -0.0001354496475870329, 0.0, -0.000299440894334531, 0.0, 0.00010150989244582956, array([[ -1.65848942e-10]])]
[9.399999999999999, -2.0206185278966284, 2.8388888835906982, 0.9153842926025391, 0.0, -0.0003456504440185889, 0.0, -0.0003980862101461722, 0.0, 0.00015483202941077786, array([[ -5.35132783e-07]])]
[9.45, -1.714982111561624, 2.8684792518615723, 0.5323444604873657, 0.0, -0.0005111718962681887, 0.0, -0.0002950145631096982, 0.0, 0.00011370330698668342, array([[-0.01202001]])]
[9.5, -0.5844455686354435, 2.8839492797851562, 0.22555780410766602, 0.0, -0.000757178155641814, 0.0, -2.2588654575841763e-05, 0.0, 6.946655932494766e-05, array([[-0.05005693]])]
[9.55, 0.1605105744619848, 2.8749966621398926, -0.427351713180542, 0.0, -0.0010073003833691628, 0.0, 0.0001869944873248167, 0.0, 7.627591739147127e-05, array([[-0.00052175]])]
[9.600000000000001, 0.6574718766138277, 2.8334715366363525, -0.9256870150566101, 0.0, -0.0012179642639862038, 0.0, 0.0006259339926975089, 0.0, 2.6592805377292846e-05, array([[ -4.04978275e-06]])]
[9.650000000000002, 0.7299307315015399, 2.796292781829834, -0.9070789813995361, 0.0, -0.0010228017293954304, 0.0, 0.0005462506755271579, 0.0, -6.872584199530154e-05, array([[ -1.04964081e-07]])]
[9.700000000000003, 0.6251403826608547, 2.768697738647461, -0.8079058527946472, 0.0, -0.0009269538554324209, 0.0, 0.00037260127165054203, 0.0, -7.586843967262676e-05, array([[ -1.54257164e-06]])]
[9.750000000000004, 0.29018685163342317, 2.722283124923706, -0.6013084053993225, 0.0, -0.00022598586217165934, 0.0, 5.808564320115874e-05, 0.0, -9.110281933999537e-06, array([[-0.00013917]])]
[9.800000000000004, -0.3844002882302214, 2.702279806137085, -0.680440366268158, 0.0, -0.00019676067211904603, 0.0, 1.798002381102257e-05, 0.0, -2.4784114139148642e-05, array([[ -4.28639699e-05]])]
[9.850000000000005, -0.49430781351656466, 2.640413522720337, -1.2043129205703735, 0.0, 7.496882341547196e-05, 0.0, -0.00033184953776378934, 0.0, -5.750074152183593e-05, array([[ -1.97661379e-10]])]
[9.900000000000006, -0.04216151256837209, 2.5295042991638184, -1.8916401863098145, 0.0, 0.0002804012302642251, 0.0, -0.00022624278932479122, 0.0, -0.0001003412204672429, array([[ -1.89353510e-14]])]
[9.950000000000006, 0.7686821224540662, 2.4730892181396484, -2.1607604026794434, 0.0, 0.00038149340043309646, 0.0, -5.7748678918470566e-05, 0.0, -9.071103485577246e-05, array([[ -8.24474518e-26]])]
[10.000000000000007, 1.693411479126662, 2.400479316711426, -2.324699878692627, 0.0, 0.000410876827074073, 0.0, 2.9047775311857448e-05, 0.0, -6.658605423350884e-05, array([[ -4.26960090e-29]])]
[10.050000000000008, 2.0741205170378088, 2.2621166706085205, -1.6220216751098633, 0.0, 0.00027414169190454575, 0.0, 4.1823074653718885e-05, 0.0, -8.142197308361591e-05, array([[ -1.13409824e-14]])]
[10.100000000000009, 1.2705291611887626, 2.218297004699707, -1.1424833536148071, 0.0, 0.0002630851765987539, 0.0, -8.301808232947413e-05, 0.0, -3.0440944274509923e-05, array([[ -8.82921322e-08]])]
[10.15000000000001, 0.8741095326868398, 2.177407741546631, -0.0865350291132927, 0.0, 0.00014847569333234327, 0.0, -0.00012626338415396644, 0.0, -0.00012080223818354983, array([[-6.70415181]])]
[10.20000000000001, 6.412067182592698, 2.1824378967285156, 0.3539545238018036, 0.0, 0.00013865458916305546, 0.0, -0.0001918890596684132, 0.0, -0.00018638666205986044, array([[-11.32197358]])]
[10.25000000000001, 10.255626339255517, 2.2377219200134277, 1.2962195873260498, 0.0, 6.343379935892927e-05, 0.0, -0.0003338406097841342, 0.0, -0.00011962334132659985, array([[ -2.41922353e-06]])]
[10.300000000000011, -2.0858751699314633, 2.476890802383423, 1.5440428256988525, 0.0, -0.00010432927221102465, 0.0, -2.102728615900355e-05, 0.0, -0.00011328963373449504, array([[ -2.38976909e-10]])]
[10.350000000000012, -2.198528156786599, 2.476890802383423, 1.5440428256988525, 0.0, -0.00010432927221102465, 0.0, -2.102728615900355e-05, 0.0, -0.00011328963373449504, array([[ -2.11310805e-10]])]
[10.400000000000013, -2.1985281568142647, 2.5162625312805176, 1.2769147157669067, 0.0, -0.00019653701333750048, 0.0, 0.0003330566209940855, 0.0, -0.00010185951663446398, array([[ -2.38589024e-10]])]
[10.450000000000014, -2.307079210787841, 2.55958890914917, 0.8928805589675903, 0.0, -0.000377968870071187, 0.0, 0.0008687221576365584, 0.0, -0.0001527357817640956, array([[-0.00175198]])]
[10.500000000000014, -1.361272855473442, 2.5832459926605225, 0.5858333706855774, 0.0, -0.0004017275972664607, 0.0, 0.001148728315452606, 0.0, -0.00017438153322892665, array([[-0.10512044]])]
[10.550000000000015, -0.4925000185704109, 2.6009984016418457, -0.06757630407810211, 0.0, -0.0006996607302040029, 0.0, 0.00248134529973352, 0.0, -0.00014930937200683558, array([[-0.26199646]])]
[10.600000000000016, 0.6436768632123004, 2.5798728466033936, -0.6149277687072754, 0.0, -0.0010115512430167492, 0.0, 0.003736225394798083, 0.0, -0.00016921298838454323, array([[-0.01679232]])]
[10.650000000000016, 0.8184911385798697, 2.55448579788208, -0.6267246603965759, 0.0, -0.0010219276963062262, 0.0, 0.0038219050914248, 0.0, -0.00015975096700970718, array([[-0.00042085]])]
[10.700000000000017, 0.7087559717567798, 2.536485195159912, -0.47251617908477783, 0.0, -0.0007541609808209181, 0.0, 0.0032110251352603886, 0.0, -0.00015580565417709283, array([[-0.00713843]])]
[10.750000000000018, 0.3255761922965668, 2.51945161819458, -0.07527679204940796, 0.0, -0.0004957279775023389, 0.0, 0.001292176447689096, 0.0, -6.90196627586167e-05, array([[-0.49885828]])]
[10.800000000000018, -0.015128624612449015, 2.5130910873413086, -0.23904059827327728, 0.0, -0.00022692848928308865, 0.0, 0.0004003804020875954, 0.0, -4.834571603575561e-05, array([[-0.48698126]])]
[10.85000000000002, -0.29363002686023654, 2.4973628520965576, -0.5814116597175598, 0.0, -7.099718815918126e-06, 0.0, 3.7740156371622405e-05, 0.0, -6.397904838868792e-05, array([[-0.00156375]])]
[10.90000000000002, 0.02119762774744899, 2.4460315704345703, -1.1520822048187256, 0.0, 0.0003220449433739301, 0.0, -0.000384644424285771, 0.0, -5.038527224894646e-05, array([[ -4.97873316e-06]])]
[10.95000000000002, 0.8976522172372974, 2.392737627029419, -1.5335379838943481, 0.0, 0.0005083258357043895, 0.0, -0.0005322032146467126, 0.0, -7.254355632934445e-05, array([[ -6.93085262e-14]])]
[11.000000000000021, 1.6907775149308837, 2.282773494720459, -1.223781704902649, 0.0, 0.0005162310257719022, 0.0, -0.0006060414976434927, 0.0, -0.00011808331770570506, array([[ -2.34126391e-15]])]
[11.050000000000022, 1.8347105463035427, 2.254788637161255, -0.8066985011100769, 0.0, 0.0003286100838092615, 0.0, -0.00047724250793500196, 0.0, -6.456308993773913e-05, array([[-0.00018152]])]
[11.100000000000023, 0.6505879542593391, 2.2373812198638916, -0.3089233636856079, 0.0, 0.00028844866015699587, 0.0, -0.0005490497194613634, 0.0, -4.837947757709013e-05, array([[-0.70091454]])]
[11.150000000000023, 0.5339344894933116, 2.2453811168670654, 0.3270547091960907, 0.0, 0.00019296715190487886, 0.0, -0.0002547377336121882, 0.0, -0.00018791522341324912, array([[-7.01841169]])]
[11.200000000000024, 5.870804604068316, 2.257629632949829, 0.3778342604637146, 0.0, 0.00011938583967432891, 0.0, -0.00015186113724999082, 0.0, -0.00027708243843709474, array([[-5.88412381]])]
[11.250000000000025, 4.674089939907277, 2.2936642169952393, 0.8898382782936096, 0.0, 0.0001592593565313865, 0.0, -0.0002802434593518104, 0.0, -0.00037251614920464867, array([[-0.01421384]])]
[11.300000000000026, -1.438732562271531, 2.374124765396118, 1.6870273351669312, 0.0, 0.0001637049408332012, 0.0, -0.00029728814209625695, 0.0, -0.00024287446761630388, array([[ -1.80805594e-07]])]
[11.350000000000026, -1.515974727721393, 2.438354730606079, 1.4459199905395508, 0.0, 0.0001742407948188063, 0.0, -9.22744373544252e-05, 0.0, -0.00019953121417989251, array([[ -6.72577580e-09]])]
[11.400000000000027, -1.1256909964776163, 2.480445384979248, 1.151633858680725, 0.0, 0.00011097945614511167, 0.0, 0.00015905167988551443, 0.0, -0.00019395096564945376, array([[ -1.78619106e-05]])]
[11.450000000000028, -0.551833609975455, 2.53817081451416, 0.5017741322517395, 0.0, -8.227029851321889e-05, 0.0, 0.0011721972750220937, 0.0, -0.0001862530214292657, array([[-0.27662552]])]
[11.500000000000028, 0.5220242008513274, 2.550067901611328, 0.19419708847999573, 0.0, -0.00015657973413866425, 0.0, 0.001549228364425128, 0.0, -0.0001495740475014331, array([[-0.95810723]])]
[11.55000000000003, 1.3148585450135846, 2.549619436264038, -0.14486181735992432, 0.0, -0.00034328870613936353, 0.0, 0.0024016822194796454, 0.0, 6.246971556641264e-06, array([[-0.23357654]])]
[11.60000000000003, 0.7509544800942839, 2.5465891361236572, 0.00793215911835432, 0.0, -0.00031803343285564657, 0.0, 0.0021577004265794543, 0.0, 2.865393880662278e-05, array([[-0.67764511]])]
[11.65000000000003, 0.7404340072483384, 2.576895236968994, 0.7041912078857422, 0.0, -0.00011318387985445168, 0.0, 0.0007452903679379962, 0.0, 3.148366579326705e-05, array([[-0.02532292]])]
[11.700000000000031, -0.9587953492224429, 2.6437978744506836, 0.9592925906181335, 0.0, -8.063686188167426e-05, 0.0, 0.0002365959269888088, 0.0, -7.503092445094078e-05, array([[-0.0014447]])]
[11.750000000000032, -1.523972925169548, 2.6688051223754883, 0.7403016686439514, 0.0, -0.00012743939105764004, 0.0, 8.452390155307838e-05, 0.0, -6.0696843597268514e-05, array([[-0.0071796]])]
[11.800000000000033, -1.5656755586438103, 2.6887099742889404, 0.4434428811073303, 0.0, -0.00019286420784256797, 0.0, 7.940549346318488e-05, 0.0, -9.239355069028509e-05, array([[-0.12970293]])]
[11.850000000000033, -1.1207534234316534, 2.699073076248169, -0.2062598615884781, 0.0, -0.00036463348896033365, 0.0, 0.00038928446367612543, 0.0, -7.846411260970826e-05, array([[-0.03664832]])]
[11.900000000000034, -0.17324318054559984, 2.6714439392089844, -0.7826000452041626, 0.0, -0.0005029349558440395, 0.0, 0.0008448095684518918, 0.0, -0.0001359253079078354, array([[-0.00090723]])]
[11.950000000000035, 0.5071268282317986, 2.6338260173797607, -1.166826605796814, 0.0, -0.0006057041466739558, 0.0, 0.001251509266338585, 0.0, -0.00016424599931139365, array([[ -5.97880939e-10]])]
[12.000000000000036, 1.3101217094268367, 2.593510150909424, -1.3766556978225708, 0.0, -0.0006812948764289534, 0.0, 0.0015849107386386994, 0.0, -0.0001269804860776707, array([[ -1.65429248e-12]])]
[12.050000000000036, 1.6143923166410774, 2.5077617168426514, -0.9559423923492432, 0.0, -0.00032719075430506886, 0.0, 0.0010049716130404666, 0.0, -0.00011210644960532634, array([[ -5.76411788e-07]])]
[12.100000000000037, 1.2678215684904206, 2.4803707599639893, -0.02762872539460659, 0.0, -0.0003470447329714846, 0.0, 0.0004520338835784522, 0.0, -0.00017186899503945075, array([[-0.0119498]])]
[12.150000000000038, 0.715321356012682, 2.493152141571045, 0.5962931513786316, 0.0, -0.00015760860057380103, 0.0, 9.155237493082802e-05, 0.0, -0.00015831078010647044, array([[-0.16991736]])]
[12.200000000000038, -0.5186440382852152, 2.5202369689941406, 0.9833081960678101, 0.0, -3.127643386410007e-05, 0.0, -4.001760389456262e-05, 0.0, -0.00012037076531149243, array([[-0.0004967]])]
[12.250000000000039, -1.4317844088001763, 2.5914366245269775, 0.815933346748352, 0.0, -7.57258132119983e-05, 0.0, -6.950307059298391e-05, 0.0, 3.928349175626445e-05, array([[-0.00459269]])]
[12.30000000000004, -1.5247584845102522, 2.613804817199707, 0.5186690092086792, 0.0, -0.00012433588824791418, 0.0, 4.1791782848665464e-05, 0.0, 7.1141277367536e-05, array([[-0.1433236]])]
[12.35000000000004, -1.1534309047330442, 2.6290926933288574, -0.1324155628681183, 0.0, -0.00034210606363392463, 0.0, 0.0008831326334302035, 0.0, 0.00014382258633877183, array([[-0.12651782]])]
[12.400000000000041, -0.2518341209486237, 2.620819330215454, -0.4398408532142639, 0.0, -0.0004358547605155577, 0.0, 0.0010851971499641058, 0.0, 0.0001933018694993707, array([[-0.00518036]])]
[12.450000000000042, 0.33749641991353874, 2.5729379653930664, -1.0929317474365234, 0.0, -0.0007869394201178513, 0.0, 0.0022561818970978187, 0.0, 0.000280316226194636, array([[ -8.76989490e-09]])]
[12.500000000000043, 1.485836244669373, 2.4971907138824463, -1.4531617164611816, 0.0, -0.0009323894097649889, 0.0, 0.0028745347019079664, 0.0, 0.0004083277238519021, array([[ -7.67051836e-12]])]
[12.550000000000043, 2.015122610710781, 2.449444532394409, -0.9838798642158508, 0.0, -0.0005550249454054028, 0.0, 0.002089961794961278, 0.0, 0.0004179384453853496, array([[ -5.08964173e-07]])]
[12.600000000000044, 1.5600937914406914, 2.42126727104187, -0.05356862396001816, 0.0, -0.0004260598352293052, 0.0, 0.0014186307669093422, 0.0, 0.00038365566185070087, array([[-0.01291991]])]
[12.650000000000045, 0.5815927239441785, 2.433885335922241, 0.5715965032577515, 0.0, -6.898286881007684e-05, 0.0, 0.0006031591869180461, 0.0, 0.0002853133755658364, array([[-0.34219406]])]
[12.700000000000045, -0.3453362636992326, 2.48879075050354, 0.952988862991333, 0.0, -6.156753405666013e-05, 0.0, 4.274995775586349e-05, 0.0, 7.004674443812577e-05, array([[-0.00289294]])]
[12.750000000000046, -1.2747621382831842, 2.5235791206359863, 0.6462823152542114, 0.0, -2.1456358775795852e-05, 0.0, -0.00020882868215594635, 0.0, -6.768559663676931e-05, array([[-0.07706746]])]
[12.800000000000047, -1.0824919730970328, 2.5494682788848877, 0.08049644529819489, 0.0, 0.00011194695457805549, 0.0, -0.00034778739039194794, 0.0, -0.00021775007996674092, array([[-0.73391175]])]
[12.850000000000048, 0.14910125940238184, 2.5479512214660645, -0.3028682470321655, 0.0, 7.044431740094912e-05, 0.0, -0.000280161709268977, 0.0, -0.0002620789638808833, array([[-0.05060775]])]
[12.900000000000048, 0.07256169278744495, 2.5175137519836426, -0.5941669940948486, 0.0, -1.82257048714643e-05, 0.0, -1.5221904981002333e-05, 0.0, -0.0004205410990018038, array([[-0.00094258]])]
[12.950000000000049, 0.6419633763663537, 2.4794743061065674, -1.19516122341156, 0.0, -2.2396583899515246e-05, 0.0, -1.5831398967565102e-05, 0.0, -0.00048662731383786027, array([[ -1.33080842e-09]])]
[13.00000000000005, 1.0815800754436706, 2.4392879009246826, -1.3745061159133911, 0.0, -2.3196566083397215e-05, 0.0, -8.821898568538837e-05, 0.0, -0.0005301220116960372, array([[ -9.32669980e-12]])]
[13.05000000000005, 1.1039498491119728, 2.3645849227905273, -0.7225468158721924, 0.0, 6.991858322512856e-05, 0.0, -0.0002516447194088544, 0.0, -0.0004217301467142948, array([[-0.00035801]])]
[13.100000000000051, 0.23567969833600697, 2.350823163986206, -0.22595733404159546, 0.0, 0.00015532152846150024, 0.0, -0.0003514736013590625, 0.0, -0.0003961233629204429, array([[-0.64878901]])]
[13.150000000000052, 0.3555040369231048, 2.360761880874634, 0.11241034418344498, 0.0, 4.167185137065921e-06, 0.0, -0.0005362609948026089, 0.0, -0.00043824406712265554, array([[-3.50028794]])]
[13.200000000000053, 2.9644391616271615, 2.362729072570801, -0.07297354936599731, 0.0, 5.2690386362530957e-05, 0.0, -0.0005374908055641404, 0.0, -0.00041431769978761087, array([[-1.92065127]])]
[13.250000000000053, 1.5073509560231275, 2.370469331741333, 0.4220665991306305, 0.0, 6.601346047849773e-05, 0.0, -0.00047344872484130954, 0.0, -0.0002043435513616572, array([[-1.71907694]])]
[13.300000000000054, 1.019987391983431, 2.3941214084625244, 0.9112921953201294, 0.0, 2.072069209372769e-06, 0.0, -0.000492489671982412, 0.0, -0.00019556189005063247, array([[-0.00505873]])]
[13.350000000000055, -1.1781464016870964, 2.4961557388305664, 1.9219989776611328, 0.0, 0.00019425325013652084, 0.0, -0.0004430532802005311, 0.0, -0.0002262873179843316, array([[ -8.73568647e-17]])]
[13.400000000000055, -2.1499897894077002, 2.561473846435547, 1.918866515159607, 0.0, 0.00017958814854442028, 0.0, -0.00032875313614098514, 0.0, -0.00018749870491971372, array([[ -6.67671281e-17]])]
[13.450000000000056, -2.0508221279177814, 2.677217721939087, 1.3108893632888794, 0.0, -0.00014532493414214326, 0.0, 0.0005566348035912541, 0.0, -9.25949273073426e-05, array([[ -4.83937340e-08]])]
[13.500000000000057, -1.3754619979650002, 2.7429258823394775, 0.735620379447937, 0.0, -0.0004725185752432542, 0.0, 0.0014098992594369605, 0.0, 1.8548691374102726e-05, array([[ -6.01292762e-05]])]
[13.550000000000058, -1.2120877419051863, 2.7673797607421875, 0.35183000564575195, 0.0, -0.0006858035559580263, 0.0, 0.0022382527404300606, 0.0, -3.010172556733393e-05, array([[-0.08716728]])]
[13.600000000000058, -0.6664944407786522, 2.7755939960479736, -0.2239379584789276, 0.0, -0.0010213835165153262, 0.0, 0.0035091330005443356, 0.0, 5.9068060447961196e-05, array([[-0.09875371]])]
[13.650000000000059, -0.6745856207793174, 2.761932134628296, -0.6077403426170349, 0.0, -0.001211686856095928, 0.0, 0.004445199290594009, 0.0, 0.00010259000042238186, array([[ -7.52737910e-05]])]
[13.70000000000006, -0.3491291186235439, 2.7123732566833496, -1.183886170387268, 0.0, -0.001304542007693471, 0.0, 0.004975517678208345, 0.0, 0.00013398519895778982, array([[ -1.56240109e-07]])]
[13.75000000000006, -0.2620359613359539, 2.659881591796875, -1.5683443546295166, 0.0, -0.0019126058076578355, 0.0, 0.007331209095524084, 0.0, 0.00022260678872583158, array([[ -9.46346825e-16]])]
[13.800000000000061, 0.6216060766950259, 2.6065304279327393, -1.8761764764785767, 0.0, -0.0020276958053233643, 0.0, 0.007856851445843978, 0.0, 0.00021760608445321812, array([[ -9.18394230e-21]])]
[13.850000000000062, 1.0790811294689773, 2.4665491580963135, -2.209995746612549, 0.0, -0.0023935719906623227, 0.0, 0.009411271941045988, 0.0, 0.0002760129213870217, array([[ -7.39450815e-27]])]
[13.900000000000063, 1.6015923246741293, 2.35369610786438, -1.5363065004348755, 0.0, -0.0012397574580889975, 0.0, 0.005517530818657009, 0.0, 0.00032094322480512923, array([[ -8.49829396e-21]])]
[13.950000000000063, 1.3310570478253065, 2.306340217590332, -0.9322596192359924, 0.0, -0.0009176844558000547, 0.0, 0.003722194271391758, 0.0, 0.0003747484172828053, array([[ -6.58089157e-06]])]
[14.000000000000064, 0.5890407657982003, 2.2822136878967285, -0.04050298035144806, 0.0, -0.0005963400005536736, 0.0, 0.001810428708187205, 0.0, 0.00020496830705603024, array([[-0.09165336]])]
[14.050000000000065, 0.12208015467060687, 2.2879841327667236, 0.13300521671772003, 0.0, -0.00027411599256397715, 0.0, 0.0009162690391748462, 0.0, 7.253559216100462e-05, array([[-6.0942855]])]
[14.100000000000065, 5.520743365111225, 2.294167995452881, 0.06609741598367691, 0.0, -0.00015757590493908902, 0.0, 0.0006504766119630905, 0.0, 5.1536493726332796e-05, array([[-5.81307811]])]
[14.150000000000066, 5.133451277487213, 2.3002164363861084, 0.3104200065135956, 0.0, 0.00011799580449714578, 0.0, -0.0001726460802942973, 0.0, 3.7079038436944744e-05, array([[-4.67199574]])]
[14.200000000000067, 3.747375506156083, 2.3197758197784424, 0.7979375123977661, 0.0, 8.979331355841426e-05, 0.0, -0.00019729395788668726, 0.0, 1.1117909419879523e-05, array([[-0.05588206]])]
[14.250000000000068, -1.1394869723189913, 2.4128522872924805, 1.8129686117172241, 0.0, 0.0001327247607112226, 0.0, -0.0003470899865653348, 0.0, 8.797958000393296e-05, array([[ -1.55048249e-14]])]
[14.300000000000068, -2.3179852399602376, 2.4758899211883545, 1.8948935270309448, 0.0, 0.00023131618712890733, 0.0, -0.0003431459739155331, 0.0, 8.25681368381878e-05, array([[ -3.64656277e-16]])]
[14.350000000000069, -2.3119798477366564, 2.589592695236206, 1.2989479303359985, 0.0, 0.00031037530066761716, 0.0, 0.00029757831470319124, 0.0, 3.646105821249523e-05, array([[ -1.39691995e-07]])]
[14.40000000000007, -1.3949272533756334, 2.628085136413574, 0.9925062656402588, 0.0, 0.00031186489691864013, 0.0, 0.00044639009933809115, 0.0, 1.979433214273349e-05, array([[-0.00016239]])]
[14.45000000000007, -0.7200920495021124, 2.678858995437622, 0.3399912714958191, 0.0, 0.00034602281681187386, 0.0, 0.0016690521356330771, 0.0, 4.462726546535329e-05, array([[-0.19794663]])]
[14.500000000000071, 0.6546131514621393, 2.686617374420166, -0.20633633434772491, 0.0, 0.0003675756826299009, 0.0, 0.0027077876760880975, 0.0, 0.00011218690796487784, array([[-0.20807551]])]
[14.550000000000072, 0.9141822238731482, 2.6804280281066895, -0.20570245385169983, 0.0, 0.000345234675969748, 0.0, 0.0028134006791185563, 0.0, 9.160721836908885e-05, array([[-0.04081808]])]
[14.600000000000072, 1.0316555690731837, 2.6785237789154053, 0.017229396849870682, 0.0, 0.00029520355586125515, 0.0, 0.0024789025561497, 0.0, 9.882099673446872e-05, array([[-0.21102962]])]
[14.650000000000073, 0.7484407450364059, 2.7137937545776367, 0.936874270439148, 0.0, 0.00033837276468057443, 0.0, 0.0008842175401585046, 0.0, 7.188353796359879e-05, array([[-0.00019556]])]
[14.700000000000074, -0.8351073831245641, 2.7919774055480957, 1.3929425477981567, 0.0, 8.703412777194674e-05, 0.0, 0.00030868881303985777, 0.0, 4.881948257492884e-05, array([[ -8.22793245e-08]])]
[14.750000000000075, -1.5306169695716798, 2.8456358909606934, 1.107447624206543, 0.0, 3.79092957042676e-05, 0.0, 4.66212159477043e-05, 0.0, 5.032421954034837e-05, array([[ -1.74696314e-06]])]
[14.800000000000075, -1.6608281011065533, 2.8997747898101807, 0.5427623987197876, 0.0, -0.00010279157405264209, 0.0, -9.708836743462412e-05, 0.0, 0.0001084909751778779, array([[-0.00041748]])]
[14.850000000000076, -1.33185785753006, 2.9168524742126465, 0.15935881435871124, 0.0, -0.0002423862506741627, 0.0, -2.1521383000483975e-05, 0.0, 0.00012332428374306703, array([[-0.02813106]])]
[14.900000000000077, -0.5489203586932555, 2.9192512035369873, -0.14779186248779297, 0.0, -0.0003387007762144116, 0.0, 1.819652970173016e-05, 0.0, 0.00012011543351507416, array([[-0.00795397]])]
[14.950000000000077, 0.036381357438004996, 2.8920814990997314, -0.8006722927093506, 0.0, -0.0007104219818957814, 0.0, 0.0006181506055183681, 0.0, 0.00019643763226657012, array([[ -3.83347382e-07]])]
[15.000000000000078, 1.0452929882762176, 2.8314568996429443, -1.3109772205352783, 0.0, -0.0009276360949905193, 0.0, 0.0010668738379292614, 0.0, 0.00023982654838628758, array([[ -2.67188779e-10]])]
[15.050000000000079, 1.184261847554605, 2.7885398864746094, -0.8911652565002441, 0.0, -0.0006917778574250396, 0.0, 0.0007421905213558833, 0.0, 0.00022539754285698594, array([[ -1.42320019e-07]])]
[15.10000000000008, 0.6984609635127307, 2.769770622253418, -0.40201884508132935, 0.0, -0.0004970705670351763, 0.0, 0.00043528607822040466, 0.0, 0.00017834158274376293, array([[-0.0020569]])]
[15.15000000000008, -0.16945174702441876, 2.7753820419311523, 0.2825051546096802, 0.0, -0.00015640678026312824, 0.0, -9.036740391921319e-05, 0.0, 3.836069821723224e-05, array([[-0.09729204]])]
[15.200000000000081, -1.12177399663727, 2.7870936393737793, 0.2558344006538391, 0.0, -8.739875896382269e-05, 0.0, -0.00016375601526680478, 0.0, 1.1386804849098473e-05, array([[-0.10484445]])]
[15.250000000000082, -1.2919701150205187, 2.7921993732452393, -0.34755054116249084, 0.0, 0.00020899115156386417, 0.0, -0.0002828907000487505, 0.0, 0.00011941460472070113, array([[-0.00298234]])]
[15.300000000000082, -0.9457823271415422, 2.7599730491638184, -0.9213292002677917, 0.0, 0.0003621657996727859, 0.0, -7.069286529361979e-05, 0.0, 0.00014522523480817585, array([[ -2.94042761e-05]])]
[15.350000000000083, -0.5475340968547298, 2.7192258834838867, -1.3054279088974, 0.0, 0.0004023705703228058, 0.0, 0.0002656483577451913, 0.0, 0.00016248739427917507, array([[ -3.38076078e-12]])]
[15.400000000000084, 0.47025217993522994, 2.628929853439331, -1.8640408515930176, 0.0, 0.0004254943680433827, 0.0, 0.000965178320491342, 0.0, 0.00015471570750294204, array([[ -1.60184344e-16]])]
[15.450000000000085, 1.1647203804180026, 2.553884983062744, -2.039717197418213, 0.0, 0.0003643752530150899, 0.0, 0.0012017974136656077, 0.0, 9.825253627790752e-05, array([[ -1.04973431e-23]])]
[15.500000000000085, 1.6105772225931285, 2.4475207328796387, -1.4910682439804077, 0.0, 0.0002414032312400325, 0.0, 0.0006667365330066885, 0.0, 0.00015341071984872865, array([[ -3.44409729e-20]])]
