time, uz, alt, vel_alt, uthe, roll, uphi, pitch, upsi, yaw, F
[0.0, 0.0, 0.019509995356202126, 0.03812159225344658, 0.0, -0.013667871224292076, 0.0, 0.02391631992350621, 0.0, -0.08494753299744123, array([[-6.09101207]])]
[0.05, 6.0926841576378115, 0.019509995356202126, 0.03812159225344658, 0.0, -0.013667871224292076, 0.0, 0.02391631992350621, 0.0, -0.08494753299744123, array([[-11.11235637]])]
[0.1, 11.112958967383557, 0.020783374086022377, 0.09503599256277084, 0.0, -0.013606414053794643, 0.0, 0.023895072844436312, 0.0, -0.08491093655926094, array([[-17.47258684]])]
[0.15000000000000002, 17.472655244263304, 0.027056731283664703, 0.4171673655509949, 0.0, -0.012043104677410344, 0.0, 0.019951715735410897, 0.0, -0.08287908586599292, array([[ 53.35681267]])]
[0.2, -53.5815765325792, 0.09031009674072266, 1.290684700012207, 0.0, -0.008355173782597813, 0.0, 0.010993902802523103, 0.0, -0.0713336315817181, array([[ 0.30332004]])]
[0.25, -0.8397480878167563, 0.12286092340946198, 1.1218678951263428, 0.0, -0.006746578633289316, 0.0, 0.008723418139501055, 0.0, -0.06323563840390198, array([[ 0.00182702]])]
[0.3, -0.7596042251141697, 0.17671211063861847, 0.4554049074649811, 0.0, -0.004186388499347092, 0.0, 0.004840608049738735, 0.0, -0.049694069773516515, array([[ 126.14894191]])]
[0.35, -126.44096736580222, 0.18452885746955872, 0.18776793777942657, 0.0, -0.002511536726872422, 0.0, 0.002327422056712852, 0.0, -0.040654391369397413, array([[-784.40569311]])]
[0.39999999999999997, 784.9079272871679, 0.17056889832019806, -0.4448663592338562, 0.0, 2.3327767281732046e-05, 0.0, -0.0014511619352367273, 0.0, -0.027272069957129084, array([[-173.48656778]])]
[0.44999999999999996, 174.26822633469507, 0.15957039594650269, -0.19935588538646698, 0.0, 0.001542407856064084, 0.0, -0.0029026295007021207, 0.0, -0.019089512918289024, array([[-1988.31192126]])]
[0.49999999999999994, 1989.0781702155748, 0.18119390308856964, 0.8922356367111206, 0.0, 0.0019228052252349183, 0.0, -0.0012858630084353101, 0.0, -0.01213210849638499, array([[-3175.71442847]])]
[0.5499999999999999, 3176.03349947795, 0.21108265221118927, 1.3222975730895996, 0.0, 0.0016695534103683236, 0.0, -0.0012863969795994308, 0.0, -0.009910770795700354, array([[-0.00020407]])]
[0.6, -0.5138564320844957, 0.33997634053230286, 2.1680305004119873, 0.0, 0.0012993432627911835, 0.0, -0.00039519398079758855, 0.0, -0.00836525217251645, array([[ -1.55960583e-18]])]
[0.65, -1.077535936180502, 0.3962520658969879, 1.9749187231063843, 0.0, 0.001029167311004198, 0.0, -7.376003209994755e-05, 0.0, -0.00737811432341066, array([[ -1.45301228e-14]])]
[0.7000000000000001, -1.2503362663648878, 0.5105003118515015, 1.3021405935287476, 0.0, 0.0007262976886018371, 0.0, 0.0003255929930400386, 0.0, -0.006154343417921734, array([[-0.00053653]])]
[0.7500000000000001, -0.7648293858372919, 0.5416077971458435, 1.0335694551467896, 0.0, 0.0005402706671409068, 0.0, 0.0006695191481068624, 0.0, -0.00522493857597785, array([[-0.3892021]])]
[0.8000000000000002, 0.26423029564230927, 0.5878944993019104, 0.351070761680603, 0.0, 0.00018976674184940234, 0.0, 0.0012806968663519565, 0.0, -0.0039017525991226973, array([[-85.84392081]])]
[0.8500000000000002, 86.13495022319266, 0.5934730768203735, 0.14078155159950256, 0.0, -4.852045257583197e-05, 0.0, 0.001622586019551493, 0.0, -0.0030302312603382696, array([[-7703.2247659]])]
[0.9000000000000002, 7704.066041755031, 0.6082115173339844, 0.6782653331756592, 0.0, -8.763079888517537e-05, 0.0, 0.0012933089139450648, 0.0, -0.001997228031696389, array([[-12162.65321466]])]
[0.9500000000000003, 12163.420163876366, 0.6321216821670532, 1.1209614276885986, 0.0, -1.3488737894698832e-05, 0.0, 0.000937385111972377, 0.0, -0.0016531746566098157, array([[-0.20233723]])]
[1.0000000000000002, 0.14764404468910625, 0.7490473985671997, 2.0753793716430664, 0.0, -0.00010739578766167503, 0.0, 0.0008547339263708867, 0.0, -0.0012964831260595649, array([[ -5.91911222e-16]])]
[1.0500000000000003, -0.676518415100872, 0.8047922253608704, 1.9579144716262817, 0.0, -0.0001348456088601925, 0.0, 0.0006701837683547328, 0.0, -0.0011732449441195594, array([[ -1.33440654e-13]])]
[1.1000000000000003, -1.1808076324731638, 0.9216023087501526, 1.3284311294555664, 0.0, -0.00012204125504959067, 0.0, 0.00039606623864681665, 0.0, -0.0009165496033423272, array([[ -3.77146107e-09]])]
[1.1500000000000004, -0.8175456205200632, 0.9540079832077026, 1.061159372329712, 0.0, -0.00015228819839404342, 0.0, 0.00024264842988117898, 0.0, -0.0007203923921707605, array([[-0.68444321]])]
[1.2000000000000004, 0.6003834258724363, 1.0034403800964355, 0.396697998046875, 0.0, -0.0002127360414159299, 0.0, 7.06471155647037e-05, 0.0, -0.0004938842630431307, array([[-151.85265387]])]
[1.2500000000000004, 151.95381843020775, 1.0127360820770264, 0.3486771881580353, 0.0, -0.00019119819802886447, 0.0, 2.7033838253215054e-05, 0.0, -0.0003374302419407863, array([[-6888.22723438]])]
[1.3000000000000005, 6888.589592068508, 1.0557408332824707, 1.10361647605896, 0.0, -0.00020234022237029114, 0.0, 0.00015874035312147953, 0.0, -0.00016548458251358273, array([[-881.55226705]])]
[1.3500000000000005, 881.7069095627986, 1.0923417806625366, 1.5363532304763794, 0.0, -0.0001831988477434063, 0.0, 0.00016181466876192437, 0.0, -0.00015587386370684666, array([[ -1.21536256e-06]])]
[1.4000000000000006, -0.6707092912070369, 1.239813208580017, 2.4434709548950195, 0.0, -4.714710209575244e-05, 0.0, 0.00035166609502605185, 0.0, -0.00012282420335089054, array([[ -5.95766297e-15]])]
[1.4500000000000006, -1.2535445388127056, 1.3060386180877686, 2.2721893787384033, 0.0, -2.538869534099264e-05, 0.0, 0.00045819916432631304, 0.0, -0.0001030970053254492, array([[ -1.65502070e-20]])]
[1.5000000000000007, -1.7986488872626794, 1.4455183744430542, 1.6047812700271606, 0.0, -0.0001999548196763926, 0.0, 0.0007885560247621658, 0.0, -9.440349028052401e-05, array([[ -3.97895881e-08]])]
[1.5500000000000007, -1.3120497413410386, 1.4863313436508179, 1.3369925022125244, 0.0, -0.00030339105119021545, 0.0, 0.0010176913768581517, 0.0, -0.00015483333517452667, array([[-0.00017562]])]
[1.6000000000000008, -0.5252244536092577, 1.5571203231811523, 0.6465098857879639, 0.0, -0.00045507944560072456, 0.0, 0.0013742962409560068, 0.0, -0.00019578983435078243, array([[-119.20665521]])]
[1.6500000000000008, 118.91934589303985, 1.5713139772415161, 0.3777061402797699, 0.0, -0.0005159384323869421, 0.0, 0.0016439583790626797, 0.0, -0.00020567930635585562, array([[-1024.59076365]])]
[1.7000000000000008, 1024.8937054685866, 1.5949342250823975, 0.6826174855232239, 0.0, -0.0004359365509798455, 0.0, 0.0018021558612531523, 0.0, 0.00042933663635786896, array([[-1500.12475159]])]
[1.7500000000000009, 1500.6402940319233, 1.6200767755508423, 1.1219452619552612, 0.0, -0.00031490466689157757, 0.0, 0.0013079323651774544, 0.0, 0.0007205896599826794, array([[-0.02619338]])]
[1.800000000000001, -0.14473205896609972, 1.7381641864776611, 1.9840449094772339, 0.0, -0.0003373943723403408, 0.0, 0.0010262804226612591, 0.0, 0.0010334363692932524, array([[ -3.10332504e-15]])]
[1.850000000000001, -0.9816110158618507, 1.7909282445907593, 1.7921311855316162, 0.0, -0.00024078496744775387, 0.0, 0.0008810033763126091, 0.0, 0.0013130213118657922, array([[ -8.06831229e-12]])]
[1.900000000000001, -1.10949853052044, 1.8953533172607422, 1.1209758520126343, 0.0, -0.0001952629894318405, 0.0, 0.0008121273856262495, 0.0, 0.0016756796091298052, array([[ -2.29701113e-06]])]
[1.950000000000001, -0.6729194970317974, 1.9227242469787598, 0.853032648563385, 0.0, -0.00014231900063259843, 0.0, 0.0008353647484994808, 0.0, 0.0020069738576527756, array([[-1.14157635]])]
[2.000000000000001, 0.9044084400815491, 1.9592519998550415, 0.21385733783245087, 0.0, 3.0870775654123275e-06, 0.0, 0.0010578548256859996, 0.0, 0.002278966807093969, array([[-84.23961599]])]
[2.0500000000000007, 84.19276822840257, 1.967127799987793, 0.39868876338005066, 0.0, 8.066430259184385e-05, 0.0, 0.0010651128821125727, 0.0, 0.0023092696507687333, array([[-119.78551928]])]
[2.1000000000000005, 119.40513033948965, 2.0308005809783936, 1.432865023612976, 0.0, -8.002325453424777e-05, 0.0, 0.0008360886542730725, 0.0, 0.0020420661810235372, array([[ -6.60660247e-07]])]
[2.1500000000000004, -0.849445372537208, 2.0766422748565674, 1.8557891845703125, 0.0, -9.654637932510805e-05, 0.0, 0.0006994470683644443, 0.0, 0.001730600383146304, array([[ -1.18497216e-13]])]
[2.2, -1.5418536699375813, 2.2235987186431885, 1.8965623378753662, 0.0, 0.00014896471840211657, 0.0, 0.0005857378484005458, 0.0, 0.0012512150938914352, array([[ -4.74997223e-20]])]
[2.25, -1.5513228229433296, 2.2722575664520264, 1.6367162466049194, 0.0, 0.00035581570999799485, 0.0, 0.0006030242314441502, 0.0, 0.0007013465610968454, array([[ -1.52415588e-10]])]
[2.3, -0.6069197933900589, 2.3634400367736816, 0.9492781162261963, 0.0, 0.0005140576095239728, 0.0, 0.0007953095742353356, 0.0, 0.0001439251791761737, array([[ -1.88093833e-06]])]
[2.3499999999999996, -0.43027784540117336, 2.3855416774749756, 0.6805941462516785, 0.0, 0.0006100494866950503, 0.0, 0.0009980933335502836, 0.0, -0.00026193328438002317, array([[-0.61474706]])]
[2.3999999999999995, 0.5126134782458753, 2.408273696899414, 0.02617618441581726, 0.0, 0.0007072044586266342, 0.0, 0.0014194629171416049, 0.0, -0.0006912123698904192, array([[-6.78373359]])]
[2.4499999999999993, 6.7009836614792375, 2.4070050716400146, -0.06043980270624161, 0.0, 0.0006795968938663701, 0.0, 0.001572463509900518, 0.0, -0.0009186887449200892, array([[-4.81912034]])]
[2.499999999999999, 4.737671779659654, 2.4198169708251953, 0.7032567262649536, 0.0, 0.0003922714393741007, 0.0, 0.0011122967936766336, 0.0, -0.0010267321799595638, array([[-9.03224421]])]
[2.549999999999999, 8.577184367362227, 2.4448983669281006, 1.1446136236190796, 0.0, 0.00021168023509319253, 0.0, 0.0009549938991190595, 0.0, -0.0008796723828515663, array([[ -9.76944519e-05]])]
[2.5999999999999988, -1.7159382212916785, 2.5645711421966553, 2.1323118209838867, 0.0, -4.210037822982017e-06, 0.0, 0.0007839459626002338, 0.0, -0.000698290678787653, array([[ -1.35272815e-20]])]
[2.6499999999999986, -2.187725119143724, 2.621988534927368, 1.9917917251586914, 0.0, 8.304140836899871e-05, 0.0, 0.000763600536769167, 0.0, -0.0007126715752299325, array([[ -5.95831291e-18]])]
[2.6999999999999984, -2.156747645922005, 2.7402520179748535, 1.3298789262771606, 0.0, 0.00011402692143949217, 0.0, 0.0009105629379727994, 0.0, -0.0006592091608220399, array([[ -4.13449673e-13]])]
[2.7499999999999982, -1.5255094726100153, 2.773000955581665, 1.0615900754928589, 0.0, 7.605392490472065e-05, 0.0, 0.001111370561326173, 0.0, -0.0005363185962374785, array([[ -3.99065395e-05]])]
[2.799999999999998, -0.49782713669299966, 2.8227951526641846, 0.37000036239624023, 0.0, 9.244480055660431e-05, 0.0, 0.0014467541954496829, 0.0, -0.0003342420170736196, array([[-0.0069801]])]
[2.849999999999998, -0.20878160322947087, 2.8286631107330322, 0.10103326290845871, 0.0, 0.00010061911410716976, 0.0, 0.001747033580087225, 0.0, -0.00027538400521404636, array([[-0.2472903]])]
[2.8999999999999977, 0.35681725998986047, 2.8100152015686035, -0.5688929557800293, 0.0, 2.4832206991512796e-05, 0.0, 0.0022571406923241155, 0.0, -0.00022301323191486612, array([[-0.039425]])]
[2.9499999999999975, 0.2599426545808291, 2.791154146194458, -0.7396566867828369, 0.0, -8.981310277714506e-06, 0.0, 0.0024776514786222677, 0.0, -0.0001986072298773031, array([[ -1.24486169e-05]])]
[2.9999999999999973, 0.33170957618453395, 2.721205949783325, -1.1883989572525024, 0.0, -0.0001276507980985293, 0.0, 0.002008038514162103, 0.0, -8.341038005851349e-05, array([[ -1.97347600e-07]])]
[3.049999999999997, 0.289662146289248, 2.6850130558013916, -1.3572255373001099, 0.0, -0.00018784842112816333, 0.0, 0.0015262208245309559, 0.0, 2.3854624789907926e-06, array([[ -1.36115605e-12]])]
[3.099999999999997, 0.4640142251751026, 2.569797992706299, -1.7936038970947266, 0.0, -7.244399744674382e-05, 0.0, 0.0010145322105788287, 0.0, 0.00022755625566834786, array([[ -4.10109982e-19]])]
[3.149999999999997, 0.5141774501744657, 2.5173449516296387, -1.897905945777893, 0.0, -7.896807237595433e-05, 0.0, 0.0006706429252875791, 0.0, 0.00028825796706102673, array([[ -8.79928502e-21]])]
[3.1999999999999966, 1.0632669599540532, 2.3723955154418945, -2.0199739933013916, 0.0, -6.252182360438114e-05, 0.0, 0.0004474559646964021, 0.0, 0.00027899815222524063, array([[ -2.80187506e-22]])]
[3.2499999999999964, 1.3452874253969638, 2.3191709518432617, -1.6962846517562866, 0.0, -0.00021137515038438206, 0.0, 0.00038716897861812443, 0.0, 0.0003093169519458914, array([[ -3.36634138e-16]])]
[3.2999999999999963, 1.1404206641856582, 2.2343497276306152, -0.5969743132591248, 0.0, -0.00012093297565227989, 0.0, 0.00033634030383832974, 0.0, 0.0004462304949479408, array([[ -2.32635161e-07]])]
[3.349999999999996, 0.5010115224310213, 2.2232885360717773, -0.14688615500926971, 0.0, -0.00021544182725628702, 0.0, 0.0004409945313970608, 0.0, 0.0003901480044607572, array([[-10.49626272]])]
[3.399999999999996, 9.664588323645134, 2.236022472381592, 0.4429357349872589, 0.0, 1.790098102906384e-05, 0.0, 0.0003645616279746661, 0.0, 0.00021571082744788073, array([[-36.50068548]])]
[3.4499999999999957, 35.06546130765941, 2.252624034881592, 0.8482150435447693, 0.0, -7.55979977595594e-06, 0.0, 0.00036182986180405903, 0.0, 0.00024048854274312805, array([[-0.14984724]])]
[3.4999999999999956, -2.229320620066311, 2.350533962249756, 1.896071195602417, 0.0, -4.096685258867039e-05, 0.0, 0.00043957546102195314, 0.0, 0.00024132384334909815, array([[ -1.82556418e-06]])]
[3.5499999999999954, -2.892841380457758, 2.4017906188964844, 1.797102451324463, 0.0, -3.0061629076874254e-05, 0.0, 0.00047252137943434456, 0.0, 0.00017203632850887037, array([[ -1.33402394e-13]])]
[3.599999999999995, -2.9247233007334703, 2.4650607109069824, 1.4456586837768555, 0.0, -9.630912817333272e-05, 0.0, 0.0005583932920361539, 0.0, 0.00018449200845168423, array([[ -2.11634135e-08]])]
[3.649999999999995, -2.2382627601790777, 2.531843423843384, 0.8742701411247253, 0.0, -0.00028046519934870923, 0.0, 0.0011415337308160625, 0.0, 0.00020020606565277464, array([[-0.01166844]])]
[3.699999999999995, -0.9518096667629091, 2.5670390129089355, 0.18378065526485443, 0.0, -0.00036864958556305857, 0.0, 0.0017340354204016094, 0.0, 0.00017425268949197, array([[-0.96846188]])]
[3.7499999999999947, 0.7290132338679085, 2.567220449447632, -0.08540291339159012, 0.0, -0.00040591720430048966, 0.0, 0.002113341167603872, 0.0, 0.00013132220176197468, array([[-1.10911922]])]
[3.7999999999999945, 2.0386413264422187, 2.547691583633423, -0.0838465765118599, 0.0, -0.00042202940429554196, 0.0, 0.0024352761395838936, 0.0, 0.00021468808620952944, array([[-1.28597096]])]
[3.8499999999999943, 2.751893966501095, 2.5492184162139893, 0.32631176710128784, 0.0, -0.00037106423181227716, 0.0, 0.001682278071006483, 0.0, 0.000144841680755737, array([[-2.57120483]])]
[3.899999999999994, 3.2586877446564264, 2.610572099685669, 1.4516125917434692, 0.0, -0.00016126464705205933, 0.0, 0.0011500845294743188, 0.0, 8.790990197770887e-05, array([[ -5.35681822e-09]])]
[3.949999999999994, -0.15478869993068303, 2.6561279296875, 1.870993971824646, 0.0, -0.0002298269468160838, 0.0, 0.0008726933363625072, 0.0, 0.0001047610854034269, array([[ -8.25535057e-16]])]
[3.999999999999994, -1.6638448721310113, 2.8032100200653076, 1.9069054126739502, 0.0, -0.00028891021079304, 0.0, 0.0005133209340831548, 0.0, 0.0001705362934462524, array([[ -9.92659873e-17]])]
[4.049999999999994, -2.237371880044229, 2.8522398471832275, 1.6477667093276978, 0.0, -0.00027803102175704537, 0.0, 0.00034280142008969214, 0.0, 0.00017747487378426432, array([[ -8.47760296e-13]])]
[4.099999999999993, -1.866106225360734, 2.9444029331207275, 0.9590340852737427, 0.0, -0.0003083653695419482, 0.0, 0.000321149991564707, 0.0, 0.00017873741066248784, array([[ -6.12336849e-05]])]
[4.149999999999993, -1.3909377046921085, 2.9666988849639893, 0.6896907091140747, 0.0, -0.0002523002941531636, 0.0, 0.00039668326848611165, 0.0, 0.0002173433966673502, array([[-0.00341614]])]
[4.199999999999993, -0.38083868290417916, 2.9890670776367188, -0.0016224338905885816, 0.0, -0.0002871332301022368, 0.0, 0.0006636873770252426, 0.0, 0.00014328830353095787, array([[-0.03822564]])]
[4.249999999999993, 0.326556833687895, 2.984093189239502, -0.27069222927093506, 0.0, -0.00030543386042189717, 0.0, 0.000956624197411174, 0.0, 0.00010395662917399718, array([[-0.00436168]])]
[4.299999999999993, 0.9700078017531515, 2.9412317276000977, -0.737334132194519, 0.0, -0.0003917026336400597, 0.0, 0.0011964739846630176, 0.0, 9.459445512484494e-06, array([[ -8.39627297e-05]])]
[4.3499999999999925, 0.9901453904558354, 2.922970771789551, -0.4498135447502136, 0.0, -0.0003381171520475622, 0.0, 0.001010315833929784, 0.0, -0.00012450402336806708, array([[-0.00073874]])]
[4.399999999999992, 0.45969904844449816, 2.926400661468506, 0.5821931958198547, 0.0, -0.00018024245464976868, 0.0, 0.0006086292304062937, 0.0, -0.0003049451682492582, array([[-0.11206896]])]
[4.449999999999992, -0.2490508759025311, 2.9432804584503174, 0.6506462693214417, 0.0, -0.00024472996149760447, 0.0, 0.0003425678071477992, 0.0, -0.0003873714415807748, array([[-0.00681227]])]
[4.499999999999992, -1.3430948824897786, 2.9754996299743652, 0.1865186095237732, 0.0, -0.0003904316933690095, 0.0, 0.00037590241976936077, 0.0, -0.00036616089502397575, array([[-0.01702084]])]
[4.549999999999992, -1.3518511131487863, 2.9763660430908203, -0.07904215157032013, 0.0, -0.0004872463179152879, 0.0, 0.0005436600131325535, 0.0, -0.00038729341670443293, array([[-0.0262347]])]
[4.599999999999992, -0.3832752942926777, 2.9443957805633545, -0.7691840529441833, 0.0, -0.0005809393182443827, 0.0, 0.00091086512425811, 0.0, -0.00036213746802220775, array([[-0.00117529]])]
[4.6499999999999915, 0.26133291022412997, 2.9182984828948975, -1.0384199619293213, 0.0, -0.00075116053203391, 0.0, 0.001230108385961197, 0.0, -0.0003576987851463072, array([[ -1.94872528e-09]])]
[4.699999999999991, 1.2560744522956573, 2.8200652599334717, -1.5525717735290527, 0.0, -0.0008554952497217868, 0.0, 0.001638584576646908, 0.0, -0.00035709480440452505, array([[ -6.12410130e-14]])]
[4.749999999999991, 1.4852616071713303, 2.7793798446655273, -1.2660834789276123, 0.0, -0.0007260631414872919, 0.0, 0.0014612651052803563, 0.0, -0.0003663652560899432, array([[ -9.50317998e-12]])]
[4.799999999999991, 0.9444151229256103, 2.726341485977173, -0.15843525528907776, 0.0, -0.0003929385930617206, 0.0, 0.0008311093898630779, 0.0, -0.00038605986679870395, array([[-0.15309498]])]
[4.849999999999991, 0.3971217351755518, 2.7272188663482666, 0.246921569108963, 0.0, -0.0004915175645681651, 0.0, 0.0006521316499905545, 0.0, -0.00028507296597174073, array([[-0.66459554]])]
[4.899999999999991, -0.6178691887178551, 2.764191150665283, 0.5341760516166687, 0.0, -0.00024955038607454085, 0.0, 0.0005043084952671313, 0.0, -0.00016426704943141632, array([[-0.08086792]])]
[4.94999999999999, -1.7833146182144433, 2.775620460510254, 0.3093436062335968, 0.0, 2.534381383853739e-05, 0.0, 0.00044420477594733055, 0.0, -0.00012019718494402596, array([[-0.37509497]])]
[4.99999999999999, -1.2726847268471742, 2.7719459533691406, -0.3694755434989929, 0.0, 0.0004211957818804678, 0.0, 0.0004258501497318537, 0.0, -4.778913757272457e-05, array([[-0.27939841]])]
[5.04999999999999, -0.6018725807665635, 2.7566702365875244, -0.6379310488700867, 0.0, 0.0007723264091403267, 0.0, 0.0004983844650935046, 0.0, 5.633206565035639e-05, array([[-0.00014068]])]
[5.09999999999999, 0.48742285180483047, 2.683358669281006, -1.2970480918884277, 0.0, 0.00101649805319484, 0.0, 0.0007401411633632128, 0.0, 0.00015952270527021064, array([[ -1.67459518e-07]])]
[5.14999999999999, 0.8213665788267163, 2.644300937652588, -1.4060012102127075, 0.0, 0.001110772474035481, 0.0, 0.0009087808376370001, 0.0, 0.0002565890437504074, array([[ -4.09979879e-13]])]
[5.1999999999999895, 1.3855517410199996, 2.550128221511841, -1.0346689224243164, 0.0, 0.0006385456317402154, 0.0, 0.0006268814717884282, 0.0, 0.0002549357230804319, array([[ -9.30932724e-08]])]
[5.249999999999989, 1.243381098192781, 2.5249502658843994, -0.6874203681945801, 0.0, 0.00039889184874032006, 0.0, 0.000585183771903547, 0.0, 0.00017645912925360927, array([[-0.00044947]])]
[5.299999999999989, 0.6491565625530786, 2.5144810676574707, 0.3863030672073364, 0.0, 0.00018636978882018165, 0.0, 0.0002550313205107625, 0.0, 0.00020738626254604003, array([[-2.02215358]])]
[5.349999999999989, 1.728382157790473, 2.527453660964966, 0.5535417199134827, 0.0, 6.146464599625901e-05, 0.0, 0.00030248171216537654, 0.0, 0.00024901287994290777, array([[-0.75737298]])]
[5.399999999999989, -0.4920690527222391, 2.5884463787078857, 1.2028493881225586, 0.0, -6.952261809284027e-06, 0.0, 0.00028091537901430076, 0.0, 0.0002710032509836627, array([[-0.04381201]])]
[5.449999999999989, -1.4712972878597022, 2.619750499725342, 1.0348076820373535, 0.0, 1.8062060905349168e-06, 0.0, 0.0003195689815800371, 0.0, 0.00014742996073707768, array([[-0.00026822]])]
[5.4999999999999885, -1.6742307432726329, 2.6695826053619385, 0.36899229884147644, 0.0, -2.6489353520758057e-06, 0.0, 0.0005557704403572714, 0.0, -3.2369516307655234e-05, array([[-0.7577815]])]
[5.549999999999988, -0.5220290378109963, 2.6756591796875, 0.100892573595047, 0.0, 8.114594131979296e-06, 0.0, 0.0008260577636142107, 0.0, -0.00019808683918191936, array([[-0.98582717]])]
[5.599999999999988, 0.788760200362947, 2.6572489738464355, -0.5488668084144592, 0.0, -0.00015267800482172443, 0.0, 0.0012696335560615254, 0.0, -0.0003529504001701991, array([[-0.00179846]])]
[5.649999999999988, 0.4317244762999738, 2.642059564590454, -0.46901607513427734, 0.0, -0.00018738265665770035, 0.0, 0.0014689374838298688, 0.0, -0.00042447220573828525, array([[-0.00790915]])]
[5.699999999999988, 0.6888845666014511, 2.6150872707366943, -0.3671962320804596, 0.0, -0.00013046396810688894, 0.0, 0.0006865599835395585, 0.0, -0.0005772880653856237, array([[-0.05582217]])]
[5.749999999999988, 0.34642353581061097, 2.605624198913574, -0.2907659709453583, 0.0, -0.00010101406239947421, 0.0, 0.00033206593769790087, 0.0, -0.0005612442013098951, array([[-0.12253121]])]
[5.799999999999987, 0.047188460374728985, 2.582944393157959, -0.45413705706596375, 0.0, 4.271244989133374e-05, 0.0, 0.00015530491180368577, 0.0, -0.0005713393559232641, array([[-0.15923441]])]
[5.849999999999987, -0.14494968679888548, 2.567006826400757, -0.6828378438949585, 0.0, 9.248000046797481e-06, 0.0, 0.00011692381102723459, 0.0, -0.0005748824670389054, array([[-0.00033757]])]
[5.899999999999987, 0.14174165988814127, 2.4934065341949463, -1.3513247966766357, 0.0, -0.00010500311126901944, 0.0, 9.263354707846066e-05, 0.0, -0.0005625809921193681, array([[ -1.26758587e-11]])]
[5.949999999999987, 0.6458850738358316, 2.452009677886963, -1.5957049131393433, 0.0, -0.00012083903323208703, 0.0, 0.00012648203013079545, 0.0, -0.0005900635141143549, array([[ -3.81966373e-15]])]
[5.999999999999987, 1.4764781643729694, 2.3245201110839844, -1.687058448791504, 0.0, -0.00013271911871846518, 0.0, 0.00020368753474591354, 0.0, -0.0005025725362826029, array([[ -1.01389948e-18]])]
[6.0499999999999865, 1.726061144378036, 2.2823004722595215, -1.3055715560913086, 0.0, -0.00015523855962750098, 0.0, 0.00012984835579960832, 0.0, -0.0004061371123554569, array([[ -4.59513381e-10]])]
[6.099999999999986, 1.1384967559735741, 2.228008508682251, -0.18657976388931274, 0.0, -0.0001382142287692146, 0.0, 0.00023623654013948432, 0.0, -0.0004391022123786463, array([[-0.00029964]])]
[6.149999999999986, 0.34661030484978667, 2.2290120124816895, 0.2603064179420471, 0.0, -7.660824745267023e-06, 0.0, 6.271559954751993e-05, 0.0, -0.000357995558693235, array([[-34.95103536]])]
[6.199999999999986, 33.827691402917345, 2.2676122188568115, 0.6323671340942383, 0.0, -0.00026128847030207033, 0.0, 0.0001821508357373628, 0.0, -0.00028291344711706465, array([[-4.00536131]])]
[6.249999999999986, 2.248738982068518, 2.289595127105713, 0.9933933615684509, 0.0, -0.00022436208935197848, 0.0, 0.0001578502031841379, 0.0, -0.00021007760360192718, array([[-0.00825679]])]
[6.299999999999986, -2.2034872346847565, 2.3974008560180664, 1.8376433849334717, 0.0, -0.0001459343505572319, 0.0, 0.0001970078029995887, 0.0, -5.160211420329723e-05, array([[ -2.57486568e-14]])]
[6.349999999999985, -2.658561527522953, 2.445939064025879, 1.6453574895858765, 0.0, -0.00024129916510483014, 0.0, 0.00042055061352534213, 0.0, -3.663420438649968e-05, array([[ -3.01432566e-11]])]
[6.399999999999985, -2.5703388940951633, 2.5393333435058594, 0.9728551506996155, 0.0, -0.00030574620728805567, 0.0, 0.0009160018503472953, 0.0, 9.132275555778873e-06, array([[ -2.65380161e-07]])]
[6.449999999999985, -1.7862311106282023, 2.5623857975006104, 0.7045300006866455, 0.0, -0.0004344916321556842, 0.0, 0.001447664555524329, 0.0, 4.385541003016564e-05, array([[-0.11054634]])]
[6.499999999999985, -0.2817030867361654, 2.5870115756988525, 0.013529190793633461, 0.0, -0.0006170617576770113, 0.0, 0.0022253993401899915, 0.0, 0.00010358476610724172, array([[-1.91511909]])]
[6.549999999999985, 2.1895449886711553, 2.5832066535949707, -0.2554003894329071, 0.0, -0.0007145045808329935, 0.0, 0.0028650616991270765, 0.0, 0.0001794494474836424, array([[-0.21954291]])]
[6.5999999999999845, 1.3464601701140375, 2.5650594234466553, 0.12683223187923431, 0.0, -0.0006702085044754937, 0.0, 0.0030403607513401093, 0.0, 0.00023550955727904296, array([[-0.11568746]])]
[6.649999999999984, 1.2212646512842205, 2.5752053260803223, 0.5652257204055786, 0.0, -0.00045359907335699485, 0.0, 0.0018780050665812178, 0.0, 0.00022758862825773246, array([[-0.4568283]])]
[6.699999999999984, 0.22413771392249002, 2.655474901199341, 1.4812368154525757, 0.0, -0.00042673010503525014, 0.0, 0.0013175723732535706, 0.0, 0.000217786719074034, array([[-0.00016339]])]
[6.749999999999984, -0.9890095683102567, 2.696122169494629, 1.373516321182251, 0.0, -0.00016303568443955604, 0.0, 0.0009817964213084465, 0.0, 0.00018140430601225894, array([[ -2.77887468e-08]])]
[6.799999999999984, -1.7553970861005925, 2.7759552001953125, 0.7723222374916077, 0.0, 0.00011345286274462227, 0.0, 0.00048078725853329865, 0.0, 0.00012503482273711674, array([[-0.00669969]])]
[6.849999999999984, -1.6909077725457216, 2.7944183349609375, 0.5060026049613953, 0.0, 0.00033996517876175384, 0.0, 0.0002630639246660135, 0.0, 6.958701456167314e-05, array([[-0.11016049]])]
[6.8999999999999835, -0.6518289389029279, 2.806734561920166, -0.18413788080215454, 0.0, 0.0005965369872112139, 0.0, 3.210946904316483e-05, 0.0, -4.019851522431194e-05, array([[-0.32326671]])]
[6.949999999999983, 0.22315401434508947, 2.7980051040649414, -0.45284503698349, 0.0, 0.0008200879835217597, 0.0, 6.812329027322378e-05, 0.0, -3.1582204706588035e-05, array([[-0.00237484]])]
[6.999999999999983, 1.3059375699949762, 2.744141101837158, -0.9800717234611511, 0.0, 0.0009388612705385384, 0.0, 0.0001349059078013327, 0.0, -1.7385467346491585e-05, array([[ -1.39369773e-05]])]
[7.049999999999983, 1.5885387588714976, 2.7207372188568115, -0.6887168288230896, 0.0, 0.0007125572331532483, 0.0, 0.00011502829905086871, 0.0, 4.00278611964121e-06, array([[ -7.14616480e-05]])]
[7.099999999999983, 1.2342711405993674, 2.7120654582977295, 0.4308353364467621, 0.0, 0.00037065731009004797, 0.0, 2.0213714755629673e-07, 0.0, -2.5456659473272694e-05, array([[-0.37678639]])]
[7.149999999999983, 0.8145817476358975, 2.730661392211914, 0.8697810769081116, 0.0, 0.0003972739947523213, 0.0, -9.926941636657e-05, 0.0, -1.8058570050111426e-05, array([[-0.00226956]])]
[7.199999999999982, -1.0290129114372237, 2.8273918628692627, 1.6293951272964478, 0.0, 5.91632807213695e-05, 0.0, -9.063127657964155e-05, 0.0, 1.3315722212574115e-05, array([[ -1.98908073e-12]])]
[7.249999999999982, -1.8184042120379063, 2.871284008026123, 1.4592876434326172, 0.0, -3.860231791437608e-05, 0.0, 0.0001337173575745688, 0.0, 5.209092034795052e-05, array([[ -4.11770760e-10]])]
[7.299999999999982, -2.2205608050412167, 2.953334331512451, 0.7919199466705322, 0.0, -0.00030456759972744707, 0.0, 0.0005041188467439911, 0.0, 0.00012164333129639657, array([[ -4.30427425e-06]])]
[7.349999999999982, -1.6877136355831468, 2.9718804359436035, 0.5235763192176819, 0.0, -0.00044879076070170753, 0.0, 0.0009798272473106433, 0.0, 0.0001365045214921427, array([[-0.01750764]])]
[7.399999999999982, -0.3602623917030136, 2.985349178314209, -0.16740775108337402, 0.0, -0.0006980824250608848, 0.0, 0.0017689500996503564, 0.0, 0.00015330292129071932, array([[-0.05523273]])]
[7.4499999999999815, 0.3520715642669368, 2.9772069454193115, -0.43610644340515137, 0.0, -0.0008869492126950775, 0.0, 0.0023713128294175195, 0.0, 0.00019088527075100843, array([[-0.00052013]])]
[7.499999999999981, 0.778570068751986, 2.9270575046539307, -0.8618924021720886, 0.0, -0.0009811061412501687, 0.0, 0.003046816522140493, 0.0, 8.229341568975335e-05, array([[ -5.10673303e-06]])]
[7.549999999999981, 0.8273618097257253, 2.9048004150390625, -0.7304667830467224, 0.0, -0.0007519142887397997, 0.0, 0.0023330207523827246, 0.0, 4.160693640956709e-05, array([[ -4.77305500e-06]])]
[7.599999999999981, 0.45305863373334043, 2.871335029602051, -0.22717450559139252, 0.0, -0.0004162620279399445, 0.0, 0.0012192643578875651, 0.0, 0.0001272826257177614, array([[-0.00043867]])]
[7.649999999999981, 0.010735889561833764, 2.865422248840332, -0.2325158268213272, 0.0, -0.0003003894806858483, 0.0, 0.0007807968223986514, 0.0, 0.00011511221894687122, array([[-0.02104071]])]
[7.699999999999981, -0.6080151268251912, 2.8342068195343018, -0.7439320683479309, 0.0, -0.00010902382900024644, 0.0, 0.00028348657601130474, 0.0, 5.772572760214859e-05, array([[-0.00341303]])]
[7.7499999999999805, -0.770246260777517, 2.8098928928375244, -1.009389877319336, 0.0, -0.00012248168745639955, 0.0, -2.95426280735094e-05, 0.0, 5.892310194161263e-05, array([[ -1.36965925e-08]])]
[7.79999999999998, -0.20229302081595715, 2.7131659984588623, -1.7000828981399536, 0.0, 2.1812028964915123e-05, 0.0, -0.00033061226172793217, 0.0, -1.8463924847320014e-05, array([[ -3.48091615e-18]])]
[7.84999999999998, 0.4621085643209516, 2.662137985229492, -1.9689828157424927, 0.0, 6.86404388911358e-06, 0.0, -0.00040652339922340086, 0.0, -1.7787364823175346e-05, array([[ -6.70197520e-23]])]
[7.89999999999998, 1.5426548201497643, 2.501950979232788, -2.318687915802002, 0.0, 3.174128338634624e-05, 0.0, -0.0002696086095136425, 0.0, -5.6902522911938954e-05, array([[ -2.39066585e-29]])]
[7.94999999999998, 2.0687492647022006, 2.4414525032043457, -1.9908918142318726, 0.0, 8.692620338976629e-05, 0.0, -0.0002370292872769466, 0.0, -7.629609588632243e-05, array([[ -3.29839803e-22]])]
[7.99999999999998, 1.4855625704908741, 2.3363265991210938, -0.9219972491264343, 0.0, -2.412789928402738e-06, 0.0, -9.400185320677622e-05, 0.0, -9.247006984916654e-05, array([[ -9.06467172e-14]])]
[8.04999999999998, 0.7159189864248943, 2.3167598247528076, -0.48680323362350464, 0.0, -7.865945816414145e-05, 0.0, -8.338586345045956e-05, 0.0, -9.347842804564684e-05, array([[-0.09286427]])]
[8.09999999999998, -0.7174255229366573, 2.3137454986572266, 0.19203469157218933, 0.0, 3.9666979356434026e-05, 0.0, -0.0001239421371277252, 0.0, -7.6288252063351e-05, array([[-11.23447293]])]
[8.14999999999998, 9.707905261187678, 2.3168320655822754, 0.010423700325191021, 0.0, -0.00011286698735288072, 0.0, -6.277132386804107e-05, 0.0, 3.414248884086132e-05, array([[-13.49583582]])]
[8.199999999999982, 11.95437714153131, 2.3250892162323, 0.5389658808708191, 0.0, -0.00021264123784650428, 0.0, 0.0001474784526034983, 0.0, 4.2552635923425736e-05, array([[-11.657008]])]
[8.249999999999982, 10.559107391534862, 2.346916437149048, 0.9710955619812012, 0.0, -4.625402299010395e-05, 0.0, -5.4642032320664824e-05, 0.0, 7.139802326668788e-05, array([[-0.00834508]])]
[8.299999999999983, -1.4056547351801068, 2.4568824768066406, 1.951294183731079, 0.0, -0.00015033405278941684, 0.0, -1.8846925394257756e-05, 0.0, 9.43260612033429e-05, array([[ -2.62735519e-08]])]
[8.349999999999984, -1.6485179880438265, 2.5105788707733154, 1.810952067375183, 0.0, -0.00033757780254207575, 0.0, 0.0001068955529584824, 0.0, 0.00011268262719430943, array([[ -3.20138679e-14]])]
[8.399999999999984, -1.6276843505352414, 2.61893367767334, 1.1490223407745361, 0.0, -0.000510360321680491, 0.0, 0.0006151503760012802, 0.0, 0.000179472904334995, array([[ -2.02638577e-05]])]
[8.449999999999985, -0.8869057514690055, 2.6477038860321045, 0.8807069659233093, 0.0, -0.0007631386788073001, 0.0, 0.0011054508033227122, 0.0, 0.0002157915568607931, array([[-0.00388384]])]
[8.499999999999986, -0.19676362222927307, 2.687174081802368, 0.19046814739704132, 0.0, -0.0010865122242594799, 0.0, 0.0019387621216328261, 0.0, 0.00020656224752029067, array([[-0.94516983]])]
[8.549999999999986, 0.8593266015014716, 2.689188241958618, -0.07780347019433975, 0.0, -0.001326091369789181, 0.0, 0.002715740416724901, 0.0, 0.00023380049288876552, array([[-0.39610453]])]
[8.599999999999987, 0.5418499172183604, 2.6672608852386475, -0.3186832666397095, 0.0, -0.0016249578561078324, 0.0, 0.0036827171535845585, 0.0, 0.00013137229285038195, array([[-0.00817151]])]
[8.649999999999988, 0.2978184902330279, 2.6615335941314697, -0.19936592876911163, 0.0, -0.00125076732127724, 0.0, 0.002842720662750207, 0.0, 0.00011210312361151955, array([[-0.19247972]])]
[8.699999999999989, -0.045867911404316175, 2.644498348236084, -0.46276164054870605, 0.0, -0.00017753150171123596, 0.0, 0.0005653964530021444, 0.0, 0.00020132744862128436, array([[-0.1515798]])]
[8.74999999999999, -0.15531938557772831, 2.6289515495300293, -0.7136037349700928, 0.0, 0.0003224782518487867, 0.0, -0.00040742811943139277, 0.0, 0.00022407124047641984, array([[-0.0001009]])]
[8.79999999999999, 0.5023894031040202, 2.5547258853912354, -1.3793572187423706, 0.0, 0.0009694313324140117, 0.0, -0.0016928799578514529, 0.0, 0.0002684136190457118, array([[ -2.63728702e-12]])]
[8.84999999999999, 1.0917682704448994, 2.514993190765381, -1.4934360980987549, 0.0, 0.0011748525410949714, 0.0, -0.0021106215119857737, 0.0, 0.00029218673736208133, array([[ -8.02368621e-14]])]
[8.899999999999991, 1.9048447947391176, 2.41892147064209, -0.9401694536209106, 0.0, 0.0007643993880815506, 0.0, -0.0014901856846531272, 0.0, 0.0002118506423082338, array([[ -5.70893151e-12]])]
[8.949999999999992, 1.689999098876612, 2.3990540504455566, -0.5088110566139221, 0.0, 0.0005639361218747015, 0.0, -0.0011704633807132047, 0.0, 0.00023872693467219842, array([[-0.03363997]])]
[8.999999999999993, 0.40318083334258076, 2.4040143489837646, 0.560408890247345, 0.0, 0.00027935019796563687, 0.0, -0.000675630448725863, 0.0, 0.00022623422019574582, array([[-10.25679961]])]
[9.049999999999994, 9.764869088811965, 2.421241521835327, 0.5985605716705322, 0.0, 0.00017466605953374666, 0.0, -0.0003091662028186126, 0.0, 0.0001885379945370864, array([[-1.12939154]])]
[9.099999999999994, -0.22591398767247695, 2.481626272201538, 1.149253487586975, 0.0, -1.4915760479735002e-05, 0.0, -0.0002547615754075391, 0.0, 0.00013276446927218806, array([[-0.18356537]])]
[9.149999999999995, -1.557063287287837, 2.512202024459839, 0.9799978733062744, 0.0, -0.00011352421990358401, 0.0, -0.00018955308379538192, 0.0, 0.000156544150564332, array([[-0.00194745]])]
[9.199999999999996, -1.8110361351237485, 2.5604357719421387, 0.31349849700927734, 0.0, -0.0003221521585621386, 0.0, 0.00026651400439410875, 0.0, 0.00018481314338321815, array([[-0.33638206]])]
[9.249999999999996, -0.6275245353277759, 2.5660219192504883, 0.04565667733550072, 0.0, -0.0004970231072534978, 0.0, 0.0007971517017957179, 0.0, 0.00013172154204296217, array([[-2.132058]])]
[9.299999999999997, 2.3417896622163816, 2.5461316108703613, -0.5379820466041565, 0.0, -0.0007521678213704804, 0.0, 0.0016300379732343494, 0.0, 5.999416094661464e-05, array([[-0.23651887]])]
[9.349999999999998, 1.093463304383175, 2.535106897354126, -0.2371901124715805, 0.0, -0.0007964072587801083, 0.0, 0.0018120633509760126, 0.0, 7.421555588636799e-05, array([[-0.39583317]])]
[9.399999999999999, 1.1573695622940656, 2.5588631629943848, 0.8738049864768982, 0.0, -0.0002724738817391175, 0.0, 0.0009424733925389409, 0.0, 5.182103524737261e-06, array([[-0.00894896]])]
[9.45, -0.023087703085861076, 2.5899624824523926, 1.300286054611206, 0.0, -0.0004809173358163775, 0.0, 0.0008364065338787862, 0.0, -6.333710400669908e-05, array([[ -5.47920347e-07]])]
[9.5, -1.4848950788332222, 2.699761152267456, 1.345242977142334, 0.0, -0.00035071985685887394, 0.0, 0.00042890115672460197, 0.0, 8.438451107693881e-06, array([[ -1.58735924e-11]])]
[9.55, -2.1322337185432723, 2.7342967987060547, 1.0859557390213013, 0.0, -0.0001326749118429239, 0.0, 0.00034700769489813955, 0.0, 0.00011486928643024012, array([[ -3.22682234e-05]])]
[9.600000000000001, -1.9430377585710763, 2.788679599761963, 0.3972770571708679, 0.0, 9.346284858815548e-05, 0.0, 0.00041608187841618165, 0.0, 0.00014829205317685683, array([[-0.22392302]])]
[9.650000000000002, -1.4795724363928335, 2.79649019241333, 0.1280767172574997, 0.0, 0.00016518377113083774, 0.0, 0.0005520330807283185, 0.0, 0.00022519405161223227, array([[-0.34189148]])]
[9.700000000000003, -0.5581076416441975, 2.796140193939209, -0.17917665839195251, 0.0, 0.00021118103843603074, 0.0, 0.0006181122470357538, 0.0, 0.0002083549861689378, array([[-0.06570827]])]
[9.750000000000004, -0.15843425652915402, 2.7629475593566895, -0.8320857882499695, 0.0, 0.0004910937575070667, 0.0, 0.0014642229181805384, 0.0, 0.000329020732053216, array([[ -1.98994479e-06]])]
[9.800000000000004, 0.6333031962783543, 2.6804630756378174, -1.4481502771377563, 0.0, 0.0005537078188876435, 0.0, 0.0020698863427764005, 0.0, 0.00045963680099374955, array([[ -7.49149763e-10]])]
[9.850000000000005, 0.7929085081297843, 2.6406455039978027, -1.453950047492981, 0.0, 0.0005482979026664853, 0.0, 0.0021775414345712825, 0.0, 0.0004680900899680252, array([[ -8.15864852e-14]])]
[9.900000000000006, 0.8260739206337253, 2.5483999252319336, -1.0867042541503906, 0.0, 0.0003047006834127023, 0.0, 0.001308690928086079, 0.0, 0.0005882323022184422, array([[ -2.24757876e-08]])]
[9.950000000000006, 0.16167757292575496, 2.5218191146850586, -0.8662704825401306, 0.0, 0.0003183464058967103, 0.0, 0.0008273709897512499, 0.0, 0.0004339914093470387, array([[ -8.93175515e-06]])]
[10.000000000000007, -0.4302404895619769, 2.4673407077789307, -0.9321252703666687, 0.0, 8.469055409477034e-05, 0.0, 0.0003916085731866433, 0.0, 0.0003538815252345551, array([[-0.00027011]])]
[10.050000000000008, -0.8376581532763752, 2.4384350776672363, -1.1820770502090454, 0.0, -3.227371105424069e-05, 0.0, 0.00014101769988787065, 0.0, 0.00030109481305778756, array([[ -4.32644479e-09]])]
[10.100000000000009, -0.22706291889261018, 2.3301286697387695, -1.8676507472991943, 0.0, -0.0002396183699595534, 0.0, 4.429465594816095e-05, 0.0, 0.00026147374423999214, array([[ -3.81368369e-13]])]
[10.15000000000001, 0.29889420963861923, 2.274614095687866, -2.136348247528076, 0.0, -0.0004270493606788241, 0.0, 7.525732895389645e-05, 0.0, 0.0002434241306655347, array([[ -2.15364608e-24]])]
[10.20000000000001, 1.5607726533710955, 2.1015615463256836, -2.521845817565918, 0.0, -0.0006656966558666504, 0.0, 0.00021326148822415302, 0.0, 0.00019919931877761338, array([[ -2.48142621e-30]])]
[10.25000000000001, 2.3371405596099795, 2.035654067993164, -2.1961419582366943, 0.0, -0.0005553269189670374, 0.0, 0.0002025083536691494, 0.0, 0.00010379360724295243, array([[ -1.33424570e-24]])]
[10.300000000000011, 2.727624901961535, 1.8757214546203613, -0.21267686784267426, 0.0, -0.00024052241913846508, 0.0, -3.229994296023825e-05, 0.0, 0.0001218925619842668, array([[-56.5926882]])]
[10.350000000000012, 57.16570949772175, 1.8757214546203613, -0.21267686784267426, 0.0, -0.00024052241913846508, 0.0, -3.229994296023825e-05, 0.0, 0.0001218925619842668, array([[-58.06161749]])]
[10.400000000000013, 58.63463878266221, 1.8801424503326416, 0.41679465770721436, 0.0, -6.105693697447997e-05, 0.0, -0.0001326431587751898, 0.0, 7.097934346952364e-05, array([[-56.58050136]])]
[10.450000000000014, 57.04707356551623, 1.89823317527771, 0.8515521287918091, 0.0, -0.00013934269624249612, 0.0, -0.00016339653746949275, 0.0, 4.839596288753286e-05, array([[-1.30104443]])]
[10.500000000000014, 0.3077438198245427, 1.99849534034729, 1.8138030767440796, 0.0, -3.060274260358833e-05, 0.0, -0.0001364652542115298, 0.0, 3.3045215115171505e-05, array([[ -1.90235910e-05]])]
[10.550000000000015, -1.8139757363262785, 2.0490920543670654, 1.7642749547958374, 0.0, -2.081780454613715e-05, 0.0, -8.882931316109303e-05, 0.0, 6.62557659994233e-05, array([[ -5.41483876e-12]])]
[10.600000000000016, -2.6003657744025674, 2.1584384441375732, 1.2156860828399658, 0.0, 2.479751229331532e-05, 0.0, -9.030755507641986e-05, 0.0, 5.765576517200828e-05, array([[ -3.83219672e-09]])]
[10.650000000000016, -2.432507014838243, 2.1881940364837646, 0.9492693543434143, 0.0, 6.640331518788646e-05, 0.0, 8.291592415331002e-05, 0.0, 3.405740425168918e-05, array([[-0.03860384]])]
[10.700000000000017, -1.6563826475278922, 2.230725049972534, 0.2578045129776001, 0.0, 0.00014937355024405402, 0.0, 0.0004148614027930548, 0.0, 4.049195991796173e-05, array([[-3.13132441]])]
[10.750000000000018, 2.1215405523984554, 2.2338716983795166, -0.01187055092304945, 0.0, 0.00019069950845900752, 0.0, 0.0007890478174964256, 0.0, 1.2044940701170211e-05, array([[-22.18031922]])]
[10.800000000000018, 21.94814586641894, 2.2327826023101807, 0.36538371443748474, 0.0, 0.00015916082691674947, 0.0, 0.0010776618267588686, 0.0, -4.340979128507907e-05, array([[-9.25982046]])]
[10.85000000000002, 9.059736588208182, 2.2491304874420166, 0.7955002784729004, 0.0, 0.00013707722387214715, 0.0, 0.0004954195246250163, 0.0, 1.1835073152043448e-05, array([[-0.3392803]])]
[10.90000000000002, -1.2394467498098507, 2.345691680908203, 1.7805888652801514, 0.0, 0.00010775558541665976, 0.0, 0.00023771840905835017, 0.0, -1.9543328651576862e-05, array([[ -3.69301658e-13]])]
[10.95000000000002, -2.838031953442472, 2.3944649696350098, 1.6403528451919556, 0.0, 0.0001304766221586251, 0.0, 0.0005162097194605315, 0.0, -0.00017158829300148508, array([[ -5.26070313e-11]])]
[11.000000000000021, -3.048744999955886, 2.4901115894317627, 0.9780176877975464, 0.0, 0.000161991478308371, 0.0, 0.001139476186300371, 0.0, -0.00039069335426342053, array([[-0.00338404]])]
[11.050000000000022, -2.7343959800485873, 2.514190196990967, 0.7092214822769165, 0.0, 0.00017802270244838983, 0.0, 0.0016692924718044544, 0.0, -0.0005166562202411969, array([[-0.15155314]])]
[11.100000000000023, -1.4532636687775118, 2.5411524772644043, 0.017425810918211937, 0.0, 0.00021382609924218456, 0.0, 0.0027104592154251913, 0.0, -0.0005867320599148847, array([[-2.27601688]])]
[11.150000000000023, 1.4783331390755305, 2.5383028984069824, -0.2516629993915558, 0.0, 0.0002462309744183349, 0.0, 0.0035033423691108903, 0.0, -0.0006675129391155166, array([[-0.32942811]])]
[11.200000000000024, 0.4644407463972706, 2.520704746246338, 0.023229015991091728, 0.0, 0.00024238170056237074, 0.0, 0.003623445926129203, 0.0, -0.0008011109243374507, array([[-2.75976431]])]
[11.250000000000025, 2.959259073424724, 2.5229101181030273, 0.05928214266896248, 0.0, 0.00020634082063890764, 0.0, 0.0017511514743559205, 0.0, -0.0007633519383389754, array([[-3.16899904]])]
[11.300000000000026, 2.9509785737365073, 2.5479350090026855, 0.8060539364814758, 0.0, 0.00017765988578604273, 0.0, 0.0005240800761348588, 0.0, -0.0005803998862526229, array([[-0.02881945]])]
[11.350000000000026, -0.39012354290329904, 2.577188014984131, 1.2309249639511108, 0.0, 0.00012155676206197052, 0.0, 0.00035764519255092694, 0.0, -0.00044142433598767805, array([[ -3.84257068e-06]])]
[11.400000000000027, -1.6743172971821842, 2.678157091140747, 1.1809810400009155, 0.0, -9.713331584123673e-05, 0.0, 0.0002261861033338939, 0.0, -0.0003652555610953611, array([[ -6.16418346e-09]])]
[11.450000000000028, -1.9797111934621432, 2.7085745334625244, 0.9200777411460876, 0.0, -0.0002621619577559687, 0.0, 0.0003835974503388777, 0.0, -0.0003281213538112899, array([[-0.00113012]])]
[11.500000000000028, -1.4899639312180497, 2.7525787353515625, 0.2317979335784912, 0.0, -0.0006055447988556684, 0.0, 0.0008029402651573057, 0.0, -0.0003556253671134623, array([[-0.50924405]])]
[11.55000000000003, -0.0659015776514198, 2.7562954425811768, -0.036765292286872864, 0.0, -0.0008884483612276685, 0.0, 0.0012243023205916225, 0.0, -0.00032507468310651966, array([[-0.273243]])]
[11.60000000000003, -0.06278165933674967, 2.7307584285736084, -0.7288241386413574, 0.0, -0.0013027397310918336, 0.0, 0.0019074993846696555, 0.0, -0.0003040256294002946, array([[-0.01631364]])]
[11.65000000000003, -0.12550662730714765, 2.707563877105713, -0.997973620891571, 0.0, -0.0015799466391351082, 0.0, 0.0025734246566039413, 0.0, -0.0002611520499407955, array([[ -5.29857392e-08]])]
[11.700000000000031, 0.7675614483589347, 2.6134867668151855, -1.6230441331863403, 0.0, -0.0020258218738621317, 0.0, 0.0037586328758171636, 0.0, -0.0002812183456757289, array([[ -2.26711685e-16]])]
[11.750000000000032, 1.29597364788875, 2.5698068141937256, -1.5458776950836182, 0.0, -0.0019041300368223071, 0.0, 0.003796088012145532, 0.0, -0.00025607431753671623, array([[ -6.67977897e-15]])]
[11.800000000000033, 1.4985862209275431, 2.484830141067505, -0.7359607219696045, 0.0, -0.0011465512554669514, 0.0, 0.002179502507593801, 0.0, -0.0001676453288935697, array([[ -3.12487523e-11]])]
[11.850000000000033, 1.4691800663746455, 2.4718761444091797, -0.2992314398288727, 0.0, -0.0007733406111164787, 0.0, 0.001505458259225362, 0.0, -0.00013073163027255494, array([[-0.33804364]])]
[11.900000000000034, 0.7593404785745367, 2.49381685256958, 0.7588316798210144, 0.0, -0.00043134040389308076, 0.0, 0.0006773260310006434, 0.0, -0.00020228236727940537, array([[-0.08893035]])]
[11.950000000000035, -0.5051518807756802, 2.5196666717529297, 0.982648491859436, 0.0, -0.00029095915315846175, 0.0, 0.0002919519089726548, 0.0, -0.00019526667806433754, array([[-0.001721]])]
[12.000000000000036, -1.149401872854881, 2.594337224960327, 0.7751879096031189, 0.0, -5.452833150805395e-05, 0.0, 4.153134128306745e-05, 0.0, -7.502252391566217e-05, array([[-0.00037012]])]
[12.050000000000036, -1.4829591771879138, 2.6135332584381104, 0.5137238502502441, 0.0, 8.36539466623654e-05, 0.0, 0.00016853508569449714, 0.0, -4.207635255642838e-06, array([[-0.50359555]])]
[12.100000000000037, -0.439323424561297, 2.62834095954895, -0.17481015622615814, 0.0, 0.0003367885972333413, 0.0, 0.0005040029755177733, 0.0, 5.976480972516851e-05, array([[-0.30972046]])]
[12.150000000000038, -0.34956647631870214, 2.6207127571105957, -0.44392451643943787, 0.0, 0.0004650420040884737, 0.0, 0.0008908349744845294, 0.0, 9.41103257938978e-05, array([[-0.01374515]])]
[12.200000000000038, 0.5083225936960102, 2.566873073577881, -1.1010974645614624, 0.0, 0.0005508941743562014, 0.0, 0.0015260372319373108, 0.0, 0.00019277861054905863, array([[ -5.58683547e-05]])]
[12.250000000000039, 1.1230669141273157, 2.536048650741577, -1.1983623504638672, 0.0, 0.0005500505945948705, 0.0, 0.0018025549078872708, 0.0, 0.00021477041933268802, array([[ -1.00905811e-09]])]
[12.30000000000004, 1.7625980299557258, 2.4671523571014404, -0.556072473526001, 0.0, 0.0004205087630426889, 0.0, 0.001062958032089439, 0.0, 0.00028125872781738443, array([[ -2.22316891e-07]])]
[12.35000000000004, 1.6112106996876594, 2.4591710567474365, -0.11935815960168839, 0.0, 0.0003432828468408193, 0.0, 0.0005954206204896111, 0.0, 0.00024202511225960977, array([[-2.06540583]])]
[12.400000000000041, 2.3224450238685956, 2.4943695068359375, 0.9988799691200256, 0.0, 0.0002197672861332662, 0.0, 0.0001643497821567836, 0.0, 0.00016978556765228758, array([[-3.82999121]])]
[12.450000000000042, 3.357728993271169, 2.5298233032226562, 1.421006441116333, 0.0, 0.00024972539409334136, 0.0, -3.577076777707492e-05, 0.0, 0.00011480354107017588, array([[ -2.67124700e-08]])]
[12.500000000000043, -1.9232790263907087, 2.6725852489471436, 2.3048059940338135, 0.0, 0.00011594265096917236, 0.0, -0.000120854017562541, 0.0, -5.361779375916929e-05, array([[ -3.63616572e-18]])]
[12.550000000000043, -2.833931577820331, 2.736656904220581, 2.1330020427703857, 0.0, 0.00018903631318364504, 0.0, -0.00012445069677885734, 0.0, -0.00013209998258512356, array([[ -2.93315292e-21]])]
[12.600000000000044, -2.773864415790886, 2.8704276084899902, 1.4649980068206787, 0.0, 0.00035694869631076545, 0.0, 0.0001484478353980484, 0.0, -0.00021736694419027962, array([[ -3.29712923e-10]])]
[12.650000000000045, -1.7655216715540487, 2.9094204902648926, 1.1965031623840332, 0.0, 0.00035472274666808914, 0.0, 0.0004874790165174769, 0.0, -0.00021191218195869786, array([[ -4.63135377e-07]])]
[12.700000000000045, -0.9310841450394833, 2.974445343017578, 0.5041747689247131, 0.0, 0.0003184722636103914, 0.0, 0.001299628264357829, 0.0, -0.0003046834214263829, array([[-0.0189347]])]
[12.750000000000046, -0.33249691827283295, 2.9863574504852295, 0.23500186204910278, 0.0, 0.0003347544809473327, 0.0, 0.0018054821486240494, 0.0, -0.00034673508802919253, array([[-0.05573427]])]
[12.800000000000047, 0.17000629533768227, 2.981841564178467, -0.45251941680908203, 0.0, 0.00033170187717722794, 0.0, 0.002793755082459907, 0.0, -0.00035534069516501604, array([[-0.00036813]])]
[12.850000000000048, 0.13880060401417718, 2.9671027660369873, -0.6926272511482239, 0.0, 0.0003057177257197013, 0.0, 0.0034439082104248046, 0.0, -0.00032459483929542617, array([[ -5.51522724e-06]])]
[12.900000000000048, 0.341772440923519, 2.8983142375946045, -1.2948753833770752, 0.0, 0.00021458822171767627, 0.0, 0.003386827396879803, 0.0, -0.00036319583614461814, array([[ -9.68396369e-13]])]
[12.950000000000049, 0.4190858560111744, 2.8606507778167725, -1.4723042249679565, 0.0, 0.00014509340861490992, 0.0, 0.00277517610567794, 0.0, -0.00043601897548852577, array([[ -3.43824352e-15]])]
[13.00000000000005, 0.7328142848797176, 2.7459819316864014, -1.7694222927093506, 0.0, 0.00015336535932564214, 0.0, 0.0014209551514940877, 0.0, -0.00029466616084765053, array([[ -9.17714977e-18]])]
[13.05000000000005, 1.161509308014065, 2.7001779079437256, -1.680962085723877, 0.0, 0.00016120060280509088, 0.0, 0.0007829923880802152, 0.0, -0.0002377294228440747, array([[ -8.80378868e-18]])]
[13.100000000000051, 1.8031897359900173, 2.608574867248535, -0.866763710975647, 0.0, 0.0001326815575495464, 0.0, 7.870267858176364e-05, 0.0, -0.00021789397928764176, array([[ -3.81034095e-12]])]
[13.150000000000052, 1.6395940265656366, 2.592844009399414, -0.4329661726951599, 0.0, 0.00014725894200898334, 0.0, -0.00011586656007543037, 0.0, -0.00023358635873196233, array([[-0.02063894]])]
[13.200000000000053, 0.7382001096302598, 2.6075079441070557, 0.644033670425415, 0.0, 0.00012453084419333598, 0.0, -0.0003354167895019352, 0.0, -0.0001557113390558488, array([[-0.14752606]])]
[13.250000000000053, 0.09245795330895981, 2.631202459335327, 0.8658363819122314, 0.0, 0.00014701447585222478, 0.0, -0.00047582573204422947, 0.0, -9.958583024464033e-05, array([[-0.00563811]])]
[13.300000000000054, -0.8439190148736202, 2.6953225135803223, 0.5788470506668091, 0.0, 8.448030102206332e-05, 0.0, -0.000609050068181212, 0.0, -1.78116959932883e-05, array([[-0.00304913]])]
[13.350000000000055, -0.9007041761744394, 2.7100439071655273, 0.32064756751060486, 0.0, 8.80963431043174e-05, 0.0, -0.0004706314822255436, 0.0, -0.00010243756968499697, array([[-0.63317202]])]
[13.400000000000055, 0.5245662941205721, 2.713864326477051, -0.32888659834861755, 0.0, 8.67701592157114e-05, 0.0, -0.0002029053246834297, 0.0, -6.904533916906305e-05, array([[-0.48709578]])]
[13.450000000000056, 0.49328496109132597, 2.7056515216827393, -0.413103312253952, 0.0, 0.0001334941225480908, 0.0, -2.1648180423640912e-05, 0.0, -6.634058282368484e-05, array([[-0.00997065]])]
[13.500000000000057, 0.0713638410365911, 2.675626277923584, -0.5908114314079285, 0.0, -1.6453366048291884e-05, 0.0, -0.0001732967294293456, 0.0, -6.0774328355508674e-05, array([[-0.00069926]])]
[13.550000000000058, 0.10484182344211523, 2.658337116241455, -0.8002008199691772, 0.0, -2.7668787461983224e-05, 0.0, -0.00038489537470051205, 0.0, -7.560611950569873e-05, array([[ -1.14274663e-05]])]
[13.600000000000058, 0.42685152982223495, 2.5824573040008545, -1.3977537155151367, 0.0, 1.6211455990754284e-06, 0.0, -0.0005720039207198737, 0.0, -0.00013849500416947857, array([[ -1.06009250e-12]])]
[13.650000000000059, 0.9407900805223157, 2.54328989982605, -1.5273538827896118, 0.0, 4.106956955425593e-06, 0.0, -0.0006374186818765679, 0.0, -0.00015130850375774798, array([[ -1.76089857e-14]])]
[13.70000000000006, 1.329876075703668, 2.442206621170044, -1.1165250539779663, 0.0, 4.028166110769688e-05, 0.0, -0.000531357262465044, 0.0, -0.0001373251307724353, array([[ -2.72748991e-08]])]
[13.75000000000006, 1.165080854041688, 2.418376922607422, -0.6972115635871887, 0.0, 5.072523060555956e-05, 0.0, -0.0005321176837466715, 0.0, -4.949389479967061e-05, array([[-0.00091484]])]
[13.800000000000061, 0.013030540626353056, 2.4126851558685303, 0.2683459222316742, 0.0, -5.223813195891098e-06, 0.0, -0.00042633306825593447, 0.0, -0.0001551835784789483, array([[-4.22919291]])]
[13.850000000000062, 3.291131693444899, 2.4208977222442627, 0.10731259733438492, 0.0, -5.177161229634421e-06, 0.0, -0.0003521354081064117, 0.0, -0.0002716776654986187, array([[-8.04630927]])]
[13.900000000000063, 6.656916992196148, 2.432581663131714, 0.4381587505340576, 0.0, 5.1796991866967584e-05, 0.0, -0.0002534144115174339, 0.0, -0.0002856778931652781, array([[-3.60986306]])]
[13.950000000000063, 2.274827418164114, 2.4529387950897217, 0.8660705089569092, 0.0, 0.00012320478032635135, 0.0, -0.00047211836830220584, 0.0, -0.0002406875814320198, array([[-0.02409909]])]
[14.000000000000064, -2.0684577256047674, 2.557176113128662, 1.7131032943725586, 0.0, -1.0983837296501223e-05, 0.0, -0.00023056206595426827, 0.0, -0.0002233770337738345, array([[ -9.50739115e-13]])]
[14.050000000000065, -2.543332652243766, 2.6046178340911865, 1.520187497138977, 0.0, -0.0001583491554064928, 0.0, 5.528708878837856e-05, 0.0, -0.00014819269896145459, array([[ -6.11432587e-10]])]
[14.100000000000065, -2.2949378346311664, 2.6945676803588867, 0.847932755947113, 0.0, -0.0002779161643293175, 0.0, 0.0009046769425943769, 0.0, -0.00014072761284139208, array([[ -2.10569563e-06]])]
[14.150000000000066, -1.8621757120699978, 2.7165520191192627, 0.579885721206665, 0.0, -0.0004200911083488139, 0.0, 0.0014673279188679345, 0.0, -0.0001709186941881259, array([[-0.11408625]])]
[14.200000000000067, -0.6628169293292714, 2.7388808727264404, -0.11195576936006546, 0.0, -0.0006422444993079863, 0.0, 0.00261250912319848, 0.0, -0.00013967076763603446, array([[-0.60436193]])]
[14.250000000000068, 0.42589007169834586, 2.734839677810669, -0.38054466247558594, 0.0, -0.0007625348574972354, 0.0, 0.003481831524896111, 0.0, -0.00012540802260449833, array([[-0.01198382]])]
[14.300000000000068, 0.9732915566722923, 2.695756196975708, -0.7769672870635986, 0.0, -0.0008273326453430066, 0.0, 0.004113608647026106, 0.0, -3.735797494828442e-05, array([[-0.00010339]])]
[14.350000000000069, 1.4682678313764161, 2.6795685291290283, -0.5101200938224792, 0.0, -0.0005736744808507902, 0.0, 0.003104266927150994, 0.0, -4.2194381083475e-05, array([[-0.00281626]])]
[14.40000000000007, 1.187171027212128, 2.6865856647491455, 0.5773686766624451, 0.0, -0.0003450091508988651, 0.0, 0.0015396769670223494, 0.0, -1.754581465968641e-05, array([[-0.53157525]])]
[14.45000000000007, 1.0370802912034474, 2.711196184158325, 1.0068846940994263, 0.0, -0.00016091759866581953, 0.0, 0.0008741328559693529, 0.0, -4.369310487690664e-06, array([[-0.00020739]])]
[14.500000000000071, -0.9408337502404294, 2.826981782913208, 1.915263056755066, 0.0, -0.00011991586938312439, 0.0, 0.00028326505632311094, 0.0, 2.6366942517825137e-05, array([[ -2.54783123e-17]])]
[14.550000000000072, -1.77607543092221, 2.8809659481048584, 1.7448605298995972, 0.0, -9.25887405884336e-05, 0.0, 9.886981086130343e-05, 0.0, 5.436485608877381e-05, array([[ -1.63471648e-14]])]
[14.600000000000072, -2.2842242068052125, 2.987969398498535, 1.0766741037368774, 0.0, -0.0001271003661013769, 0.0, 0.00014075446579024428, 0.0, 0.00014927518843901863, array([[ -2.25885008e-10]])]
[14.650000000000073, -1.8215358057035669, 3.0163323879241943, 0.8084618449211121, 0.0, -0.0001830716478975875, 0.0, 0.0003510372883677027, 0.0, 0.00018903862463579395, array([[-0.00038824]])]
[14.700000000000074, -0.6401183643741843, 3.0542404651641846, 0.11683283746242523, 0.0, -0.00035514960754061853, 0.0, 0.0008193398229304066, 0.0, 0.0003008673135121697, array([[-0.02565341]])]
[14.750000000000075, 0.13400288717219766, 3.0556979179382324, -0.15190988779067993, 0.0, -0.00042022428784482796, 0.0, 0.0013978748714291837, 0.0, 0.0003344366334775986, array([[-0.00647004]])]
[14.800000000000075, 0.7844618731874586, 3.025771141052246, -0.7283143997192383, 0.0, -0.0005097831355634456, 0.0, 0.0019734862588096434, 0.0, 0.0003982906418560473, array([[ -1.05923776e-06]])]
[14.850000000000076, 0.8171745203508815, 3.0085904598236084, -0.6150858402252197, 0.0, -0.0003600258874036751, 0.0, 0.0016459396483902884, 0.0, 0.00040313348089371647, array([[ -1.68448829e-05]])]
[14.900000000000077, 0.5539702785530062, 2.9867351055145264, -0.09821292757987976, 0.0, -8.497807621835904e-05, 0.0, 0.000648128038312393, 0.0, 0.00027578144128909105, array([[-0.00069583]])]
[14.950000000000077, 0.1261366056721953, 2.987154960632324, -0.0222694780677557, 0.0, 5.191332203184406e-05, 0.0, 0.0001830364765002357, 0.0, 0.00017398692954168665, array([[-0.03166727]])]
[15.000000000000078, -0.5925987185179407, 2.9828248023986816, -0.3828233778476715, 0.0, 6.958778294440649e-05, 0.0, -0.000238759893849179, 0.0, 0.0001360417102576365, array([[-0.02251666]])]
[15.050000000000079, -0.8484074347504053, 2.971440553665161, -0.6390571594238281, 0.0, 0.0001077111370823081, 0.0, -0.0004136250827749728, 0.0, 0.0001695766448894331, array([[ -1.55474369e-05]])]
[15.10000000000008, -0.3818526242736506, 2.907249689102173, -1.325948715209961, 0.0, 9.259709149734294e-05, 0.0, -0.000552351957267826, 0.0, 0.0001431051266550971, array([[ -3.12805227e-13]])]
[15.15000000000008, 0.22466253204302472, 2.8690578937530518, -1.594807744026184, 0.0, 1.1876067154433401e-05, 0.0, -0.00048398902182574877, 0.0, 0.00013334975682979675, array([[ -3.32433366e-17]])]
[15.200000000000081, 1.3773762348294256, 2.737255811691284, -2.1027820110321045, 0.0, -0.00011264387156959475, 0.0, -0.00017930729182056538, 0.0, 6.609635850571636e-05, array([[ -2.66871872e-22]])]
[15.250000000000082, 1.781119616143405, 2.684622287750244, -1.7994905710220337, 0.0, -8.654369404762905e-05, 0.0, -0.00022597010401503802, 0.0, -5.890780251559906e-06, array([[ -8.53527917e-20]])]
[15.300000000000082, 1.4963044681400057, 2.598999500274658, -0.7226066589355469, 0.0, -4.093514167465414e-06, 0.0, -0.0003366834465267363, 0.0, 6.052355948643528e-05, array([[ -2.47484202e-10]])]
[15.350000000000083, 0.614344499824321, 2.5874507427215576, -0.28637683391571045, 0.0, 5.496121662824954e-05, 0.0, -0.0002660322810579515, 0.0, 8.175756984346042e-05, array([[-0.1455776]])]
[15.400000000000084, -0.5530830119786274, 2.5966761112213135, 0.10605213791131973, 0.0, 4.266194698168232e-05, 0.0, -0.00048358212918873727, 0.0, 0.00012710458183528417, array([[-1.71324931]])]
[15.450000000000085, 0.3261677194484327, 2.5993826389312744, -0.11863625049591064, 0.0, -3.838231278607663e-05, 0.0, -0.00038933542834423447, 0.0, 2.47055244049242e-05, array([[-0.63716379]])]
[15.500000000000085, -0.9392721045564276, 2.575216293334961, -0.6783059239387512, 0.0, -0.00017158274525620255, 0.0, -4.6505833889726553e-05, 0.0, -3.464071880607041e-05, array([[-0.00032589]])]
