time, uz, alt, vel_alt, uthe, roll, uphi, pitch, upsi, yaw, F
[0.0, 0.0, -0.0057985917665064335, 0.0045485408045351505, 0.0, -0.014436833909465612, 0.0, 0.013516411780514827, 0.0, -0.08643320204813863, array([[ 0.67782569]])]
[0.05, -0.6774944918155922, -0.005568790249526501, 0.0042421468533575535, 0.0, -0.014439935400755227, 0.0, 0.01354185729164469, 0.0, -0.08644016610758984, array([[ 1.2811163]])]
[0.1, -1.280733327093546, -0.005383441690355539, 0.004627914167940617, 0.0, -0.014420729593600622, 0.0, 0.01353820485691313, 0.0, -0.08645890394241683, array([[ 3.35680102]])]
[0.15000000000000002, -3.356515635477342, -0.0049314945936203, 0.004897568374872208, 0.0, -0.01441983826678367, 0.0, 0.013490285083184264, 0.0, -0.0864838545462297, array([[-1851.95169833]])]
[0.2, 1852.145194746794, -0.004636787809431553, 0.004530148580670357, 0.0, -0.014429515388087533, 0.0, 0.013508839411037856, 0.0, -0.0864803480533151, array([[-7827.24304003]])]
[0.25, 7827.667441896091, -0.0004931378643959761, 0.33653751015663147, 0.0, -0.012766034954595244, 0.0, 0.011243332281194816, 0.0, -0.08434869161914661, array([[-6335.58437948]])]
[0.3, 6336.196767550073, 0.017072046175599098, 0.786396324634552, 0.0, -0.011579987163380328, 0.0, 0.009424623185588763, 0.0, -0.0821906842777789, array([[-52.90391122]])]
[0.35, 53.42586206220136, 0.10350523889064789, 1.7913283109664917, 0.0, -0.0072791150731209, 0.0, 0.005029290015598839, 0.0, -0.06519877778858989, array([[ -5.60197867e-11]])]
[0.39999999999999997, 0.15051327920009827, 0.16795121133327484, 2.259028196334839, 0.0, -0.005775564258146105, 0.0, 0.004053677450746635, 0.0, -0.059686539280593746, array([[ -3.37170591e-20]])]
[0.44999999999999996, -0.10344916053935883, 0.3390370309352875, 2.4809231758117676, 0.0, -0.0018889925857219078, 0.0, 0.0016311324248873345, 0.0, -0.04442109004242582, array([[ -2.44566352e-25]])]
[0.49999999999999994, -0.17788897366011142, 0.4140316843986511, 2.210911273956299, 0.0, -0.0009949279975209344, 0.0, 0.0011424518878694826, 0.0, -0.03998357235737908, array([[ -5.07408709e-19]])]
[0.5499999999999999, -0.01780620203876495, 0.5423501133918762, 1.5662962198257446, 0.0, 0.0020626776362570715, 0.0, -0.0004566485361461707, 0.0, -0.025614161822997084, array([[ -3.57398657e-07]])]
[0.6, 0.4501839209162271, 0.6296638250350952, 0.9045432806015015, 0.0, 0.004102813437108809, 0.0, -0.0015959237300609277, 0.0, -0.015579595182547501, array([[-0.02984903]])]
[0.65, 0.8550753414685303, 0.6526408195495605, 0.7801207900047302, 0.0, 0.00511741210758831, 0.0, -0.0021112945371329892, 0.0, -0.008250981898295151, array([[-91.61804025]])]
[0.7000000000000001, 92.7471707691986, 0.719011127948761, 1.2833064794540405, 0.0, 0.004470254368196823, 0.0, -0.0014353353471024289, 0.0, -0.002224690868977477, array([[-0.00201224]])]
[0.7500000000000001, 1.1213722042957768, 0.760190486907959, 1.682592511177063, 0.0, 0.0037538826137601, 0.0, -0.0009319237269042039, 0.0, -0.0005299344501165248, array([[ -5.07647299e-09]])]
[0.8000000000000002, 0.6926402374824931, 0.8870190978050232, 2.5435891151428223, 0.0, 0.0025078676445274284, 0.0, -0.0005051375477482089, 0.0, -0.0002843662117814312, array([[ -1.05314546e-17]])]
[0.8500000000000002, 0.3662925415130853, 0.9954050779342651, 2.8257334232330322, 0.0, 0.0016621281788433723, 0.0, -0.00016494762603142663, 0.0, -0.0005369195220026871, array([[ -1.11206892e-34]])]
[0.9000000000000002, -0.03331324621963501, 1.0866059064865112, 2.8309760093688965, 0.0, 0.0012040491709118038, 0.0, -6.401524657008075e-05, 0.0, -0.0006745568020104934, array([[ -6.46786624e-35]])]
[0.9500000000000003, -0.1133707034664154, 1.2668322324752808, 2.3860723972320557, 0.0, 7.385143656306446e-05, 0.0, 0.00025679495000631604, 0.0, -0.0010191013297986794, array([[ -1.71906950e-23]])]
[1.0000000000000002, 0.0627214295477867, 1.4139606952667236, 1.704870343208313, 0.0, -0.0005896959315847537, 0.0, 0.000529741022487961, 0.0, -0.0012504847229920552, array([[ -6.21153824e-17]])]
[1.0500000000000003, 0.27313648643803595, 1.457901120185852, 1.4445791244506836, 0.0, -0.001080847850955589, 0.0, 0.0006872791315962212, 0.0, -0.0013707343834315783, array([[ -3.12034856e-06]])]
[1.1000000000000003, 0.5402337714236817, 1.4995332956314087, 1.1750848293304443, 0.0, -0.0012685822983757517, 0.0, 0.0007354186301377319, 0.0, -0.0013997423435099146, array([[-0.00478303]])]
[1.1500000000000004, 0.6433776984908456, 1.5662792921066284, 0.87774658203125, 0.0, -0.0011845085863651272, 0.0, 0.000766339184238054, 0.0, -0.0014880695362858853, array([[-1.77702759]])]
[1.2000000000000004, 2.3982495581650736, 1.5945909023284912, 0.9108375906944275, 0.0, -0.0010373783335488613, 0.0, 0.0006480255715358125, 0.0, -0.0015051475791379955, array([[-0.87368888]])]
[1.2500000000000004, 1.3470512028690012, 1.6682137250900269, 1.4575674533843994, 0.0, -0.0006667301090224183, 0.0, 0.00044391453251008416, 0.0, 0.007679279726505271, array([[ -8.47777543e-07]])]
[1.3000000000000005, 0.10208946993511706, 1.7224771976470947, 1.9313205480575562, 0.0, -0.000597583541431412, 0.0, 0.0004564160131866696, 0.0, 0.007845941675275303, array([[ -1.32389202e-14]])]
[1.3500000000000005, -0.22526075250493158, 1.8694543838500977, 2.0545895099639893, 0.0, 1.7919922197260473e-05, 0.0, 0.00033820858987948895, 0.0, 0.006538845234038524, array([[ -2.46263419e-17]])]
[1.4000000000000006, -0.35988163110446925, 1.9940630197525024, 1.39505136013031, 0.0, 0.0004613396130181974, 0.0, 0.00022967807178525843, 0.0, 0.005293703176567592, array([[ -4.87425862e-11]])]
[1.4500000000000006, -0.16315357481326068, 2.0290753841400146, 1.1271374225616455, 0.0, 0.0007362343477174111, 0.0, 0.00025634072726067153, 0.0, 0.00469020019503263, array([[-0.00101846]])]
[1.5000000000000007, 0.22013090191101028, 2.084629535675049, 0.4463519752025604, 0.0, 0.001174158305544695, 0.0, 0.00028570985748328364, 0.0, 0.003581472017169666, array([[-0.33046973]])]
[1.5500000000000007, 0.832464332371291, 2.093599796295166, 0.22463417053222656, 0.0, 0.0012293046309668181, 0.0, 0.000372401313373149, 0.0, 0.00264620922487708, array([[-40.21747135]])]
[1.6000000000000008, 40.93581331150222, 2.1076948642730713, 0.44644349813461304, 0.0, 0.0007944932064418803, 0.0, 0.00039090446205827497, 0.0, 0.001578807874750743, array([[-38.73543444]])]
[1.6500000000000008, 39.35776942186392, 2.135134696960449, 0.9932886362075806, 0.0, 0.00042505351204983634, 0.0, 0.00027595784202822293, 0.0, 0.0010664582614756675, array([[-0.00941448]])]
[1.7000000000000008, 0.18867793747459352, 2.1744768619537354, 1.4867589473724365, 0.0, 0.00037693631446563563, 0.0, 0.00020584435847647003, 0.0, 0.0009344344139824915, array([[ -1.88524011e-08]])]
[1.7500000000000009, -0.13176210698385202, 2.298534393310547, 1.8535109758377075, 0.0, 5.455769199944699e-06, 0.0, 0.0004531079840701738, 0.0, 0.0001605807244879794, array([[ -1.10930583e-14]])]
[1.800000000000001, -0.40751269625983766, 2.3963568210601807, 1.3440032005310059, 0.0, -0.00021628823297719122, 0.0, 0.0006207521256364486, 0.0, -0.0003787987293287363, array([[ -1.06751367e-10]])]
[1.850000000000001, -0.39414360468508725, 2.444453239440918, 0.9636827111244202, 0.0, -0.0004230620424770069, 0.0, 0.0008283364375215361, 0.0, -0.0007962449993298122, array([[-0.00181798]])]
[1.900000000000001, -0.04208016790602942, 2.471702814102173, 0.657263994216919, 0.0, -0.0004984253550144279, 0.0, 0.0009154962543702308, 0.0, -0.0009743262199448837, array([[-0.16269948]])]
[1.950000000000001, 0.33896261705475167, 2.496861219406128, 0.0059009431861341, 0.0, -0.0009209035836840685, 0.0, 0.001283908664122294, 0.0, -0.0014437841298249837, array([[-1.46340069]])]
[2.000000000000001, 1.9598686186155698, 2.485837459564209, -0.3961871564388275, 0.0, -0.001073521729556247, 0.0, 0.0014112066731166936, 0.0, -0.0017458063602616486, array([[-0.28920197]])]
[2.0500000000000007, 0.8485753925367887, 2.4750099182128906, -0.06057145446538925, 0.0, -0.0008828892200013814, 0.0, 0.0011363420910463135, 0.0, -0.0017598802908254214, array([[-1.26993359]])]
[2.1000000000000005, 1.655515598569937, 2.497609853744507, 0.7084518074989319, 0.0, -0.0007274491466620692, 0.0, 0.0006191789582379091, 0.0, -0.0014708133048470325, array([[-0.75855047]])]
[2.1500000000000004, 0.8062719632507895, 2.5386009216308594, 1.302338719367981, 0.0, -0.0006141515298824544, 0.0, 0.0005515043686017923, 0.0, -0.0012168646522962639, array([[ -3.13621757e-07]])]
[2.2, -0.39945960336014913, 2.588143825531006, 1.7169638872146606, 0.0, -0.0005943328715882579, 0.0, 0.0005830358522610177, 0.0, -0.0010730635307108244, array([[ -2.62422599e-13]])]
[2.25, -0.6812608298302052, 2.7116174697875977, 1.6199567317962646, 0.0, -0.00028171735887233296, 0.0, 0.0004936634441083348, 0.0, -0.0007190948143158245, array([[ -3.20468050e-12]])]
[2.3, -0.7076733121063252, 2.792778968811035, 1.0556373596191406, 0.0, 2.1463509538840538e-05, 0.0, 0.0004196018283324622, 0.0, -0.0005992394066439042, array([[ -1.89494903e-07]])]
[2.3499999999999996, -0.5206772897270368, 2.8280222415924072, 0.6715840697288513, 0.0, 0.00020481607220491853, 0.0, 0.00047649955777948587, 0.0, -0.0005540136917996335, array([[-0.00635088]])]
[2.3999999999999995, -0.20248387311473387, 2.8451592922210693, 0.36478349566459656, 0.0, 0.0002691506504401355, 0.0, 0.0004559494305794978, 0.0, -0.0005386596770183893, array([[-0.0649464]])]
[2.4499999999999993, 0.07664934683335378, 2.8490796089172363, -0.2891180217266083, 0.0, 0.0005775081882048068, 0.0, 0.0005497544478194075, 0.0, -0.0004052096635935194, array([[-0.00635009]])]
[2.499999999999999, 0.2862195165282046, 2.830507755279541, -0.6636002659797668, 0.0, 0.000654681887270059, 0.0, 0.0005420674633175288, 0.0, -0.0003890065764153329, array([[ -2.43070195e-05]])]
[2.549999999999999, 0.4184019574281758, 2.7763309478759766, -1.1381958723068237, 0.0, 0.0006243149578724287, 0.0, 0.0005971715511530917, 0.0, -0.00042541248348289945, array([[ -5.01578113e-10]])]
[2.5999999999999988, 0.5423898183428099, 2.737698554992676, -1.2966716289520264, 0.0, 0.0005421635767251807, 0.0, 0.0005919906310360223, 0.0, -0.0004257755919656122, array([[ -6.21930577e-12]])]
[2.6499999999999986, 0.4890866957665886, 2.6461760997772217, -1.4812356233596802, 0.0, 0.00018421537317182265, 0.0, 0.0004973239327218698, 0.0, -0.00046955439794970884, array([[ -3.95144108e-14]])]
[2.6999999999999984, 0.45086722763560194, 2.600214719772339, -1.5370287895202637, 0.0, 9.43438218626807e-05, 0.0, 0.0003915238994405457, 0.0, -0.00051299296867259, array([[ -8.60526224e-15]])]
[2.7499999999999982, 0.3436141068132009, 2.4941368103027344, -1.732587456703186, 0.0, -0.0002283117608046875, 0.0, 0.00044441918298932415, 0.0, -0.0006416943437612625, array([[ -1.77506574e-17]])]
[2.799999999999998, 0.31844310038131474, 2.438066005706787, -1.883165955543518, 0.0, -0.00024030435577205236, 0.0, 0.0004145906510116413, 0.0, -0.0006487740946019138, array([[ -5.89012174e-20]])]
[2.849999999999998, 0.27803317921808357, 2.300208806991577, -2.281796455383301, 0.0, -0.0003582937619228553, 0.0, 0.0004568978829893629, 0.0, -0.0006583313471170202, array([[ -1.52939713e-27]])]
[2.8999999999999977, 0.3903079505911469, 2.205103635787964, -2.549123764038086, 0.0, -0.0003580334971927582, 0.0, 0.0004430107630914526, 0.0, -0.0006370867909516728, array([[ -1.37153354e-33]])]
[2.9499999999999975, 0.4593171435152292, 2.042720317840576, -2.8998284339904785, 0.0, -0.0002459675585457655, 0.0, 0.0003496054210800412, 0.0, -0.000696393240021566, array([[ -1.86017039e-42]])]
[2.9999999999999973, 0.5884663132416903, 1.948387861251831, -3.0321686267852783, 0.0, -0.00026855097846612084, 0.0, 0.0003023643352630389, 0.0, -0.0007376947530230935, array([[ -4.66886965e-46]])]
[3.049999999999997, 0.6079968509020656, 1.737138032913208, -3.181051015853882, 0.0, -0.0003392714155950228, 0.0, 0.0003428967257521935, 0.0, -0.0006146435295919979, array([[ -7.17214785e-50]])]
[3.099999999999997, 0.638132989639163, 1.5465470552444458, -3.1983158588409424, 0.0, -0.0002990733632807393, 0.0, 0.0004317776592581188, 0.0, -0.0006149027838306231, array([[ -5.74369492e-50]])]
[3.149999999999997, 0.5896700347814112, 1.4195305109024048, -3.176711082458496, 0.0, -0.00034489657448663364, 0.0, 0.0004258666566302435, 0.0, -0.0006572270895567518, array([[ -1.38081613e-48]])]
[3.1999999999999966, 0.5425957353630214, 1.3182910680770874, -3.1699931621551514, 0.0, -0.0002989625208471968, 0.0, 0.0004174925625249445, 0.0, -0.0007177389252381091, array([[ -4.51850466e-48]])]
[3.2499999999999964, 0.4942597412647456, 1.1009860038757324, -3.24126935005188, 0.0, -0.00015770239184584087, 0.0, 0.00041825440944524513, 0.0, -0.0006306341437541924, array([[ -1.00564228e-49]])]
[3.2999999999999963, 0.5231367538385688, 0.9960728883743286, -3.3149402141571045, 0.0, -0.00020505104722348994, 0.0, 0.00044584062091778656, 0.0, -0.0005683538097955171, array([[ -6.18813437e-52]])]
[3.349999999999996, 0.563104192130208, 0.763836145401001, -3.4897372722625732, 0.0, -0.00032338461342467045, 0.0, 0.00040329175404371696, 0.0, -0.00048812571359634294, array([[ -1.99123899e-57]])]
[3.399999999999996, 0.6750993116657733, 0.6507112383842468, -3.54531192779541, 0.0, -0.0002924140834737171, 0.0, 0.0003978533581748457, 0.0, -0.0003885678366740457, array([[ -3.19082923e-59]])]
[3.4499999999999957, 0.7289383722798227, 0.40812650322914124, -3.5268585681915283, 0.0, -0.000210406842899382, 0.0, 0.00036068292925197867, 0.0, -0.00027348670119357204, array([[ -4.31725223e-58]])]
[3.4999999999999956, 0.7422269163056834, 0.2960527241230011, -3.448941469192505, 0.0, -0.000206177413070265, 0.0, 0.00039245279494941863, 0.0, -0.0002721405144161215, array([[ -3.56519062e-55]])]
[3.5499999999999954, 0.7028456481299921, 0.06877268105745316, -3.2086989879608154, 0.0, -0.00030435263378022614, 0.0, 0.0003518257984973254, 0.0, -0.0002335470832409445, array([[ -1.02861106e-46]])]
[3.599999999999995, 1.0275301360747906, -0.017665589228272438, -0.02608710341155529, 0.0, -0.010834194074148552, 0.0, 0.011038455705412703, 0.0, -0.0001042216843450833, array([[-29167.29954672]])]
[3.649999999999995, 29167.529946929895, -0.006310418713837862, 0.477975994348526, 0.0, -0.022638201838223293, 0.0, 0.011107150212468386, 0.0, 0.002197421116964185, array([[-4886.30814869]])]
[3.699999999999995, 4886.442922564798, 0.046122461557388306, 1.275994896888733, 0.0, -0.012307021821800736, 0.0, 0.013381519661055892, 0.0, 0.0045529915666725354, array([[-1.7678998]])]
[3.7499999999999947, 1.8767936267319307, 0.10786177217960358, 1.8224481344223022, 0.0, -0.007861924310691316, 0.0, 0.006457921203067866, 0.0, 0.005020420753411384, array([[ -3.25909409e-11]])]
[3.7999999999999945, -0.030785634980225702, 0.17330066859722137, 2.25882887840271, 0.0, -0.008490549067840714, 0.0, 0.005108106450655515, 0.0, 0.004883008146311058, array([[ -6.20625290e-20]])]
[3.8499999999999943, -0.13308280713705345, 0.34798166155815125, 2.482567548751831, 0.0, 0.0001043847867804853, 0.0, 0.0026094671013025894, 0.0, 0.0032424130044050336, array([[ -4.37746903e-25]])]
[3.899999999999994, -0.33206006885666023, 0.44114863872528076, 2.1187682151794434, 0.0, 0.002223812067391594, 0.0, 0.0018796141410140597, 0.0, 0.00288240946802034, array([[ -8.41274445e-17]])]
[3.949999999999994, -0.3321203611088692, 0.5526666641235352, 1.5456029176712036, 0.0, 0.013025216838843277, 0.0, -0.001829872077854624, 0.0, 0.0011522037492595401, array([[ -1.38866811e-06]])]
[3.999999999999994, -0.21960001314480454, 0.6079190969467163, 1.1610996723175049, 0.0, 0.01576208009896786, 0.0, -0.0028101030813152614, 0.0, 0.0006791147328589765, array([[-0.08737763]])]
[4.049999999999994, -0.055267862103228385, 0.661686360836029, 0.585310161113739, 0.0, 0.026580201532163183, 0.0, -0.006575412660446005, 0.0, -0.0011828083359720456, array([[-2152.80322733]])]
[4.099999999999993, 2152.9728933373963, 0.6761978268623352, 0.2784368395805359, 0.0, 0.029272713977621042, 0.0, -0.007498168964931412, 0.0, -0.0016318507043684577, array([[-20534.77297302]])]
[4.149999999999993, 20535.265033151667, 0.6849979162216187, 0.27781033515930176, 0.0, 0.032623502525707775, 0.0, -0.009127447785293218, 0.0, -0.0032811974903529753, array([[-30753.29924631]])]
[4.199999999999993, 30753.93137718259, 0.7017718553543091, 0.7515315413475037, 0.0, 0.025986385902500856, 0.0, -0.007598546341338562, 0.0, -0.0033757859667966897, array([[-557.19346805]])]
[4.249999999999993, 557.569070401164, 0.7892842292785645, 1.7589577436447144, 0.0, 0.015356224328176578, 0.0, -0.004130872190725531, 0.0, -0.00314453079690553, array([[ -1.36663506e-09]])]
[4.299999999999993, -0.13148883530527242, 0.9542311429977417, 2.632601499557495, 0.0, 0.008741060609098884, 0.0, -0.002504621591346666, 0.0, -0.0027976415334225796, array([[ -1.24979333e-18]])]
[4.3499999999999925, -0.4427823041972778, 1.026488184928894, 2.459181070327759, 0.0, 0.006348900277602224, 0.0, -0.001461497906640159, 0.0, -0.0026123638930618883, array([[ -3.12699074e-24]])]
[4.399999999999992, -0.6882269331846571, 1.158738136291504, 1.9054614305496216, 0.0, 0.003089107997152715, 0.0, 0.00010446953363521552, 0.0, -0.002313872509978807, array([[ -1.15289604e-17]])]
[4.449999999999992, -0.5815575719134081, 1.2277809381484985, 1.5223777294158936, 0.0, 0.0008585552165355507, 0.0, 0.0010525779238121271, 0.0, -0.002130662246565927, array([[ -3.28255855e-06]])]
[4.499999999999992, -0.2361668858159091, 1.271958351135254, 1.2150946855545044, 0.0, -0.00023456125204277418, 0.0, 0.001555468144125658, 0.0, -0.0020344431788557136, array([[-0.02389312]])]
[4.549999999999992, 0.11290063302055217, 1.3334019184112549, 0.560987114906311, 0.0, -0.004980084389743522, 0.0, 0.0039020342922356853, 0.0, -0.0015781770514384423, array([[-1677.11175473]])]
[4.599999999999992, 1677.6239218212575, 1.3470661640167236, 0.26811403036117554, 0.0, -0.005832265176509323, 0.0, 0.004320083355042035, 0.0, -0.0014933109378433632, array([[-9202.88296684]])]
[4.6499999999999915, 9203.524387410758, 1.3652347326278687, 0.5508657693862915, 0.0, -0.004802606018142916, 0.0, 0.0033795742838420256, 0.0, -0.0012582806168264387, array([[-1744.59383071]])]
[4.699999999999991, 1745.0255933109677, 1.4279628992080688, 1.4751958847045898, 0.0, -0.002977405099552556, 0.0, 0.0018822574495910166, 0.0, -0.0011733062609210647, array([[-0.05312304]])]
[4.749999999999991, 0.12092796110403381, 1.5002601146697998, 2.0681726932525635, 0.0, -0.002156708946310945, 0.0, 0.001349727559271399, 0.0, -0.0010890136843460891, array([[ -4.98722057e-16]])]
[4.799999999999991, -0.4063155858547477, 1.5723729133605957, 2.259242296218872, 0.0, -0.0014716036349126545, 0.0, 0.001001342874804939, 0.0, -0.0010723629729492159, array([[ -3.18519696e-20]])]
[4.849999999999991, -0.6126709725332837, 1.7119066715240479, 1.7317681312561035, 0.0, 0.0004434553170927525, 0.0, -0.0002560125607057936, 0.0, -0.000985112928703226, array([[ -3.20426434e-10]])]
[4.899999999999991, -0.3873097578487254, 1.7629960775375366, 1.4275805950164795, 0.0, 0.0007402737983706933, 0.0, -0.0004345340946589466, 0.0, -0.0009756918554231904, array([[ -9.17196118e-06]])]
[4.94999999999999, -0.07606265058447571, 1.8389198780059814, 0.7754119634628296, 0.0, 0.0021990544266990712, 0.0, -0.0015063376494582842, 0.0, -0.0009378228750351213, array([[-15.28686148]])]
[4.99999999999999, 15.62578410231609, 1.8624887466430664, 0.3911415636539459, 0.0, 0.002546927547468001, 0.0, -0.0017687970878500557, 0.0, -0.0009134684703168604, array([[-580.32681581]])]
[5.04999999999999, 580.821919336816, 1.880373239517212, 0.5086801648139954, 0.0, 0.003101738815923832, 0.0, -0.0021987799876078133, 0.0, -0.0010344081147178217, array([[-243.0499907]])]
[5.09999999999999, 243.3892490060526, 1.9046688079833984, 1.0018486976623535, 0.0, 0.002719386567172226, 0.0, -0.001890867921304405, 0.0, -0.0010221047013325205, array([[-0.2158192]])]
[5.14999999999999, 0.2392344635760828, 2.0087969303131104, 2.029006242752075, 0.0, 0.0019484502486031344, 0.0, -0.001082113891969502, 0.0, -0.0012242409084010195, array([[ -2.42824248e-16]])]
[5.1999999999999895, -0.4999470085258966, 2.078206777572632, 2.182985305786133, 0.0, 0.0017559822038607784, 0.0, -0.0010081367681203416, 0.0, -0.00121387212556875, array([[ -1.04578301e-19]])]
[5.249999999999989, -0.6645215299159511, 2.21370267868042, 1.7000936269760132, 0.0, 0.0008827741233909755, 0.0, -0.0003760805178937003, 0.0, -0.0013196154570013431, array([[ -5.71905155e-11]])]
[5.299999999999989, -0.42782770038902024, 2.2636895179748535, 1.3974456787109375, 0.0, 0.0006613246002662724, 0.0, -0.00019777187705506452, 0.0, -0.0013188403949623635, array([[ -1.11286180e-06]])]
[5.349999999999989, -0.11963465060737792, 2.3377346992492676, 0.7456958889961243, 0.0, -0.00019329449921213487, 0.0, 0.0006131909828695023, 0.0, -0.0014055725154687804, array([[-0.96843218]])]
[5.399999999999989, 1.2786117386607978, 2.3571410179138184, 0.4382675886154175, 0.0, -0.0005040353761398316, 0.0, 0.0009239452713325431, 0.0, -0.0014054090465521732, array([[-17.84765709]])]
[5.449999999999989, 18.307015781832032, 2.3817386627197266, 0.5753843188285828, 0.0, -0.0007748526084697244, 0.0, 0.0013057412775442227, 0.0, -0.0014439516505372193, array([[-5.03249251]])]
[5.4999999999999885, 5.329448030846008, 2.4091122150421143, 1.0691677331924438, 0.0, -0.00039465125509029143, 0.0, 0.0009677710032873517, 0.0, -0.0014416978006588357, array([[-0.00185648]])]
[5.549999999999988, -0.018017991154405798, 2.5191538333892822, 2.0909996032714844, 0.0, -0.00012956595019975408, 0.0, 0.0006041105740655781, 0.0, -0.0012798704548775224, array([[ -3.72431999e-19]])]
[5.599999999999988, -0.5430479062613099, 2.5885629653930664, 2.0885820388793945, 0.0, 3.636210402579428e-05, 0.0, 0.0005963046486422184, 0.0, -0.0013034227080494945, array([[ -2.39719788e-19]])]
[5.649999999999988, -0.6715703859631716, 2.7121825218200684, 1.4802042245864868, 0.0, 0.0009774040562028612, 0.0, 0.0004463741984432296, 0.0, -0.0011884917523769598, array([[ -2.38839139e-09]])]
[5.699999999999988, -0.41984395761076754, 2.755215644836426, 1.173912525177002, 0.0, 0.0011828160316275397, 0.0, 0.00046525504958952045, 0.0, -0.0011807640647405265, array([[ -9.27225669e-06]])]
[5.749999999999988, -0.1813132297527049, 2.8139097690582275, 0.5208855271339417, 0.0, 0.0017716016825203916, 0.0, 0.0005840628978890523, 0.0, -0.0009941486993815098, array([[-0.21331815]])]
[5.799999999999987, 0.39168103320565795, 2.8261969089508057, 0.21287089586257935, 0.0, 0.0019120009659035053, 0.0, 0.0006326929393478584, 0.0, -0.0009493856158358227, array([[-0.72115799]])]
[5.849999999999987, 1.1356555750245754, 2.8218777179718018, -0.30004703998565674, 0.0, 0.002401202595522499, 0.0, 0.0008605126447785536, 0.0, -0.0007780941062525427, array([[-0.03890929]])]
[5.899999999999987, 0.607737042034114, 2.814943790435791, -0.06796331703662872, 0.0, 0.0022271480768302544, 0.0, 0.0007196353263211426, 0.0, -0.0007653445692257197, array([[-0.34919569]])]
[5.949999999999987, 0.7217477096028326, 2.8395373821258545, 0.5669086575508118, 0.0, 0.0015004176555284718, 0.0, 0.00030089932227575484, 0.0, -0.0007863190208032741, array([[-0.11282889]])]
[5.999999999999987, 0.1204258005157093, 2.85990309715271, 0.6794506311416626, 0.0, 0.0015042079603220897, 0.0, 0.00024400491064978865, 0.0, -0.0007951277206302205, array([[-0.02852715]])]
[6.0499999999999865, -0.13256854292029163, 2.908146619796753, 0.5105267763137817, 0.0, 0.0008899297394432199, 0.0, 0.00010152854076785749, 0.0, -0.000874164824997461, array([[-0.09506546]])]
[6.099999999999986, -0.09172440052296112, 2.920928955078125, 0.22787335515022278, 0.0, 0.0006479944529537403, 0.0, 0.00011320924293428187, 0.0, -0.0008702958122703543, array([[-0.28935649]])]
[6.149999999999986, 0.10844704072634798, 2.9166550636291504, -0.4192500710487366, 0.0, -0.00025708600839105, 0.0, 0.0002666671578546219, 0.0, -0.0008449100032586778, array([[-0.00315369]])]
[6.199999999999986, 0.08263748786103926, 2.8993239402770996, -0.7135649919509888, 0.0, -0.00048186561288325174, 0.0, 0.0002795221693173501, 0.0, -0.0008601159347297836, array([[ -1.78362045e-05]])]
[6.249999999999986, 0.15593919850415328, 2.8334808349609375, -1.3258545398712158, 0.0, -0.0009363743121604903, 0.0, 0.000269418886853041, 0.0, -0.0009358706140399021, array([[ -1.88931904e-12]])]
[6.299999999999986, 0.3771422170009135, 2.7752256393432617, -1.672728180885315, 0.0, -0.0009417485935375131, 0.0, 0.00025239731203604356, 0.0, -0.0009290354943020393, array([[ -1.05768575e-17]])]
[6.349999999999985, 0.4445837502716258, 2.664496660232544, -2.0695559978485107, 0.0, -0.00048033634474350814, 0.0, 0.00022890318558889617, 0.0, -0.0010257406947139433, array([[ -1.56003749e-24]])]
[6.399999999999985, 0.525542300230205, 2.597452402114868, -2.204730749130249, 0.0, -0.00034224602471022805, 0.0, 0.00019365254985269088, 0.0, -0.0010441792184450868, array([[ -3.46372501e-27]])]
[6.449999999999985, 0.4892364834728613, 2.4426345825195312, -2.417492389678955, 0.0, 5.7179531666886056e-05, 0.0, 7.415128833762354e-05, 0.0, -0.0010110164985184477, array([[ -3.30436431e-31]])]
[6.499999999999985, 0.48780081191003316, 2.3654632568359375, -2.492630958557129, 0.0, 0.00020065312948825916, 0.0, 5.959199358174067e-05, 0.0, -0.0009994643629562777, array([[ -8.60633067e-33]])]
[6.549999999999985, 0.42924846260440347, 2.1925108432769775, -2.6864936351776123, 0.0, 0.00038385972199934894, 0.0, 0.00011756527287620025, 0.0, -0.0010361999092360354, array([[ -6.73081051e-37]])]
[6.5999999999999845, 0.43878083884902297, 2.0279901027679443, -2.906895399093628, 0.0, 0.00022304409686533513, 0.0, 7.158589497662443e-05, 0.0, -0.0009487175616363669, array([[ -2.18300177e-40]])]
[6.649999999999984, 0.42968755425398797, 1.910515308380127, -3.0733625888824463, 0.0, 0.00023297530534455296, 0.0, 0.00012109239908060894, 0.0, -0.0009369946567885596, array([[ -6.25216056e-47]])]
[6.699999999999984, 0.4848834592468217, 1.8115378618240356, -3.2094805240631104, 0.0, 0.0002491587998998094, 0.0, 9.452946070968723e-05, 0.0, -0.0009425603694735388, array([[ -5.35124058e-51]])]
[6.749999999999984, 0.5013426698397547, 1.5869243144989014, -3.4683163166046143, 0.0, 0.00026243728419217936, 0.0, 0.00011142727725470521, 0.0, -0.0007759088668025781, array([[ -7.58545785e-59]])]
[6.799999999999984, 0.59751545176021, 1.4753730297088623, -3.5670573711395264, 0.0, 0.00023647922655234272, 0.0, 0.00012314053884272905, 0.0, -0.0007384825297192091, array([[ -3.89677365e-62]])]
[6.849999999999984, 0.6265113892517239, 1.230493187904358, -3.6773338317871094, 0.0, 0.00022548017005889417, 0.0, 0.00019206531027968432, 0.0, -0.0008343173958707342, array([[ -2.51227832e-65]])]
[6.8999999999999835, 0.6765154626658112, 1.1137049198150635, -3.682508945465088, 0.0, 0.00021144690130567344, 0.0, 0.00017402630621180367, 0.0, -0.0008242054077393472, array([[ -2.60932532e-65]])]
[6.949999999999983, 0.667205107958056, 0.8661394119262695, -3.6333842277526855, 0.0, 0.00017087466762322765, 0.0, 0.0002448818755455756, 0.0, -0.0006957392370036306, array([[ -1.05270207e-62]])]
[6.999999999999983, 0.6541990553127378, 0.7230188846588135, -3.5759356021881104, 0.0, 0.0001820818501573584, 0.0, 0.0002233132769088434, 0.0, -0.0006546888295334173, array([[ -2.18251673e-60]])]
[7.049999999999983, 0.6226868965452611, 0.5139164924621582, -3.5023796558380127, 0.0, 0.00014063666347621518, 0.0, 0.00019216978159639024, 0.0, -0.00064837359281439, array([[ -3.42239824e-57]])]
[7.099999999999983, 0.6023242340267747, 0.40361320972442627, -3.4788503646850586, 0.0, 0.00016166540005297945, 0.0, 0.00018860997541779068, 0.0, -0.0006605101512984497, array([[ -2.67958871e-56]])]
[7.149999999999983, 0.5950684093074798, 0.16992881894111633, -3.479698657989502, 0.0, 0.00018068063903486028, 0.0, 0.0002325837935946208, 0.0, -0.0007632584230140211, array([[ -6.93702575e-56]])]
[7.199999999999982, 0.6249321438901405, 0.03151358291506767, -3.498765468597412, 0.0, 0.00018348016746544806, 0.0, 0.00025504712739231875, 0.0, -0.0007679764832845937, array([[ -1.48668217e-56]])]
[7.249999999999982, 0.6567221392593905, -0.12020204216241837, -0.060286905616521835, 0.0, -0.02272818713154623, 0.0, 0.0226214482186362, 0.0, -0.00015129209563436303, array([[-58458.42690852]])]
[7.299999999999982, 58458.66248273757, -0.11913866549730301, 0.06947769224643707, 0.0, -0.02291890665323093, 0.0, 0.018128929742617126, 0.0, -0.00012084633326423637, array([[-92162.70985801]])]
[7.349999999999982, 92162.93267992407, -0.1018250361084938, 0.5927637815475464, 0.0, -0.024541205045144086, 0.0, 0.010608157303852467, 0.0, 0.0012602882769204471, array([[-5685.20372266]])]
[7.399999999999982, 5685.344372185459, -0.07467937469482422, 1.0501682758331299, 0.0, -0.017882572926656137, 0.0, 0.008595215503328507, 0.0, 0.0015162059967338928, array([[-3.30962399]])]
[7.4499999999999815, 3.475597438947641, 0.025456564500927925, 2.014233112335205, 0.0, -0.010145365209511465, 0.0, 0.0033223953070332093, 0.0, 0.0019395469839023785, array([[ -4.08371763e-14]])]
[7.499999999999981, -0.037200416499648385, 0.09549979120492935, 2.4616706371307373, 0.0, -0.0068643581120893336, 0.0, 0.002856783456976701, 0.0, 0.0018686931772598134, array([[ -5.79474083e-24]])]
[7.549999999999981, -0.18636487925519046, 0.27292150259017944, 2.5009560585021973, 0.0, -0.0018107884582870461, 0.0, -0.000163902769819036, 0.0, 0.001365622669181564, array([[ -7.92235270e-25]])]
[7.599999999999981, -0.3269978360028266, 0.3476276397705078, 2.205111026763916, 0.0, -0.0012614342287072167, 0.0, -0.0008784209125710143, 0.0, 0.0012083988536414974, array([[ -6.92582425e-18]])]
[7.649999999999981, -0.3429411975568235, 0.47465449571609497, 1.5530961751937866, 0.0, 0.0007856834025098641, 0.0, -0.003921629170252269, 0.0, 0.0006162491386489449, array([[ -5.85291445e-06]])]
[7.699999999999981, -0.20848833285623983, 0.5194640755653381, 1.2454290390014648, 0.0, 0.0014057342931308179, 0.0, -0.004785261909775909, 0.0, 0.0004127115769440549, array([[-0.06107528]])]
[7.7499999999999805, -0.1337660705487747, 0.5825227499008179, 0.5907064080238342, 0.0, 0.003509790691489865, 0.0, -0.00766816942028159, 0.0, -0.00030191250179892424, array([[-10517.41852516]])]
[7.79999999999998, 10517.541801220728, 0.6027101278305054, 0.03823902830481529, 0.0, 0.004852003680718276, 0.0, -0.009632375481144833, 0.0, -0.0006710905891347095, array([[-126616.37385274]])]
[7.84999999999998, 126616.81762929514, 0.612292468547821, 0.4153425097465515, 0.0, 0.004947765373533497, 0.0, -0.008891210604884226, 0.0, -0.0009413992798795217, array([[-66268.38364052]])]
[7.89999999999998, 66268.96404058598, 0.6867088675498962, 1.5172823667526245, 0.0, 0.004202233559861033, 0.0, -0.005112057819845229, 0.0, -0.0010560729887732377, array([[-161.46056637]])]
[7.94999999999998, 161.9299943850646, 0.7370247840881348, 1.932856798171997, 0.0, 0.004165376459869003, 0.0, -0.004171842009497075, 0.0, -0.0010035271792905823, array([[ -4.08921114e-12]])]
[7.99999999999998, -0.038407929107600124, 0.8081186413764954, 2.393704414367676, 0.0, 0.003960541064380436, 0.0, -0.0034927755166882864, 0.0, -0.0009712399062365415, array([[ -5.56353372e-22]])]
[8.04999999999998, -0.3447389798848927, 0.9915896654129028, 2.535271644592285, 0.0, 0.003348579262176861, 0.0, -0.0013810417129852454, 0.0, -0.0009445487465651115, array([[ -1.50622185e-25]])]
[8.09999999999998, -0.5334163616819382, 1.0699913501739502, 2.2427499294281006, 0.0, 0.003264128737132849, 0.0, -0.001020654362898634, 0.0, -0.0009368214167548674, array([[ -1.10414075e-18]])]
[8.14999999999998, -0.5423744626924694, 1.2050243616104126, 1.5919338464736938, 0.0, 0.0029428419047708293, 0.0, 0.0010609431106741777, 0.0, -0.0008817536676769198, array([[ -1.15998712e-06]])]
[8.199999999999982, -0.2535653474579427, 1.252997636795044, 1.284072756767273, 0.0, 0.0028789602266677482, 0.0, 0.0014638491103896839, 0.0, -0.0008688164285831925, array([[-0.01342166]])]
[8.249999999999982, -0.036255496447549995, 1.3274283409118652, 0.6325558423995972, 0.0, 0.002521523258200387, 0.0, 0.00356168946677413, 0.0, -0.00085716179017569, array([[-2895.52222525]])]
[8.299999999999983, 2895.7678495508244, 1.3470011949539185, 0.3261985778808594, 0.0, 0.002480093495373684, 0.0, 0.004053484253702539, 0.0, -0.0008888263613484002, array([[-25129.64129946]])]
[8.349999999999984, 25130.111820894366, 1.3697903156280518, 0.4641132652759552, 0.0, 0.0024008354082132983, 0.0, 0.004643338764459433, 0.0, -0.0008613053779414164, array([[-11909.94145835]])]
[8.399999999999984, 11910.32938362636, 1.4321562051773071, 1.3901875019073486, 0.0, 0.0027130859762344996, 0.0, 0.002472545790490555, 0.0, -0.0008679070360714763, array([[-15.98029251]])]
[8.449999999999985, 16.1787410707064, 1.5039985179901123, 1.9867926836013794, 0.0, 0.0025225227574442954, 0.0, 0.0018334501407190897, 0.0, -0.0009585525885628733, array([[ -6.85106445e-14]])]
[8.499999999999986, -0.1953222016763598, 1.6550225019454956, 2.826608180999756, 0.0, 0.002519059315455439, 0.0, 0.0009222162772514426, 0.0, -0.0009124986603306287, array([[ -3.81349420e-24]])]
[8.549999999999986, -0.39920816680082677, 1.7707918882369995, 2.6782965660095215, 0.0, 0.0023895612069563467, 0.0, 0.0005478344819205025, 0.0, -0.0009366077728233741, array([[ -1.99792780e-30]])]
[8.599999999999987, -0.4863806706747562, 1.9215916395187378, 2.1240618228912354, 0.0, 0.0020516372411041243, 0.0, 0.00011953876360792635, 0.0, -0.001013846827855396, array([[ -2.55496468e-23]])]
[8.649999999999988, -0.38839759724532064, 2.003945827484131, 1.7412949800491333, 0.0, 0.001865975918573245, 0.0, -0.00011024860719936501, 0.0, -0.0010348084839140964, array([[ -1.54445708e-10]])]
[8.699999999999989, -0.2865175055217046, 2.098214864730835, 1.1654183864593506, 0.0, 0.0015325132783543887, 0.0, -0.0003853159622783003, 0.0, -0.0010688867700649066, array([[ -3.45466228e-06]])]
[8.74999999999999, -0.1671028980328743, 2.141603946685791, 0.7810924649238586, 0.0, 0.0012977687084007655, 0.0, -0.0006198031845050489, 0.0, -0.0011191484072067492, array([[-7.78546704]])]
[8.79999999999999, 7.836955672103568, 2.177452564239502, 0.210455060005188, 0.0, 0.0009019068067370125, 0.0, -0.0009209212627604112, 0.0, -0.0012010949941564397, array([[-175.35566325]])]
[8.84999999999999, 175.62831321557607, 2.1929707527160645, 0.5166842341423035, 0.0, 0.0009024987587929642, 0.0, -0.0008458121382590723, 0.0, -0.001213705428200352, array([[-110.92164246]])]
[8.899999999999991, 111.240551158401, 2.2200052738189697, 1.0074012279510498, 0.0, 0.0012598857925688524, 0.0, -0.0005814599759148229, 0.0, -0.001226839962475247, array([[-0.08468398]])]
[8.949999999999992, 0.20726390014084678, 2.3298580646514893, 2.0310850143432617, 0.0, 0.001435932392436157, 0.0, -0.0003976364216679832, 0.0, -0.0011359747976978926, array([[ -8.74289507e-17]])]
[8.999999999999993, -0.18508906576873355, 2.4670541286468506, 2.0957071781158447, 0.0, 0.001847528140257415, 0.0, 4.752524655553856e-05, 0.0, -0.0011319366738988517, array([[ -6.05620869e-21]])]
[9.049999999999994, -0.36836388570070266, 2.5489940643310547, 1.74280846118927, 0.0, 0.0020101849175076874, 0.0, 0.0003943379629324107, 0.0, -0.0011795475036485365, array([[ -3.05033077e-12]])]
[9.099999999999994, -0.29800595729487084, 2.603487253189087, 1.4395921230316162, 0.0, 0.0020842446527080715, 0.0, 0.000550465852346403, 0.0, -0.0011697607121357308, array([[ -7.02962053e-08]])]
[9.149999999999995, -0.304159889564615, 2.6872167587280273, 0.7881641983985901, 0.0, 0.0023208579941949594, 0.0, 0.0013314648195662557, 0.0, -0.0011009331679588854, array([[-0.10658392]])]
[9.199999999999996, -0.05091336506054524, 2.7235958576202393, 0.21144236624240875, 0.0, 0.0024508207325793924, 0.0, 0.0020820667214341026, 0.0, -0.00102094398945379, array([[-2.37757964]])]
[9.249999999999996, 2.4309490908238516, 2.7282984256744385, -0.17257535457611084, 0.0, 0.0025173522670869438, 0.0, 0.0025001687766454594, 0.0, -0.0009816579122483167, array([[-1.19328966]])]
[9.299999999999997, 1.496938853641711, 2.723933696746826, -0.15320532023906708, 0.0, 0.002510481415155476, 0.0, 0.002712699931536983, 0.0, -0.001008205327100155, array([[-1.37745111]])]
[9.349999999999998, 1.7822873188051043, 2.7542214393615723, 0.8764928579330444, 0.0, 0.0020721386008750054, 0.0, 0.0015041307046732076, 0.0, -0.0009617508202699394, array([[-0.01450746]])]
[9.399999999999999, 0.07171121568912736, 2.7929115295410156, 1.3702168464660645, 0.0, 0.002105423910273624, 0.0, 0.0013841136983181277, 0.0, -0.0009480278747192229, array([[ -1.07839107e-07]])]
[9.45, -0.16638743657468302, 2.916541814804077, 1.6736980676651, 0.0, 0.0016854918741982996, 0.0, 0.0007218313935879762, 0.0, -0.0008913036571846007, array([[ -1.55748194e-12]])]
[9.5, -0.35139763922550493, 2.9693543910980225, 1.3954206705093384, 0.0, 0.0015712980293668512, 0.0, 0.0005074894196237269, 0.0, -0.0008049435144900248, array([[ -9.53741219e-09]])]
[9.55, -0.3591992871467039, 3.050269603729248, 0.7487792372703552, 0.0, 0.0010344787132953125, 0.0, -0.00011648288244924265, 0.0, -0.0006795518126297478, array([[-0.00598024]])]
[9.600000000000001, -0.2268132222777712, 3.0839734077453613, 0.1728464663028717, 0.0, 0.0006740723064365415, 0.0, -0.0005352786197009115, 0.0, -0.0005375527909830697, array([[-0.09579023]])]
[9.650000000000002, -0.12070897825991848, 3.0869531631469727, -0.21184222400188446, 0.0, 0.00038177831089656087, 0.0, -0.000706726958910753, 0.0, -0.0004629916160324328, array([[-0.0244658]])]
[9.700000000000003, -0.0364287438111985, 3.077847719192505, -0.5186966061592102, 0.0, 0.00019456471039222482, 0.0, -0.0007867615026769643, 0.0, -0.0003792296211273479, array([[-0.00039228]])]
[9.750000000000004, -0.019335599409448186, 3.0264639854431152, -1.1724425554275513, 0.0, -0.0005154523075435831, 0.0, -0.0010526220907146541, 0.0, -0.00019360423392968297, array([[ -1.00879222e-10]])]
[9.800000000000004, 0.1679642861731632, 2.986523389816284, -1.4801936149597168, 0.0, -0.0007262532243025491, 0.0, -0.0011030525613326234, 0.0, -0.00018352833274130667, array([[ -4.45874256e-15]])]
[9.850000000000005, 0.24712047817302196, 2.8715007305145264, -2.09736704826355, 0.0, -0.001360823368339647, 0.0, -0.0012110316155393662, 0.0, -0.000119547441559362, array([[ -1.20182438e-25]])]
[9.900000000000006, 0.48003591480410096, 2.7377684116363525, -2.5506365299224854, 0.0, -0.0010831392945532057, 0.0, -0.0009490678944950177, 0.0, 1.8626859699733448e-06, array([[ -7.16193811e-31]])]
[9.950000000000006, 0.620330643759489, 2.6356961727142334, -2.7199249267578125, 0.0, -0.00049494509673865, 0.0, -0.0006466812534637015, 0.0, -4.755020147701285e-05, array([[ -2.02500888e-39]])]
[10.000000000000007, 0.8410282250493167, 2.549943208694458, -2.789947748184204, 0.0, -0.00013922767169484063, 0.0, -0.0004555608183157607, 0.0, -3.604598960240472e-05, array([[ -4.94891036e-41]])]
[10.050000000000008, 0.9241073108771591, 2.3727355003356934, -2.4884321689605713, 0.0, 0.0007033798458500942, 0.0, -0.00010803651572843998, 0.0, -0.00010321348218455566, array([[ -5.29309013e-32]])]
[10.100000000000009, 0.8028083257575929, 2.283550500869751, -2.1043057441711426, 0.0, 0.0008302704279391177, 0.0, 2.674610672422673e-05, 0.0, -0.00019774192937113946, array([[ -7.01237332e-23]])]
[10.15000000000001, 0.6006465832585692, 2.1794002056121826, -1.5543906688690186, 0.0, 0.0009173143732188229, 0.0, 0.00013982151924635662, 0.0, -0.00037150251972795106, array([[ -2.80093583e-12]])]
[10.20000000000001, 0.31178762005433386, 2.123626947402954, -1.3999096155166626, 0.0, 0.0008908421021346844, 0.0, 0.0001832476023978576, 0.0, -0.0003869950687985526, array([[ -7.32433238e-10]])]
[10.25000000000001, 0.16446163098892214, 2.0425219535827637, -1.5681042671203613, 0.0, 0.0009520031574925498, 0.0, 0.00022901665435735478, 0.0, -0.00044142141030424067, array([[ -6.30043481e-12]])]
[10.300000000000011, 0.18936873447911165, 1.940429925918579, -2.023104667663574, 0.0, 0.0009791043092193697, 0.0, 0.00024946435076054054, 0.0, -0.00041224267598363317, array([[ -6.18905348e-20]])]
[10.350000000000012, 0.2482157618231773, 1.8562935590744019, -2.348144292831421, 0.0, 0.001003891282347489, 0.0, 0.0002190059361883508, 0.0, -0.0003761771681391843, array([[ -2.55962642e-26]])]
[10.400000000000013, 0.45850910078559814, 1.7795542478561401, -2.601670503616333, 0.0, 0.0010380277807603535, 0.0, 0.0002326870674283433, 0.0, -0.00036267933696186713, array([[ -2.00873099e-32]])]
[10.450000000000014, 0.5311293646363169, 1.5935884714126587, -2.9804513454437256, 0.0, 0.0009990642718435507, 0.0, 0.0002016368257504934, 0.0, -0.0003535113820015966, array([[ -2.88704703e-42]])]
[10.500000000000014, 0.6425357765868007, 1.4146476984024048, -3.125732421875, 0.0, 0.000915462100682556, 0.0, 0.00028104578201574416, 0.0, -0.00031319107085476736, array([[ -9.74004847e-45]])]
[10.550000000000015, 0.6142442524414509, 1.2926616668701172, -3.1182096004486084, 0.0, 0.000815620715866909, 0.0, 0.0003428394878888499, 0.0, -0.0003261611041098731, array([[ -1.58487799e-45]])]
[10.600000000000016, 0.5779184053840637, 1.1712539196014404, -3.097750663757324, 0.0, 0.0007445622441659639, 0.0, 0.0003211308428558277, 0.0, -0.00031977504547004457, array([[ -1.18489158e-44]])]
[10.650000000000016, 0.5033671443014145, 0.9917969703674316, -3.109722852706909, 0.0, 0.0008239929318609052, 0.0, 0.000233341796390196, 0.0, -0.0004000460621350953, array([[ -2.06208442e-44]])]
[10.700000000000017, 0.4703728387290686, 0.8946376442909241, -3.1618540287017822, 0.0, 0.0008174704157868579, 0.0, 0.00022645664093938784, 0.0, -0.0004091533567738344, array([[ -5.69390325e-46]])]
[10.750000000000018, 0.4759852195928842, 0.6805928349494934, -3.356919765472412, 0.0, 0.0005906572818735709, 0.0, 0.0002723773539907859, 0.0, -0.00048317534342291735, array([[ -7.62203860e-52]])]
[10.800000000000018, 0.5800379984655528, 0.574369490146637, -3.4668185710906982, 0.0, 0.0006114255666957083, 0.0, 0.00029448118979909, 0.0, -0.0005047449439913648, array([[ -1.29999848e-55]])]
[10.85000000000002, 0.6550376036467999, 0.3385371267795563, -3.626697063446045, 0.0, 0.0005656212682815542, 0.0, 0.0003625142726310857, 0.0, -0.0005025408116502734, array([[ -6.71802447e-61]])]
[10.90000000000002, 0.7522236307536512, 0.12705805897712708, -3.581411600112915, 0.0, 0.0006381424698130338, 0.0, 0.0002822350269320006, 0.0, -0.0004784452841372176, array([[ -1.21961709e-60]])]
[10.95000000000002, 0.7554760759403109, -0.00986472424119711, -3.434802770614624, 0.0, 0.0005102015639848863, 0.0, 0.0002976006201533132, 0.0, -0.00036870902399241114, array([[ -1.43378480e-53]])]
[11.000000000000021, 0.6750703396878838, -0.23865675926208496, -3.1391334533691406, 0.0, 0.000430917303464292, 0.0, 0.00019079173017609518, 0.0, -0.00045472340681532327, array([[ -4.68068596e-49]])]
[11.050000000000022, 0.5872744751276522, -0.27218812704086304, -0.10144653171300888, 0.0, -0.019571056464473227, 0.0, 0.020416267182676213, 0.0, 0.00016531521431002535, array([[-136567.72832642]])]
[11.100000000000023, 136567.51840476645, -0.2700998783111572, -0.006625870242714882, 0.0, -0.017084874528133707, 0.0, 0.013968556649688095, 0.0, -0.0008160601836418878, array([[-200863.96643978]])]
[11.150000000000023, 200864.17562703363, -0.24861456453800201, 0.5857475399971008, 0.0, -0.017464796971596953, 0.0, 0.00498215426187637, 0.0, -0.006411073344138964, array([[-12168.91886123]])]
[11.200000000000024, 12169.045043378965, -0.2191607505083084, 1.0487562417984009, 0.0, -0.011968740033038465, 0.0, 0.004318161543997045, 0.0, -0.007370769446191771, array([[-6.33729621]])]
[11.250000000000025, 6.463913127175463, -0.10863220691680908, 2.014618158340454, 0.0, -0.007379582887976717, 0.0, 0.0015405760330349254, 0.0, -0.007290918877269973, array([[ -8.34292503e-14]])]
[11.300000000000026, -0.07984902814145986, -0.03441391885280609, 2.4629671573638916, 0.0, -0.005496620273512606, 0.0, 0.0015758763803412291, 0.0, -0.00684446825507999, array([[ -1.10632001e-23]])]
[11.350000000000026, -0.22976952955744598, 0.15801700949668884, 2.6834444999694824, 0.0, -0.002119859137110624, 0.0, -0.0001630540934773566, 0.0, -0.004527585279736388, array([[ -3.44087560e-29]])]
[11.400000000000027, -0.4427648296314105, 0.30837005376815796, 2.1292479038238525, 0.0, -0.0015893331989316447, 0.0, -0.001271430025657046, 0.0, -0.0028129684666583503, array([[ -7.92718468e-22]])]
[11.450000000000028, -0.46265644154693186, 0.39012834429740906, 1.746247410774231, 0.0, -0.001170984766369202, 0.0, -0.00215895434144137, 0.0, -0.0017251565765681388, array([[ -1.38330378e-08]])]
[11.500000000000028, -0.3432780753961734, 0.4443105459213257, 1.4392311573028564, 0.0, -0.0009007755244834448, 0.0, -0.002705666819095151, 0.0, -0.001099995372135501, array([[-0.0005955]])]
[11.55000000000003, -0.26011938737741663, 0.5271969437599182, 0.7867457866668701, 0.0, -5.5281527713793434e-05, 0.0, -0.004371778084553326, 0.0, 0.0009030770833702957, array([[-2182.85007841]])]
[11.60000000000003, 2182.982993074586, 0.5505414605140686, 0.47948986291885376, 0.0, 0.0002089590943914191, 0.0, -0.004905344205601914, 0.0, 0.001570895460175737, array([[-69961.07337521]])]
[11.65000000000003, 69961.52002143842, 0.582310140132904, 0.607084333896637, 0.0, 0.0014029435800295704, 0.0, -0.004957189249540843, 0.0, 0.0033982074993334542, array([[-23090.9478162]])]
[11.700000000000031, 23091.478841092554, 0.6125910878181458, 1.091321587562561, 0.0, 0.0017081869252299686, 0.0, -0.004141927205909455, 0.0, 0.003543804597132126, array([[-6.85475453]])]
[11.750000000000032, 7.10932047797772, 0.72872394323349, 2.1021080017089844, 0.0, 0.001991098192394653, 0.0, -0.0023172379452507243, 0.0, 0.0032965321749864316, array([[ -2.98312459e-15]])]
[11.800000000000033, -0.2576982855138451, 0.8063209056854248, 2.557420253753662, 0.0, 0.00213378962924142, 0.0, -0.0018827060941102862, 0.0, 0.0030798574440027643, array([[ -7.70492904e-26]])]
[11.850000000000033, -0.5658548612663298, 1.009161114692688, 2.781808376312256, 0.0, 0.0020015869528602634, 0.0, -0.0006523119404298949, 0.0, 0.0023048659136326076, array([[ -5.66481479e-32]])]
[11.900000000000034, -0.787508681257665, 1.0978882312774658, 2.492753028869629, 0.0, 0.0018465123759139827, 0.0, -0.0003772873614071893, 0.0, 0.0021337164898252727, array([[ -1.96911861e-24]])]
[11.950000000000035, -0.6855271820229888, 1.254656195640564, 1.84480619430542, 0.0, 0.0015105882570530494, 0.0, 0.0008210589886525262, 0.0, 0.0014998684658868533, array([[ -9.72834599e-11]])]
[12.000000000000036, -0.31640432842040683, 1.3126755952835083, 1.5379503965377808, 0.0, 0.0013578903260391434, 0.0, 0.0011279063908930622, 0.0, 0.0013521629522999857, array([[ -7.18505795e-06]])]
[12.050000000000036, 0.00330057983411581, 1.4040035009384155, 0.8853804469108582, 0.0, 0.0008404108644556384, 0.0, 0.0024916363729263463, 0.0, 0.0007553919391880585, array([[-85.59067563]])]
[12.100000000000037, 85.98539851096956, 1.4311408996582031, 0.5788533687591553, 0.0, 0.0007512362731020698, 0.0, 0.0028127985175794633, 0.0, 0.0006194357687445015, array([[-4555.90534634]])]
[12.150000000000038, 4556.370551233311, 1.4743549823760986, 0.8089670538902283, 0.0, 0.0007390331697869373, 0.0, 0.0027694798767049877, 0.0, 0.00012485094280607214, array([[-228.26002279]])]
[12.200000000000038, 228.52691050040215, 1.5588501691818237, 1.7177423238754272, 0.0, 0.0009990945833155051, 0.0, 0.001675533199105495, 0.0, 8.985119137338246e-05, array([[-0.0053605]])]
[12.250000000000039, -0.042790404475314105, 1.646222710609436, 2.299644708633423, 0.0, 0.0011165738426875183, 0.0, 0.0014178310335071717, 0.0, 0.0002737346427002799, array([[ -1.24962954e-20]])]
[12.30000000000004, -0.5651051379166692, 1.7264622449874878, 2.294276237487793, 0.0, 0.001232218095601141, 0.0, 0.0012302766398668615, 0.0, 0.00032646894256895345, array([[ -1.07103508e-20]])]
[12.35000000000004, -0.6976820215359777, 1.8737751245498657, 1.6876835823059082, 0.0, 0.001905704153045328, 0.0, 0.0003960636740589425, 0.0, 0.0007406449907216831, array([[ -3.29608912e-09]])]
[12.400000000000041, -0.532283426119569, 1.927366018295288, 1.382357120513916, 0.0, 0.0021002734361191848, 0.0, 0.00020908242003046674, 0.0, 0.000836076323718435, array([[ -6.18164259e-05]])]
[12.450000000000042, -0.2631991840319182, 2.0093626976013184, 0.7296194434165955, 0.0, 0.0026529380677763137, 0.0, -0.00045615986874790416, 0.0, 0.0012829362404252677, array([[-48.64358583]])]
[12.500000000000043, 48.81845003295247, 2.0320112705230713, 0.4226812422275543, 0.0, 0.0027781031461776517, 0.0, -0.0006070220445004066, 0.0, 0.0014167254368338382, array([[-747.42785384]])]
[12.550000000000043, 747.9252218300865, 2.059617280960083, 0.46746161580085754, 0.0, 0.0030117111571674746, 0.0, -0.0008998191055506914, 0.0, 0.0018375145376967844, array([[-504.01232203]])]
[12.600000000000044, 504.5172056221999, 2.086540937423706, 0.9598559737205505, 0.0, 0.0026689088768280227, 0.0, -0.000677915741749213, 0.0, 0.0018796895880851875, array([[-0.6830155]])]
[12.650000000000045, 0.8890412782336241, 2.200906753540039, 1.9877902269363403, 0.0, 0.0023875099096799216, 0.0, -0.0002736880143038006, 0.0, 0.0017335959803197532, array([[ -2.02852720e-15]])]
[12.700000000000045, -0.31585240342552756, 2.2767553329467773, 2.383053779602051, 0.0, 0.0021710876247162487, 0.0, -0.0002201010060117176, 0.0, 0.0016737507191358374, array([[ -3.41596981e-24]])]
[12.750000000000046, -0.600287074355647, 2.461578369140625, 2.4034881591796875, 0.0, 0.0016520588902649886, 0.0, 0.00018588995322926634, 0.0, 0.0015393570889031532, array([[ -2.95453101e-25]])]
[12.800000000000047, -0.738930448680982, 2.621877670288086, 1.7294487953186035, 0.0, 0.0013729586835737788, 0.0, 0.0006730081604043397, 0.0, 0.0014820085288126251, array([[ -5.34897568e-19]])]
[12.850000000000048, -0.6165725759675801, 2.671172618865967, 1.4610849618911743, 0.0, 0.0011453145590697275, 0.0, 0.000980977924997728, 0.0, 0.001406243959327418, array([[ -2.78120555e-08]])]
[12.900000000000048, -0.21314444068113786, 2.7505455017089844, 0.8851913809776306, 0.0, 0.0008550835375647554, 0.0, 0.001558623816185572, 0.0, 0.0012531026184637952, array([[-0.01599961]])]
[12.950000000000049, 0.12480023303319833, 2.7841155529022217, 0.5018620491027832, 0.0, 0.000594136194719339, 0.0, 0.0020320352127161483, 0.0, 0.0011928543869060228, array([[-1.43990536]])]
[13.00000000000005, 1.899678642302431, 2.806478261947632, -0.05465176701545715, 0.0, 0.00024139459309364725, 0.0, 0.0026550889589703293, 0.0, 0.0010459003722400224, array([[-3.8073121]])]
[13.05000000000005, 4.314691892393743, 2.813249349594116, 0.19923070073127747, 0.0, 0.00044377129581439433, 0.0, 0.0021816966634906824, 0.0, 0.0009798931107298933, array([[-3.55714031]])]
[13.100000000000051, 3.9522573928352385, 2.8400917053222656, 0.8214683532714844, 0.0, 0.0006515703802741872, 0.0, 0.0018450562400048305, 0.0, 0.0009461239554829115, array([[-0.01993133]])]
[13.150000000000052, 0.04955233823425724, 2.9262583255767822, 1.7388367652893066, 0.0, 0.0007609601511503004, 0.0, 0.001075765070184897, 0.0, 0.0009546141427511007, array([[ -1.59660190e-13]])]
[13.200000000000053, -0.45007074128377866, 3.0427539348602295, 1.629390835762024, 0.0, 0.0012587567835724957, 0.0, 0.0006232095243635072, 0.0, 0.001022032115671223, array([[ -1.48094566e-15]])]
[13.250000000000053, -0.6220465636971428, 3.1058900356292725, 1.2594366073608398, 0.0, 0.0015459029372450598, 0.0, 0.00047231026368865087, 0.0, 0.0010676078927778112, array([[ -1.51734548e-07]])]
[13.300000000000054, -0.3844487545567192, 3.180511474609375, 0.5710373520851135, 0.0, 0.001869895549447953, 0.0, 0.00031986991956579197, 0.0, 0.0010420853576624204, array([[ -9.60250361e-05]])]
[13.350000000000055, -0.213936089869184, 3.196279287338257, 0.3025107681751251, 0.0, 0.0020629652781499475, 0.0, 0.00019584338682938167, 0.0, 0.0010541266897656843, array([[-0.06511309]])]
[13.400000000000055, 0.2814648765081658, 3.2045345306396484, -0.004643164109438658, 0.0, 0.0021144269450853433, 0.0, 0.0001730122614301344, 0.0, 0.0010767826497666642, array([[-0.039286]])]
[13.450000000000056, 0.4486549692779185, 3.195549964904785, -0.5497648119926453, 0.0, 0.0023308302317615387, 0.0, 7.617052027086877e-05, 0.0, 0.001141594776964921, array([[ -8.46807880e-05]])]
[13.500000000000057, 0.5598711731671219, 3.1796679496765137, -0.7108902931213379, 0.0, 0.002213661728154022, 0.0, 2.322374667035565e-05, 0.0, 0.0011145577160277316, array([[ -3.71244776e-06]])]
[13.550000000000058, 0.5555144459612934, 3.1350769996643066, -0.8434550166130066, 0.0, 0.001638028333130451, 0.0, 7.323997734457735e-05, 0.0, 0.001073034866852642, array([[ -3.13384624e-07]])]
[13.600000000000058, 0.49738464645007424, 3.1117701530456543, -0.8615526556968689, 0.0, 0.0014414518919888474, 0.0, 8.643551916792742e-05, 0.0, 0.0011067545703101014, array([[ -2.28656330e-07]])]
[13.650000000000059, 0.38007349062363877, 3.059631824493408, -0.9475384950637817, 0.0, 0.0011460333999103968, 0.0, 0.00018445076178959843, 0.0, 0.0010096915319901514, array([[ -5.05312684e-08]])]
[13.70000000000006, 0.30281570858454737, 3.031254529953003, -1.0626806020736694, 0.0, 0.001002633191048257, 0.0, 0.00015017028114028966, 0.0, 0.0010078065750849178, array([[ -2.43281317e-09]])]
[13.75000000000006, 0.2350891634311278, 2.9555866718292236, -1.4308714866638184, 0.0, 0.000856429034502053, 0.0, 0.00018407900370434423, 0.0, 0.0009127267506291596, array([[ -6.31008678e-14]])]
[13.800000000000061, 0.281753495820198, 2.8976426124572754, -1.7063169479370117, 0.0, 0.0007772065366472581, 0.0, 0.00022698000326354606, 0.0, 0.0008761526680557498, array([[ -3.82817826e-18]])]
[13.850000000000062, 0.3721722114844769, 2.792914867401123, -2.129635810852051, 0.0, 0.0005949988712711963, 0.0, 0.00015296081430225982, 0.0, 0.0008769528316487582, array([[ -1.47778612e-25]])]
[13.900000000000063, 0.5182977598569095, 2.7272071838378906, -2.3132388591766357, 0.0, 0.0006107245500153214, 0.0, 0.0001746131205753083, 0.0, 0.0008831984533380021, array([[ -2.34596069e-29]])]
[13.950000000000063, 0.5753253090554178, 2.572340726852417, -2.553964614868164, 0.0, 0.0006248328926723752, 0.0, 0.0003480170867767275, 0.0, 0.0008962350879789289, array([[ -2.71755125e-34]])]
[14.000000000000064, 0.6389486182651668, 2.396782159805298, -2.614943265914917, 0.0, 0.0005528503488998864, 0.0, 0.00030737364081125687, 0.0, 0.0008689001710899022, array([[ -3.42466453e-35]])]
[14.050000000000065, 0.5996951349410414, 2.328562021255493, -2.5899598598480225, 0.0, 0.0005538839015363932, 0.0, 0.00027390267767345513, 0.0, 0.0008484076571226203, array([[ -5.46870173e-34]])]
[14.100000000000065, 0.5399535022763758, 2.250748872756958, -2.56904673576355, 0.0, 0.000548522872460449, 0.0, 0.00023476071678635516, 0.0, 0.0008627261151165942, array([[ -3.62102225e-33]])]
[14.150000000000066, 0.4510530061032176, 2.086212635040283, -2.6080827713012695, 0.0, 0.0005926043891880439, 0.0, 0.0004826956299383808, 0.0, 0.0008496549374252465, array([[ -2.45482237e-33]])]
[14.200000000000067, 0.415109171305269, 2.005927324295044, -2.688061475753784, 0.0, 0.0005385771208701139, 0.0, 0.0004931565754601751, 0.0, 0.0008118811414935682, array([[ -3.30872840e-35]])]
[14.250000000000068, 0.385231988206312, 1.8267282247543335, -2.954737901687622, 0.0, 0.0003248391770046832, 0.0, 0.0003755939214526513, 0.0, 0.0008236104606819066, array([[ -5.76377736e-42]])]
[14.300000000000068, 0.462641738740623, 1.734864592552185, -3.1078431606292725, 0.0, 0.00033433494048458657, 0.0, 0.0002932091730681426, 0.0, 0.0007908925194743482, array([[ -2.09192198e-46]])]
[14.350000000000069, 0.48862830458940565, 1.5239171981811523, -3.4005861282348633, 0.0, 0.0004330544131938958, 0.0, 0.00013246452246045836, 0.0, 0.0007171994984228273, array([[ -2.99781249e-55]])]
[14.40000000000007, 0.5911372164797186, 1.4176570177078247, -3.5094215869903564, 0.0, 0.0004481245574739734, 0.0, 0.00010640959308212037, 0.0, 0.0006964583509403564, array([[ -7.89665397e-59]])]
[14.45000000000007, 0.6110418091166019, 1.1824672222137451, -3.641761302947998, 0.0, 0.0003988957297684761, 0.0, 0.00017765163158649979, 0.0, 0.0007669395279259423, array([[ -7.38387838e-63]])]
[14.500000000000071, 0.6550253360970169, 1.0692306756973267, -3.655735731124878, 0.0, 0.0004084611313145706, 0.0, 0.00021228966912206724, 0.0, 0.0007416593436529116, array([[ -3.69276681e-63]])]
[14.550000000000072, 0.6411761410064696, 0.8291766047477722, -3.6224091053009033, 0.0, 0.0003797826016744081, 0.0, 0.0003459969039873909, 0.0, 0.0005855697146106589, array([[ -3.18354052e-61]])]
[14.600000000000072, 0.6329329334521144, 0.6209781765937805, -3.5722851753234863, 0.0, 0.000289483083459892, 0.0, 0.0002788976956041016, 0.0, 0.000591360670502953, array([[ -5.47682518e-60]])]
[14.650000000000073, 0.6163921225254237, 0.484651654958725, -3.5508649349212646, 0.0, 0.000288553495211968, 0.0, 0.00020820199172190667, 0.0, 0.0006611455195470588, array([[ -6.53584138e-58]])]
[14.700000000000074, 0.6245544138907492, 0.2809441387653351, -3.5388543605804443, 0.0, 0.00018570445400047358, 0.0, 0.00023613710575140273, 0.0, 0.0007486342585088546, array([[ -1.73810344e-57]])]
[14.750000000000075, 0.6344083360525667, 0.1452837586402893, -3.5317726135253906, 0.0, 0.00021584207300499113, 0.0, 0.00026314255396246613, 0.0, 0.0007375139641396126, array([[ -9.49664518e-57]])]
[14.800000000000075, 0.6597197225335389, 0.03656548261642456, -3.5217111110687256, 0.0, 0.0002449463506754882, 0.0, 0.000291647242975936, 0.0, 0.0007145934005593008, array([[ -2.24819243e-56]])]
[14.850000000000076, 0.6708302192037627, -0.19197292625904083, -3.4623515605926514, 0.0, 0.000267749870308108, 0.0, 0.00014127518513636485, 0.0, 0.0006721768394550579, array([[ -5.38316469e-54]])]
[14.900000000000077, 0.6678682477610967, -0.2981765568256378, -3.414278268814087, 0.0, 0.00024437041205535673, 0.0, 0.00012161724966866305, 0.0, 0.0006514365385256822, array([[ -2.32470690e-52]])]
[14.950000000000077, 0.6522553305811732, -0.3459108769893646, 0.021826859563589096, 0.0, -0.023317900329583266, 0.0, 0.010910853648948355, 0.0, 0.0007088780069776486, array([[-159099.3900639]])]
[15.000000000000078, 159099.5707077787, -0.3377988338470459, 0.1582074612379074, 0.0, -0.030562802242674315, 0.0, 0.007984301681209114, 0.0, 0.0006448096463842008, array([[-142850.01151786]])]
[15.050000000000079, 142850.167829617, -0.30446067452430725, 0.7549467086791992, 0.0, -0.018330856157178686, 0.0, 0.006822111283119594, 0.0, 0.00024574723603702564, array([[-1297.85916059]])]
[15.10000000000008, 1297.7561862295743, -0.2556016147136688, 1.3451544046401978, 0.0, -0.015816377409006994, 0.0, 0.005028534974085985, 0.0, 0.00018024660250349155, array([[-0.00401324]])]
[15.15000000000008, -0.22667646064586125, -0.1387304961681366, 2.213632345199585, 0.0, -0.007187172939236537, 0.0, 0.002875872357482341, 0.0, 0.00032043620364592787, array([[ -7.08952378e-18]])]
[15.200000000000081, -0.4601644497963786, -0.06007170304656029, 2.28869366645813, 0.0, -0.004885917800577693, 0.0, 0.0022210878815672394, 0.0, 0.00039303169540332494, array([[ -1.75262005e-19]])]
[15.250000000000082, -0.42820071470013255, 0.08664285391569138, 1.691774845123291, 0.0, 0.003156961878464101, 0.0, -0.001092726084789197, 0.0, 0.0007109793327094523, array([[ -9.98790231e-08]])]
[15.300000000000082, -0.24024683945489628, 0.14011429250240326, 1.3855392932891846, 0.0, 0.004692760575307732, 0.0, -0.0017907111960856748, 0.0, 0.0007597544686181417, array([[-0.00300086]])]
[15.350000000000083, -0.15788380750394357, 0.22178244590759277, 0.7320488095283508, 0.0, 0.012716107155871754, 0.0, -0.005136452952866459, 0.0, 0.001036042276198194, array([[-5203.13422771]])]
[15.400000000000084, 5203.323637803651, 0.24439536035060883, 0.4242700934410095, 0.0, 0.014234405629385983, 0.0, -0.005762200896483338, 0.0, 0.0010390754061482869, array([[-118962.54760597]])]
[15.450000000000085, 118962.83369848331, 0.27872368693351746, 0.5384421348571777, 0.0, 0.017211207610956306, 0.0, -0.007031797753243597, 0.0, 0.0012489603621191304, array([[-55441.39204606]])]
[15.500000000000085, 55441.62527129641, 0.30954819917678833, 1.0208097696304321, 0.0, 0.014198847162562792, 0.0, -0.005698327717036186, 0.0, 0.0012624259166777892, array([[-39.64805499]])]
