time, uz, alt, vel_alt, uthe, roll, uphi, pitch, upsi, yaw, F
[0.0, 0.0, 0.02264988422393799, 0.04155939072370529, 0.0, -0.0136950856241702, 0.0, 0.02376963788601649, 0.0, -0.08445461753894024, array([[ 17.07919435]])]
[0.05, -17.08254276256153, 0.02264988422393799, 0.04155939072370529, 0.0, -0.0136950856241702, 0.0, 0.02376963788601649, 0.0, -0.08445461753894024, array([[ 45.80800787]])]
[0.1, -45.81176406991605, 0.02308179810643196, 0.0413997620344162, 0.0, -0.01372184106918503, 0.0, 0.023760269294156394, 0.0, -0.08449284434873824, array([[ 101.86947126]])]
[0.15000000000000002, -101.87327114017627, 0.023218609392642975, 0.04165476933121681, 0.0, -0.013799705520965358, 0.0, 0.023729747507949858, 0.0, -0.08449795285014029, array([[-371.08839856]])]
[0.2, 371.2532689566241, 0.023917987942695618, 0.04273726046085358, 0.0, -0.013776420631455028, 0.0, 0.02376546350173629, 0.0, -0.08451008679319649, array([[-1836.59228552]])]
[0.25, 1836.9140284959271, 0.025716593489050865, 0.21866610646247864, 0.0, -0.012815349729004636, 0.0, 0.021247602627812428, 0.0, -0.08329661469524817, array([[-2859.38370328]])]
[0.3, 2859.5855117281426, 0.07425180822610855, 1.2148059606552124, 0.0, -0.009072020649543383, 0.0, 0.012182803575419766, 0.0, -0.07465262799461883, array([[-0.00259741]])]
[0.35, -0.663157118476854, 0.11316511034965515, 1.6325141191482544, 0.0, -0.007076217559000328, 0.0, 0.009312321983471896, 0.0, -0.06483276837883918, array([[ -6.60573097e-09]])]
[0.39999999999999997, -0.9748803573866843, 0.24726156890392303, 1.7712539434432983, 0.0, -0.003904508418752921, 0.0, 0.005060606959848222, 0.0, -0.052446918202067025, array([[ -5.25690746e-11]])]
[0.44999999999999996, -1.1905679211705498, 0.292489230632782, 1.5147924423217773, 0.0, -0.001629459097723031, 0.0, 0.001752587305009115, 0.0, -0.043761048956426615, array([[ -5.25000694e-07]])]
[0.49999999999999994, -1.041788341817257, 0.3751511573791504, 0.8273460865020752, 0.0, 0.0018519342708049982, 0.0, -0.0032582896469223327, 0.0, -0.03082880896680895, array([[-15.35657859]])]
[0.5499999999999999, 14.737894582471322, 0.3935212194919586, 0.5587102770805359, 0.0, 0.0042016045681618425, 0.0, -0.006609162913948621, 0.0, -0.02229814422017214, array([[-508.84224902]])]
[0.6, 509.0719795373693, 0.42718398571014404, 0.8053848147392273, 0.0, 0.00600191297968878, 0.0, -0.008404900862885256, 0.0, -0.010766120637315142, array([[-23.56125678]])]
[0.65, 23.476827028176363, 0.45473235845565796, 1.2101988792419434, 0.0, 0.004892990455829036, 0.0, -0.004998678374285262, 0.0, -0.006683370025314127, array([[-0.0046757]])]
[0.7000000000000001, -0.4690880064628675, 0.577680766582489, 2.2122642993927, 0.0, 0.003791923937960424, 0.0, -0.0033655221458158105, 0.0, -0.0045751176132598145, array([[ -1.75616310e-19]])]
[0.7500000000000001, -1.345313582252711, 0.6381114721298218, 2.1110973358154297, 0.0, 0.002111316484192891, 0.0, -0.0014480277310999182, 0.0, -0.0040388653514510835, array([[ -2.10234245e-17]])]
[0.8000000000000002, -1.2648215963132678, 0.7654817700386047, 1.4561415910720825, 0.0, -6.763701881439864e-05, 0.0, 0.0012529906793121888, 0.0, -0.00353835693463481, array([[ -4.42818361e-06]])]
[0.8500000000000002, -0.8155691671036659, 0.8018250465393066, 1.1878842115402222, 0.0, -0.0017571990176955448, 0.0, 0.0033916815288932427, 0.0, -0.0031458772984114722, array([[-0.00669232]])]
[0.9000000000000002, -0.28891283568344484, 0.8613808155059814, 0.4971314072608948, 0.0, -0.003920218204220274, 0.0, 0.006167563732782438, 0.0, -0.0025773326051622917, array([[-708.65470197]])]
[0.9500000000000003, 709.0444305879062, 0.8712114095687866, 0.22869367897510529, 0.0, -0.005509627861482594, 0.0, 0.008114514065289177, 0.0, -0.002278081091564481, array([[-3298.98340516]])]
[1.0000000000000002, 3299.7912412182945, 0.8782532811164856, 0.4191025495529175, 0.0, -0.0062041656293477816, 0.0, 0.009114929983594314, 0.0, -0.001692342811127536, array([[-1922.2574186]])]
[1.0500000000000003, 1922.7676616852777, 0.8949587345123291, 0.8553249835968018, 0.0, -0.003628221966531263, 0.0, 0.005678243107187506, 0.0, -0.0013903653575390515, array([[-11.61925721]])]
[1.1000000000000003, 11.556637237108887, 0.9937488436698914, 1.9488370418548584, 0.0, -0.003018139893075138, 0.0, 0.004321630326978686, 0.0, -0.0011836872378430323, array([[ -5.54004312e-14]])]
[1.1500000000000004, -1.1065295585151207, 1.0529248714447021, 2.356973171234131, 0.0, -0.0018750573926146323, 0.0, 0.0028618410378663172, 0.0, -0.001076333469207226, array([[ -9.89448279e-23]])]
[1.2000000000000004, -1.4504508688952773, 1.2412525415420532, 2.5615015029907227, 0.0, -0.0016230079925107523, 0.0, 0.0016242939783277567, 0.0, -0.0008387765669686532, array([[ -6.72655540e-28]])]
[1.2500000000000004, -1.8351032024994491, 1.308722734451294, 2.3066835403442383, 0.0, -0.0015622204486519888, 0.0, 0.0010442270180881297, 0.0, -0.0007152893757854404, array([[ -7.46447256e-22]])]
[1.3000000000000005, -1.739655486308038, 1.4612562656402588, 1.5429612398147583, 0.0, -0.001482473883328596, 0.0, 0.00020232095904928533, 0.0, -0.0003959932707184084, array([[ -9.99386010e-08]])]
[1.3500000000000005, -1.2950891216720866, 1.489798665046692, 1.3512334823608398, 0.0, -0.001413596903145516, 0.0, -0.00031167527452560464, 0.0, -0.00016600692338497944, array([[ -3.17513994e-05]])]
[1.4000000000000006, -0.5804313213885743, 1.560227870941162, 0.6601924896240234, 0.0, -0.001309115315719551, 0.0, -0.001083337993550992, 0.0, 4.167585861116272e-05, array([[-32.18465764]])]
[1.4500000000000006, 31.91974254387935, 1.573827862739563, 0.39117276668548584, 0.0, -0.001287272378218307, 0.0, -0.0016854887622609817, 0.0, 0.000256494876105716, array([[-263.83006395]])]
[1.5000000000000007, 263.90998099687476, 1.6004711389541626, 0.7965636849403381, 0.0, -0.0009133868790906049, 0.0, -0.0015155505524834473, 0.0, 0.010149278745370544, array([[-4.32494304]])]
[1.5500000000000007, 4.184379228238319, 1.6280697584152222, 1.23245108127594, 0.0, -0.0006035915504952814, 0.0, -0.0006962405845201727, 0.0, 0.010130670818479218, array([[-0.00045418]])]
[1.6000000000000008, -0.45288882460657975, 1.7546453475952148, 2.2954752445220947, 0.0, -0.00033159054743896573, 0.0, -0.00028781323520804406, 0.0, 0.009502933239532784, array([[ -2.43070543e-22]])]
[1.6500000000000008, -1.6556683226069435, 1.8186994791030884, 2.2468137741088867, 0.0, 0.00017391451465281632, 0.0, 2.0125464894249363e-05, 0.0, 0.00846572690570325, array([[ -1.92976736e-21]])]
[1.7000000000000008, -1.6946678900858387, 1.969253659248352, 1.5244323015213013, 0.0, 0.000870140982008534, 0.0, 0.0007225314164450302, 0.0, 0.006658939197975182, array([[ -1.56270104e-08]])]
[1.7500000000000009, -0.9115833552886036, 2.0126357078552246, 1.2180920839309692, 0.0, 0.0012642315061752105, 0.0, 0.0012647649533340391, 0.0, 0.005261239847757856, array([[ -8.48724848e-05]])]
[1.800000000000001, -0.37045505028067754, 2.0669236183166504, 0.6426570415496826, 0.0, 0.0018826575889035835, 0.0, 0.0019815904993600196, 0.0, 0.0034721574556632723, array([[-2.60989608]])]
[1.850000000000001, 2.3482980103078233, 2.080212116241455, 0.37316185235977173, 0.0, 0.0024065990864341673, 0.0, 0.002518973250064743, 0.0, 0.0019474370639800966, array([[-17.92315203]])]
[1.900000000000001, 18.208519369940667, 2.101386070251465, 0.6750457286834717, 0.0, 0.0021956849433172666, 0.0, 0.0026500223404379636, 0.0, 0.0004360952585918137, array([[-1.42873261]])]
[1.950000000000001, 1.469509214366901, 2.125610113143921, 1.1126595735549927, 0.0, 0.0012305317813109122, 0.0, 0.0019015958563052974, 0.0, -0.00042763232103986304, array([[-0.00052673]])]
[2.000000000000001, -0.557090946637059, 2.243422031402588, 2.1854960918426514, 0.0, 0.0009462600129311997, 0.0, 0.0015395648154836, 0.0, -0.0009796077159355558, array([[ -3.46930593e-21]])]
[2.0500000000000007, -1.8978947015479204, 2.304171562194824, 2.1388940811157227, 0.0, 0.0005341801095709064, 0.0, 0.0011842198243105283, 0.0, -0.0011543390492192278, array([[ -1.96447944e-20]])]
[2.1000000000000005, -2.2674476059107107, 2.433732509613037, 1.492671251296997, 0.0, -0.0001740630540875627, 0.0, 0.0007365111614087717, 0.0, -0.0013694154212704, array([[ -1.82420327e-09]])]
[2.1500000000000004, -1.6639723440225018, 2.470895528793335, 1.2248868942260742, 0.0, -0.0007104316809768916, 0.0, 0.0005534908918176285, 0.0, -0.0014133806452426023, array([[ -2.83876748e-06]])]
[2.2, -0.9894015404178124, 2.531176805496216, 0.5336053967475891, 0.0, -0.0016439506435246083, 0.0, 0.00023286397427912256, 0.0, -0.001529195344803293, array([[-0.2570233]])]
[2.25, -0.012234172068143923, 2.5422914028167725, 0.14884494245052338, 0.0, -0.0020962744102249633, 0.0, 0.00011093764728802418, 0.0, -0.0016757074363786912, array([[-0.87468933]])]
[2.3, 1.7388577072934042, 2.5306127071380615, -0.42221277952194214, 0.0, -0.002936341814945413, 0.0, -6.717910373440011e-05, 0.0, -0.001864648855955679, array([[-0.01340706]])]
[2.3499999999999996, 1.3449376464676785, 2.5179715156555176, -0.2846342623233795, 0.0, -0.0031428705970780527, 0.0, -4.750649009865128e-05, 0.0, -0.0018772328394990496, array([[-0.07537723]])]
[2.3999999999999995, 0.9384854469986621, 2.533694267272949, 0.8347253203392029, 0.0, -0.0016350431712553802, 0.0, 0.0002851581482087345, 0.0, -0.0017473894184575449, array([[-0.00632156]])]
[2.4499999999999993, -0.05410932232163422, 2.561539888381958, 1.2359364032745361, 0.0, -0.0018213175760957827, 0.0, 0.00035435050394849184, 0.0, -0.001727670042372093, array([[ -1.00606590e-06]])]
[2.499999999999999, -1.4626033043442002, 2.6603479385375977, 1.2302945852279663, 0.0, -0.0013635412562896779, 0.0, 0.0004912993103511309, 0.0, -0.001771430508664196, array([[ -5.67673734e-07]])]
[2.549999999999999, -1.6944875753903477, 2.690363883972168, 0.9707465767860413, 0.0, -0.0009685667923424855, 0.0, 0.000709962161218389, 0.0, -0.0017789412912053552, array([[-0.00013409]])]
[2.5999999999999988, -1.5985431431179988, 2.733034133911133, 0.2833910584449768, 0.0, -0.00036051711219657026, 0.0, 0.0011040624552314502, 0.0, -0.0016685403535516828, array([[-0.16956892]])]
[2.6499999999999986, -0.6813171101274882, 2.73576021194458, 0.014745902270078659, 0.0, 4.422902252450496e-05, 0.0, 0.0014865661185377746, 0.0, -0.001559906781720584, array([[-0.11152055]])]
[2.6999999999999984, -0.027996447952179718, 2.7024919986724854, -0.7538255453109741, 0.0, 0.0007101241333423411, 0.0, 0.0022552211393866385, 0.0, -0.0012566091973916806, array([[ -5.61591526e-06]])]
[2.7499999999999982, 0.613969595127823, 2.684629201889038, -0.9453869462013245, 0.0, 0.0011150398737582439, 0.0, 0.002738515195071241, 0.0, -0.0011415813396441867, array([[ -8.45860957e-08]])]
[2.799999999999998, 1.6018890559986498, 2.598057270050049, -1.203166127204895, 0.0, 0.0013278254480100812, 0.0, 0.002985682458786005, 0.0, -0.0010351688248281166, array([[ -6.30095171e-11]])]
[2.849999999999998, 1.8751929036412909, 2.5576701164245605, -0.6890771985054016, 0.0, 0.0007810900883036875, 0.0, 0.002401043853677376, 0.0, -0.0009070747065932192, array([[ -9.31186496e-05]])]
[2.8999999999999977, 0.9964876235264175, 2.5433027744293213, 0.27873966097831726, 0.0, 0.0005601921923901383, 0.0, 0.0017159035931013193, 0.0, -0.0006345883525199379, array([[-0.86540766]])]
[2.9499999999999975, 0.6561461047852719, 2.5566020011901855, 0.7288463711738586, 0.0, 0.0002747911970159072, 0.0, 0.0014784065575197901, 0.0, -0.0006394175972975181, array([[-0.02098864]])]
[2.9999999999999973, -1.1074040996862635, 2.6391329765319824, 1.3991420269012451, 0.0, 8.194236746829532e-05, 0.0, 0.0010805006142428194, 0.0, -0.000703133852769378, array([[ -5.94905798e-09]])]
[3.049999999999997, -1.9317167014370185, 2.675691604614258, 1.2299002408981323, 0.0, -2.404684432113118e-05, 0.0, 0.0009260556595484409, 0.0, -0.0006698088937761755, array([[ -4.27993649e-07]])]
[3.099999999999997, -2.2112835572150713, 2.73929500579834, 0.5633231401443481, 0.0, -0.00015785536371211244, 0.0, 0.0008223404597683546, 0.0, -0.0006542683585981251, array([[-0.03123751]])]
[3.149999999999997, -1.670925146060893, 2.7506825923919678, 0.2951868772506714, 0.0, -0.00027544219744031565, 0.0, 0.0008379870605220927, 0.0, -0.0007299302789366358, array([[-0.11954123]])]
[3.1999999999999966, -1.1465439801739403, 2.744807720184326, -0.395935982465744, 0.0, -0.0005724487897181342, 0.0, 0.0009938803462506674, 0.0, -0.0007676943953658922, array([[-0.00265381]])]
[3.2499999999999964, -0.37695677976548597, 2.728914499282837, -0.6645161509513855, 0.0, -0.0007302915132600648, 0.0, 0.0011503010982233642, 0.0, -0.0007257674239696497, array([[ -2.94048749e-05]])]
[3.2999999999999963, -0.03191493386959059, 2.6540987491607666, -1.3553979396820068, 0.0, -0.0009150094387734072, 0.0, 0.0014474446814253922, 0.0, -0.0007647005162631049, array([[ -5.75754307e-09]])]
[3.349999999999996, 0.3375580235683496, 2.6114866733551025, -1.624747395515442, 0.0, -0.0010518217450243676, 0.0, 0.0017006756486764225, 0.0, -0.0008298390065929028, array([[ -8.84231875e-17]])]
[3.399999999999996, 0.5989214656129479, 2.469747543334961, -2.1827797889709473, 0.0, -0.001167378005339977, 0.0, 0.0020546837756549004, 0.0, -0.0007638892222266713, array([[ -1.06663253e-26]])]
[3.4499999999999957, 1.0087071107141672, 2.4064760208129883, -2.239696979522705, 0.0, -0.0010993659487680781, 0.0, 0.00196442528616528, 0.0, -0.0008018704442218464, array([[ -1.10087089e-27]])]
[3.4999999999999956, 0.7775888262083752, 2.2545955181121826, -1.699281096458435, 0.0, -0.0006326375099861884, 0.0, 0.001380997200607669, 0.0, -0.0007923763247269073, array([[ -2.71227128e-16]])]
[3.5499999999999954, 0.2622670297883453, 2.2104148864746094, -1.4316372871398926, 0.0, -0.0006696059760538416, 0.0, 0.0012028859773504108, 0.0, -0.0007171522287027039, array([[ -6.22495533e-12]])]
[3.599999999999995, 0.46582314035080746, 2.1151022911071777, -1.3959707021713257, 0.0, -0.0004962128043188213, 0.0, 0.000982777071135695, 0.0, -0.0005284282246519367, array([[ -5.63398849e-11]])]
[3.649999999999995, 0.6312739213467524, 2.073960542678833, -1.5078277587890625, 0.0, -0.0003350653744820557, 0.0, 0.0007896067281999239, 0.0, -0.00044301140677032846, array([[ -1.72200707e-12]])]
[3.699999999999995, 1.6187533526931412, 1.9602851867675781, -1.529051423072815, 0.0, -0.0002883244583204161, 0.0, 0.0007347626728196083, 0.0, -0.00037234692452876064, array([[ -2.62561151e-12]])]
[3.7499999999999947, 2.0032887377569626, 1.9075766801834106, -1.0199251174926758, 0.0, -0.00018252214830120686, 0.0, 0.0006629503056796896, 0.0, -0.00031430740684884855, array([[ -1.40665680e-05]])]
[3.7999999999999945, 2.0649758139227927, 1.8732041120529175, 0.06138277053833008, 0.0, -0.0004097859257583081, 0.0, 0.0005896370185153617, 0.0, -0.0004338961779772619, array([[-84.8730629]])]
[3.8499999999999943, 86.14799886864272, 1.8773406744003296, 0.3851606845855713, 0.0, -0.00010303682414705371, 0.0, 0.0005355583817147365, 0.0, -0.0004420637386679478, array([[-50.54629296]])]
[3.899999999999994, 51.34419607353539, 1.944708228111267, 1.5125484466552734, 0.0, -0.00021205748278832858, 0.0, 0.00044369891257716647, 0.0, -0.0004591105186136877, array([[ -2.33810237e-08]])]
[3.949999999999994, -0.6996173108041444, 1.992261528968811, 1.9311020374298096, 0.0, -0.00012385216171591378, 0.0, 0.00048577048463509443, 0.0, -0.0005445673604876811, array([[ -1.87381631e-15]])]
[3.999999999999994, -1.556770787849089, 2.151657819747925, 2.1499345302581787, 0.0, 1.555896190910671e-05, 0.0, 0.000713889406687901, 0.0, -0.0007240773455196666, array([[ -3.29402048e-20]])]
[4.049999999999994, -2.0590252580540254, 2.208141326904297, 1.8951523303985596, 0.0, 5.647968150565184e-05, 0.0, 0.0009508064068359927, 0.0, -0.0008405500026806145, array([[ -2.17733957e-15]])]
[4.099999999999993, -1.9579052204987941, 2.319021224975586, 1.2081166505813599, 0.0, 2.958133269969266e-05, 0.0, 0.001578115628764503, 0.0, -0.0009371543245380793, array([[ -1.37631043e-05]])]
[4.149999999999993, -1.1802474801747562, 2.3488590717315674, 0.9387788772583008, 0.0, -1.4205975075403958e-05, 0.0, 0.002094523197984924, 0.0, -0.0010687752541488932, array([[-0.00350703]])]
[4.199999999999993, -0.48100488722939516, 2.3911821842193604, 0.24748115241527557, 0.0, 5.578097717225927e-06, 0.0, 0.002881797696878981, 0.0, -0.001120846429148926, array([[-2.85081282]])]
[4.249999999999993, 3.114496681211161, 2.3930611610412598, -0.13614162802696228, 0.0, -8.221398235469082e-05, 0.0, 0.003523758259179697, 0.0, -0.0012015848670575164, array([[-0.74255505]])]
[4.299999999999993, 1.7196544648404957, 2.3845911026000977, 0.17176608741283417, 0.0, -0.0001366609983328937, 0.0, 0.003714148347988864, 0.0, -0.0012830374961019632, array([[-3.10981774]])]
[4.3499999999999925, 3.501225334638069, 2.395270347595215, 0.6108051538467407, 0.0, -0.0001570468819160754, 0.0, 0.00253472931649852, 0.0, -0.0012926753873044674, array([[-0.27876491]])]
[4.399999999999992, -0.22545152876069285, 2.478869915008545, 1.7082103490829468, 0.0, -6.735283754012963e-05, 0.0, 0.001888133923598805, 0.0, -0.0012256945310455036, array([[ -5.84941818e-13]])]
[4.449999999999992, -1.8721813001891103, 2.526632785797119, 1.664434552192688, 0.0, -0.0002144716930772978, 0.0, 0.0014955317786702633, 0.0, -0.0010534104391129978, array([[ -1.77539889e-12]])]
[4.499999999999992, -2.292932870862394, 2.62300443649292, 1.018693447113037, 0.0, -0.0005702776130800349, 0.0, 0.0011266665457966107, 0.0, -0.0007971497137391353, array([[ -9.23173384e-05]])]
[4.549999999999992, -1.7810557418045012, 2.647252321243286, 0.7508088946342468, 0.0, -0.0007782250097516712, 0.0, 0.0010037124977244148, 0.0, -0.0006526552826927056, array([[-0.00651208]])]
[4.599999999999992, -1.1779697519213495, 2.67551851272583, 0.060085076838731766, 0.0, -0.0011397350660420638, 0.0, 0.0008353937047587283, 0.0, -0.0003744029688996139, array([[-0.22642501]])]
[4.6499999999999915, 0.10048331969074234, 2.672966241836548, -0.20843732357025146, 0.0, -0.0012929513543191433, 0.0, 0.0007881441021750994, 0.0, -0.00017980225002633374, array([[-0.03666102]])]
[4.699999999999991, 0.4962631576351445, 2.632272958755493, -0.8663498163223267, 0.0, -0.0016131941640288268, 0.0, 0.0008151257985558186, 0.0, 9.383579348180709e-05, array([[ -1.00168447e-06]])]
[4.749999999999991, 1.006297528475295, 2.6055150032043457, -0.9845626354217529, 0.0, -0.001455978928679037, 0.0, 0.0007948703382512443, 0.0, 0.0002581187781028602, array([[ -6.18498727e-08]])]
[4.799999999999991, 0.6973766463100165, 2.5441243648529053, -0.4101565480232239, 0.0, -0.0009145637237341736, 0.0, 0.0005284966639029666, 0.0, 0.00028694699304556093, array([[-0.01207545]])]
[4.849999999999991, -0.08280547606928723, 2.536376953125, -0.1445583999156952, 0.0, -0.0007688616432586905, 0.0, 0.0005600963150483647, 0.0, 0.00016609615539349757, array([[-0.2066442]])]
[4.899999999999991, -0.6219740684627446, 2.5254948139190674, -0.36669644713401794, 0.0, -0.00026837738634156685, 0.0, 0.000547017510805843, 0.0, 6.542279735552893e-05, array([[-0.02529456]])]
[4.94999999999999, -1.0651794020243648, 2.5112245082855225, -0.6282267570495605, 0.0, 6.979398532582111e-05, 0.0, 0.0006451065011377666, 0.0, 4.157930736586264e-05, array([[-0.00039763]])]
[4.99999999999999, -0.6095757704854153, 2.4406354427337646, -1.3155699968338013, 0.0, 0.000461417372473442, 0.0, 0.0009600535632788368, 0.0, 6.037758646396069e-06, array([[ -2.89343402e-11]])]
[5.04999999999999, 0.5799924260818565, 2.3998465538024902, -1.5839635133743286, 0.0, 0.0007712627123386382, 0.0, 0.0013827555494066582, 0.0, -0.0001138533484296862, array([[ -4.11922283e-15]])]
[5.09999999999999, 1.5574158141273113, 2.252713680267334, -1.8647825717926025, 0.0, 0.0009282137333959244, 0.0, 0.001700610370900383, 0.0, -0.0003118562048077081, array([[ -3.10527466e-19]])]
[5.14999999999999, 1.8868989469797814, 2.2171919345855713, -1.6396223306655884, 0.0, 0.0006995086810924166, 0.0, 0.0013793393095451038, 0.0, -0.00042073329926277045, array([[ -3.47655576e-15]])]
[5.1999999999999895, 1.7362623964704142, 2.136815309524536, -0.5472927689552307, 0.0, 0.0003060391741424519, 0.0, 0.0008231349530810801, 0.0, -0.0004730145848169685, array([[-0.04005784]])]
[5.249999999999989, 0.6407311423299006, 2.1274585723876953, -0.1001100018620491, 0.0, 0.00036193988166278735, 0.0, 0.0008342059512948836, 0.0, -0.0005070442707056122, array([[-6.29673554]])]
[5.299999999999989, 6.438936790016143, 2.1540253162384033, 0.6562096476554871, 0.0, 0.000106868534250554, 0.0, 0.0005095116253798916, 0.0, -0.0006474326771945886, array([[-1.01223246]])]
[5.349999999999989, 0.06556444136891426, 2.1764297485351562, 0.9888673424720764, 0.0, 7.192243996538833e-05, 0.0, 0.000399208454746286, 0.0, -0.0006452539105287979, array([[-0.00414318]])]
[5.399999999999989, -1.6063497733847711, 2.266733169555664, 1.1656557321548462, 0.0, -2.5712400451230583e-05, 0.0, 0.0002893724675283808, 0.0, -0.0006538699434812034, array([[ -5.21352954e-05]])]
[5.449999999999989, -2.042458285107967, 2.3057901859283447, 0.8022030591964722, 0.0, -0.00019814787171386624, 0.0, 0.00032143704747656613, 0.0, -0.0006373765054107775, array([[-0.04326385]])]
[5.4999999999999885, -1.310429444632436, 2.335909605026245, 0.22946903109550476, 0.0, -0.0005384346603612604, 0.0, 0.0004757687559931458, 0.0, -0.0005998777570742288, array([[-4.03831922]])]
[5.549999999999988, 3.374839416119371, 2.3382534980773926, -0.038579389452934265, 0.0, -0.0007036619683099358, 0.0, 0.0006713426981931791, 0.0, -0.000624515362356594, array([[-1.92897914]])]
[5.599999999999988, 1.962304100287484, 2.3306102752685547, 0.25305718183517456, 0.0, -0.0007387584054368177, 0.0, 0.0008609244955601928, 0.0, -0.0005085247689998339, array([[-4.03803316]])]
[5.649999999999988, 4.000564235989133, 2.3431508541107178, 0.6912540197372437, 0.0, -0.0004942984578616578, 0.0, 0.00043393854823667674, 0.0, -0.00042402026867754576, array([[-0.1487944]])]
[5.699999999999988, -0.2948880129897854, 2.431525707244873, 1.7450062036514282, 0.0, -0.00047118788973664246, 0.0, 0.0004826118462684852, 0.0, -0.00042706129466442454, array([[ -1.89119395e-13]])]
[5.749999999999988, -1.3521512856018234, 2.4792420864105225, 1.646480917930603, 0.0, -0.0002531181156234179, 0.0, 0.00042835789042139317, 0.0, -0.0004312164917103563, array([[ -4.49497579e-12]])]
[5.799999999999987, -2.0481658418949675, 2.5739951133728027, 0.9923151135444641, 0.0, -8.169252302842324e-05, 0.0, 0.0005611488769398622, 0.0, -0.0003915671617019445, array([[-0.00021573]])]
[5.849999999999987, -1.9108362442550648, 2.5974948406219482, 0.7241936922073364, 0.0, 2.752371802444721e-05, 0.0, 0.000744305919782581, 0.0, -0.0003360687437454615, array([[-0.0128307]])]
[5.899999999999987, -1.3098172981117358, 2.623727798461914, 0.032783836126327515, 0.0, 0.00020767056376851564, 0.0, 0.001208149399093659, 0.0, -0.00018709087886539097, array([[-0.29451235]])]
[5.949999999999987, -0.12514032616437093, 2.6202077865600586, -0.23603318631649017, 0.0, 0.00022928784980599904, 0.0, 0.001583293679921451, 0.0, -0.00019731867808787663, array([[-0.04021447]])]
[5.999999999999987, 0.06654187826696281, 2.576211452484131, -0.9267458319664001, 0.0, 0.0004195413189089592, 0.0, 0.002174137541241993, 0.0, -0.00014781662611537986, array([[ -3.77446943e-07]])]
[6.0499999999999865, 0.43329113608279163, 2.545520782470703, -1.1874476671218872, 0.0, 0.00042500704169157996, 0.0, 0.0026802918966543922, 0.0, -9.367086243802368e-05, array([[ -4.06581050e-10]])]
[6.099999999999986, 0.9491173517334396, 2.4251623153686523, -1.5748573541641235, 0.0, 0.0003661055758431803, 0.0, 0.0026219194060169712, 0.0, -2.565111861224353e-05, array([[ -4.81977935e-15]])]
[6.149999999999986, 0.9912793677276979, 2.394862651824951, -1.3784531354904175, 0.0, 0.00030241779158301694, 0.0, 0.0018942022692512801, 0.0, 3.880865512690117e-05, array([[ -5.29032849e-12]])]
[6.199999999999986, 0.5304802668333802, 2.3287205696105957, -0.3674054741859436, 0.0, 0.00022061225177276688, 0.0, 0.0009910325151489749, 0.0, 8.153703650199285e-05, array([[-0.11530733]])]
[6.249999999999986, -0.16151116178364194, 2.320908784866333, -0.19053763151168823, 0.0, 0.00022091213823309544, 0.0, 0.0008080290603744883, 0.0, 6.954726508035548e-05, array([[-0.7079161]])]
[6.299999999999986, -0.28644432767721606, 2.2999725341796875, -0.5201919078826904, 0.0, -0.0001205841454701503, 0.0, 0.0003914600883314689, 0.0, 7.668366362438313e-05, array([[-0.01610126]])]
[6.349999999999985, -0.5724153661461625, 2.2812654972076416, -0.7823674082756042, 0.0, -0.00031823065123956956, 0.0, 0.0002798478521145151, 0.0, 5.912964822177214e-05, array([[-0.00012692]])]
[6.399999999999985, -0.015524941390049814, 2.187530994415283, -1.5485167503356934, 0.0, -0.0006821969022062777, 0.0, 0.0003062883957529308, 0.0, 3.6141815833320386e-05, array([[ -1.45965343e-13]])]
[6.449999999999985, 0.8842112689455103, 2.154693365097046, -1.7403333187103271, 0.0, -0.0008659321394788315, 0.0, 0.00037008234494226706, 0.0, -3.067455452425531e-05, array([[ -1.30051331e-16]])]
[6.499999999999985, 2.242145681254333, 2.0149171352386475, -1.824398398399353, 0.0, -0.0009932262314290145, 0.0, 0.0005564014848514686, 0.0, -9.653972799145066e-05, array([[ -1.86949482e-17]])]
[6.549999999999985, 2.8470256608002815, 1.968666911125183, -1.4479552507400513, 0.0, -0.0006133825804756231, 0.0, 0.0003748832121136757, 0.0, -3.872148731295146e-05, array([[ -3.34310710e-11]])]
[6.5999999999999845, 2.5179191798282754, 1.9033466577529907, -0.3376665711402893, 0.0, -0.000609827756068433, 0.0, 0.00011286446570099763, 0.0, 4.517445773852117e-06, array([[-0.00077461]])]
[6.649999999999984, 1.8089770941460743, 1.8999402523040771, 0.10738589614629745, 0.0, -0.0003420222284871048, 0.0, 0.0001600371855429592, 0.0, 1.9956806253048625e-06, array([[-56.14308267]])]
[6.699999999999984, 56.55644889830659, 1.9480410814285278, 1.2337983846664429, 0.0, -0.00036742903524585724, 0.0, -2.446963904193722e-05, 0.0, -6.473306497014271e-05, array([[ -6.69305085e-05]])]
[6.749999999999984, -0.9984224082995035, 2.0091631412506104, 1.8331741094589233, 0.0, -0.00018412922600693422, 0.0, -8.279784213531812e-05, 0.0, -8.900651526525236e-05, array([[ -8.31136001e-14]])]
[6.799999999999984, -2.0559683725533873, 2.117629289627075, 1.601711392402649, 0.0, -4.053047765377527e-06, 0.0, 0.00023676133117926738, 0.0, -5.7320194742831466e-05, array([[ -3.17456328e-10]])]
[6.849999999999984, -2.0163119426571146, 2.1590535640716553, 1.3404722213745117, 0.0, 0.00015184980852075077, 0.0, 0.0008261202400448309, 0.0, -4.0904014344255635e-05, array([[ -8.41036470e-07]])]
[6.8999999999999835, -1.4636466291839876, 2.231271743774414, 0.6521254777908325, 0.0, 0.00018404841092669425, 0.0, 0.0015782604275692352, 0.0, 3.0112246648727368e-06, array([[-0.5544769]])]
[6.949999999999983, 0.13273871839887663, 2.2458271980285645, 0.38325679302215576, 0.0, 0.0002592468505991683, 0.0, 0.002398185237801093, 0.0, 3.0066558011139425e-05, array([[-3.80562963]])]
[6.999999999999983, 4.384632326290796, 2.2493937015533447, -0.24409420788288116, 0.0, 0.00033307583732913583, 0.0, 0.00328797440878872, 0.0, 1.6563395871326626e-05, array([[-0.80846583]])]
[7.049999999999983, 2.0205256356681263, 2.24468731880188, -0.01593383401632309, 0.0, 0.0002736617110517139, 0.0, 0.0028835613473641095, 0.0, 3.714665014369575e-05, array([[-3.81632828]])]
[7.099999999999983, 4.475590279672662, 2.2825045585632324, 1.0860707759857178, 0.0, 0.00014792128373638017, 0.0, 0.0015065753173638514, 0.0, -0.00011933277852283415, array([[-0.00025901]])]
[7.149999999999983, -0.7862948162053456, 2.31876802444458, 1.5093705654144287, 0.0, 8.09246100815622e-05, 0.0, 0.001220668464649083, 0.0, -0.00012824563945009276, array([[ -1.52353277e-09]])]
[7.199999999999982, -1.5882247784911832, 2.4494190216064453, 1.737323522567749, 0.0, 0.00010623523289090842, 0.0, 0.000274271734051555, 0.0, 2.2268103178572664e-05, array([[ -1.97286960e-13]])]
[7.249999999999982, -2.1624117660939586, 2.4949264526367188, 1.4833097457885742, 0.0, 8.733502447266083e-05, 0.0, -0.00010839924194065602, 0.0, 9.440420072656684e-05, array([[ -9.16115425e-10]])]
[7.299999999999982, -2.149452503850989, 2.577758550643921, 0.7964190244674683, 0.0, 8.40816919916818e-05, 0.0, -0.0005982341197243725, 0.0, 0.0001759800916699116, array([[-0.00563843]])]
[7.349999999999982, -1.2833360319896605, 2.596569299697876, 0.5277084112167358, 0.0, -2.7224719085492474e-05, 0.0, -0.0008604385530514791, 0.0, 0.00025188130351072027, array([[-0.0938321]])]
[7.399999999999982, -0.19251030811577777, 2.608961343765259, -0.24040859937667847, 0.0, -6.06053620111733e-05, 0.0, -0.0010288210607904149, 0.0, 0.0002970821922827887, array([[-0.04397652]])]
[7.4499999999999815, 0.4324782615482159, 2.596644878387451, -0.5483663082122803, 0.0, -0.00018231882598753436, 0.0, -0.0010266993080735307, 0.0, 0.0003913849695772786, array([[-0.00062523]])]
[7.499999999999981, 0.9919074566053092, 2.5460076332092285, -0.8752921223640442, 0.0, -0.0002409072261387491, 0.0, -0.0008346741827426941, 0.0, 0.00043792203926316725, array([[ -1.58362513e-06]])]
[7.549999999999981, 1.1141488766060574, 2.5301177501678467, -0.6954137086868286, 0.0, -0.00013126637037208755, 0.0, -0.000718219830348019, 0.0, 0.00042589893316030274, array([[ -7.58662132e-05]])]
[7.599999999999981, 0.5123938744711862, 2.519092321395874, 0.374529629945755, 0.0, -0.00014747672927229537, 0.0, -0.0005312478166233803, 0.0, 0.00027955707563417334, array([[-0.54579234]])]
[7.649999999999981, -0.25950350834177227, 2.532496213912964, 0.5055236220359802, 0.0, -0.00021303547001098213, 0.0, -0.00046713245709716913, 0.0, 0.00021887619823261677, array([[-0.18570645]])]
[7.699999999999981, -1.1223240820529412, 2.5624403953552246, 0.1487503945827484, 0.0, -0.00017970402765186386, 0.0, -0.00027637564791035176, 0.0, 0.00012899419138034693, array([[-0.56686894]])]
[7.7499999999999805, -0.9656507339526053, 2.5631067752838135, -0.1139836311340332, 0.0, -0.0002197251018409342, 0.0, -4.476203644232431e-05, 0.0, 0.00015830846971291905, array([[-0.16225371]])]
[7.79999999999998, -0.9038543249642893, 2.5304975509643555, -0.8027608394622803, 0.0, -0.00028142416163673135, 0.0, 0.0005504129094262332, 0.0, 4.931865754178677e-05, array([[ -9.28478781e-06]])]
[7.84999999999998, -0.08938203621189761, 2.5045106410980225, -1.0719122886657715, 0.0, -0.00034616061792380466, 0.0, 0.0009466447053529195, 0.0, 4.552334283876095e-05, array([[ -1.44262617e-08]])]
[7.89999999999998, 0.6543818118051444, 2.4029271602630615, -1.7512561082839966, 0.0, -0.00051389646424015, 0.0, 0.001808863388603623, 0.0, 1.8954401647515906e-06, array([[ -6.72980923e-18]])]
[7.94999999999998, 1.5532007094472644, 2.352842092514038, -1.8056583404541016, 0.0, -0.0005158649030660761, 0.0, 0.002149118200360482, 0.0, 6.189172304186855e-06, array([[ -1.12977375e-18]])]
[7.99999999999998, 1.3164415798569096, 2.2377541065216064, -1.1845576763153076, 0.0, -0.00023832157847970473, 0.0, 0.0013316905185621808, 0.0, 9.484033279993837e-05, array([[ -9.88501193e-09]])]
[8.04999999999998, 0.3974677407498944, 2.2106404304504395, -0.7555752992630005, 0.0, -0.00025775319637601717, 0.0, 0.0008141170520576877, 0.0, 9.152233338577471e-05, array([[-0.00035666]])]
[8.09999999999998, -0.5046936008214985, 2.1836087703704834, -0.2906845808029175, 0.0, 2.087336697044968e-06, 0.0, 0.0005563224619100662, 0.0, -1.7616801620068416e-05, array([[-1.25241891]])]
[8.14999999999998, -0.03898282676400666, 2.1763997077941895, -0.4505075514316559, 0.0, 7.327247188492549e-05, 0.0, 0.0003717928678776293, 0.0, -6.07621329213821e-05, array([[-0.08868007]])]
[8.199999999999982, -0.939904509155471, 2.1204311847686768, -1.1256699562072754, 0.0, 0.00013760260895119737, 0.0, 0.00017719670515780372, 0.0, -0.0002482327388757695, array([[ -1.47364337e-07]])]
[8.249999999999982, -0.22692597540910156, 2.08516788482666, -1.3941543102264404, 0.0, 5.750758040250793e-05, 0.0, 0.0002322954825863392, 0.0, -0.0003451759978606793, array([[ -6.43815740e-11]])]
[8.299999999999983, 1.1007796841292914, 1.960065484046936, -2.080382823944092, 0.0, 0.00010703952573425271, 0.0, 0.0003117356161425526, 0.0, -0.0004070375630918969, array([[ -3.51981666e-22]])]
[8.349999999999984, 1.7936299028340725, 1.9022316932678223, -1.9698394536972046, 0.0, 9.799807298526492e-05, 0.0, 0.000502397810605714, 0.0, -0.0004764876714771568, array([[ -9.13120105e-20]])]
[8.399999999999984, 2.440563404038548, 1.7962291240692139, -0.9360573291778564, 0.0, -6.772706291294739e-05, 0.0, 9.859270769382064e-05, 0.0, -0.0004420394862471276, array([[-0.00017362]])]
[8.449999999999985, 2.3528676232244643, 1.7762787342071533, -0.5005030632019043, 0.0, -2.6482578643311047e-05, 0.0, 2.2338150647208238e-05, 0.0, -0.0003850539056139664, array([[-0.68657865]])]
[8.499999999999986, 2.137696985064495, 1.781387209892273, 0.6318737268447876, 0.0, -2.0490799665836016e-05, 0.0, -3.775480008086834e-06, 0.0, -0.0004164108257158956, array([[-9.42147596]])]
[8.549999999999986, 9.50240501448706, 1.8052337169647217, 1.065375804901123, 0.0, -2.689143824137235e-05, 0.0, -0.00018460802202182003, 0.0, -0.00035065929983121917, array([[-0.0058784]])]
[8.599999999999987, -0.8061583601929458, 1.9208275079727173, 2.1325340270996094, 0.0, -7.328776628088989e-05, 0.0, -0.00012022331057628286, 0.0, -0.00027917632205206667, array([[ -2.21601615e-19]])]
[8.649999999999988, -1.6852712424565106, 1.9844335317611694, 2.3081037998199463, 0.0, 2.6896874521608922e-05, 0.0, 4.403833305692352e-05, 0.0, -0.00025869675599474856, array([[ -1.81710716e-23]])]
[8.699999999999989, -2.660918287746608, 2.1306729316711426, 1.7088271379470825, 0.0, 6.894942102544132e-05, 0.0, 0.0005478626335199381, 0.0, -0.0002546323850115709, array([[ -5.03728339e-12]])]
[8.74999999999999, -2.469780475436329, 2.174788475036621, 1.441433072090149, 0.0, 8.696501549203164e-05, 0.0, 0.0010456598489255228, 0.0, -0.000181438872028199, array([[ -3.12222871e-08]])]
[8.79999999999999, -1.6123629775599806, 2.2546465396881104, 0.751129150390625, 0.0, 0.00013473077949525673, 0.0, 0.001919138359857134, 0.0, -7.522931460936911e-05, array([[-0.11441618]])]
[8.84999999999999, -0.5339963977546327, 2.2778594493865967, 0.367387980222702, 0.0, 0.00014270193761952116, 0.0, 0.0025414313738074293, 0.0, -6.354475067447243e-05, array([[-2.71344912]])]
[8.899999999999991, 2.7528100967698648, 2.2837395668029785, -0.2033117264509201, 0.0, 0.00014861728703807428, 0.0, 0.0036591400736029137, 0.0, -5.173739139078671e-05, array([[-4.18531216]])]
[8.949999999999992, 4.380599040882881, 2.2791199684143066, -0.07502694427967072, 0.0, 3.1337270262304664e-05, 0.0, 0.0038321766669142097, 0.0, 1.9988036296656656e-06, array([[-1.7906483]])]
[8.999999999999993, 1.7418058000206122, 2.3123297691345215, 1.0014028549194336, 0.0, 0.0001392582794272048, 0.0, 0.0019687966261894853, 0.0, -5.861564939174024e-05, array([[-1.25759971]])]
[9.049999999999994, 0.392911460850193, 2.3466031551361084, 1.4260753393173218, 0.0, -6.874980457103656e-05, 0.0, 0.0014634777217357767, 0.0, -0.00013551030868409953, array([[ -1.44688126e-08]])]
[9.099999999999994, -2.1927505163608405, 2.4716849327087402, 1.7428433895111084, 0.0, 4.421179434034963e-05, 0.0, 0.0006417741153829694, 0.0, -0.0001044257097112435, array([[ -1.13074454e-14]])]
[9.149999999999995, -2.8468974782526377, 2.517838478088379, 1.5253561735153198, 0.0, 0.0002525804733645286, 0.0, 0.0001370268613894145, 0.0, -3.108706826527892e-05, array([[ -1.60343836e-10]])]
[9.199999999999996, -2.378866722535186, 2.610865831375122, 0.7702627182006836, 0.0, 0.0004522510520220183, 0.0, -0.0003145564172119704, 0.0, -2.7466580081906095e-05, array([[-0.00529871]])]
[9.249999999999996, -1.519169145449352, 2.624755620956421, 0.5782680511474609, 0.0, 0.0005119804512234506, 0.0, -0.0005660008007254927, 0.0, 2.7587737281924875e-05, array([[-0.03891932]])]
[9.299999999999997, -0.3175788869807601, 2.6428616046905518, -0.11280882358551025, 0.0, 0.0006962142041642338, 0.0, -0.0006654826651670329, 0.0, 3.1884241205610086e-05, array([[-0.08408794]])]
[9.349999999999998, 0.4498380623696723, 2.6365647315979004, -0.3816088140010834, 0.0, 0.0008146793324365335, 0.0, -0.0006193802798467496, 0.0, 8.665450854639223e-05, array([[-0.00457384]])]
[9.399999999999999, 0.8897118357031795, 2.59086012840271, -0.8256431221961975, 0.0, 0.0007755356892621324, 0.0, -0.000519081990989137, 0.0, 0.0001674588895997611, array([[ -2.81410945e-06]])]
[9.45, 1.066789857407109, 2.562849760055542, -0.5424056649208069, 0.0, 0.0005964155300552796, 0.0, -0.0004701556305508162, 0.0, 0.00016448539560096274, array([[-0.00077834]])]
[9.5, 0.4299823871718921, 2.553912401199341, 0.26837992668151855, 0.0, 0.00032289074086048336, 0.0, -0.000356248556687206, 0.0, 0.00023773499754385923, array([[-0.48791705]])]
[9.55, -0.22570547536647023, 2.564401388168335, 0.3962050974369049, 0.0, 0.00039874537017362574, 0.0, -0.00045802036714803063, 0.0, 4.045395391121929e-05, array([[-0.23716276]])]
[9.600000000000001, -0.9486920238234617, 2.5846641063690186, 0.007984350435435772, 0.0, 0.00021011744842970643, 0.0, -0.0004089724399838417, 0.0, -2.3308026898741844e-05, array([[-0.27236681]])]
[9.650000000000002, -0.5855254322093519, 2.5818064212799072, -0.25436681509017944, 0.0, 5.353435787097059e-05, 0.0, -0.0002669089744729914, 0.0, -0.00014617241727765402, array([[-0.03281401]])]
[9.700000000000003, -0.4166116927070555, 2.5400307178497314, -0.9433206915855408, 0.0, -0.00018404545236244373, 0.0, 0.00017593865636543842, 0.0, -0.00023131809791027458, array([[ -2.87511144e-07]])]
[9.750000000000004, 0.30814033098774046, 2.4953060150146484, -1.3275068998336792, 0.0, -0.0003979379961701816, 0.0, 0.0005722828852513417, 0.0, -0.0003005366056245915, array([[ -8.47653028e-12]])]
[9.800000000000004, 1.2143106506383992, 2.4011359214782715, -1.7591969966888428, 0.0, -0.0006788356756874919, 0.0, 0.0011651803532758216, 0.0, -0.0003832575213505843, array([[ -4.88471745e-18]])]
[9.850000000000005, 1.3107968465425073, 2.3546946048736572, -1.516284465789795, 0.0, -0.0006115613972580908, 0.0, 0.001067431523774351, 0.0, -0.00046697638490044227, array([[ -6.97135620e-14]])]
[9.900000000000006, 0.9635075228475729, 2.2839012145996094, -0.4364323616027832, 0.0, -0.0003080866600902811, 0.0, 0.0003710889278108732, 0.0, -0.00039809200266927914, array([[-0.04827484]])]
[9.950000000000006, -0.3956318431330654, 2.2778263092041016, -0.017141729593276978, 0.0, -0.00044500252891988066, 0.0, 0.0003723963794111111, 0.0, -0.0002799379357431905, array([[-2.22107198]])]
[10.000000000000007, 0.9741924679421463, 2.2993836402893066, 0.2744984030723572, 0.0, -7.119665432319686e-05, 0.0, 0.00011879542206219401, 0.0, -0.0002095583625340915, array([[-3.34644562]])]
[10.050000000000008, 1.392838954553294, 2.3112261295318604, 0.5477198362350464, 0.0, 7.741957356953801e-05, 0.0, 0.0001002837861037214, 0.0, -0.00014953313883330112, array([[-0.56296877]])]
[10.100000000000009, -1.4219956534611864, 2.3890199661254883, 1.5725497007369995, 0.0, -5.101991364895167e-05, 0.0, -9.556945640362847e-05, 0.0, -0.0001156485064430511, array([[ -9.65731782e-11]])]
[10.15000000000001, -2.373444503076659, 2.4339163303375244, 1.527591586112976, 0.0, -7.234772142332738e-05, 0.0, 3.4114997870174036e-05, 0.0, -8.918395947002745e-05, array([[ -2.57823364e-10]])]
[10.20000000000001, -2.2720271440252326, 2.5227367877960205, 0.8814379572868347, 0.0, -5.3154105035376806e-05, 0.0, 0.000558844470653619, 0.0, -0.00011752026796357251, array([[-0.00173655]])]
[10.25000000000001, -1.1524306042374506, 2.544128656387329, 0.6135050654411316, 0.0, -5.333435222792285e-05, 0.0, 0.0010240081133400026, 0.0, -0.00013911192137321875, array([[-0.04789226]])]
[10.300000000000011, -0.26212852315160345, 2.5379927158355713, -0.7318803071975708, 0.0, -0.00012235880778241876, 0.0, 0.0029254611579652505, 0.0, -0.0002599724180914361, array([[ -3.22039173e-05]])]
[10.350000000000012, 0.9415498850614393, 2.5379927158355713, -0.7318803071975708, 0.0, -0.00012235880778241876, 0.0, 0.0029254611579652505, 0.0, -0.0002599724180914361, array([[ -2.65307127e-05]])]
[10.400000000000013, 0.9415442118568322, 2.5103650093078613, -1.0397142171859741, 0.0, -0.0001735747401246597, 0.0, 0.0038075196460270935, 0.0, -0.00024899729438732787, array([[ -3.23842374e-08]])]
[10.450000000000014, 1.1607217898706996, 2.478482723236084, -1.2565288543701172, 0.0, -0.00022551984818524308, 0.0, 0.004637334074933338, 0.0, -0.00022921231654289505, array([[ -8.77761090e-11]])]
[10.500000000000014, 1.0405995770117722, 2.4140520095825195, -0.42046937346458435, 0.0, -4.0827941435820055e-05, 0.0, 0.0029576220335746427, 0.0, -0.00023153112545349903, array([[-0.01986188]])]
[10.550000000000015, -0.09677787678573188, 2.409238576889038, 0.019027728587388992, 0.0, -0.0001178424158628051, 0.0, 0.00202625265589688, 0.0, -0.00034386926210386656, array([[-0.89032521]])]
[10.600000000000016, 0.0044529486891875525, 2.4362716674804688, 0.2827199399471283, 0.0, 1.55389284786018e-05, 0.0, 0.0012525058119445059, 0.0, -0.00042668503578811916, array([[-1.09281773]])]
[10.650000000000016, -0.2890760092240159, 2.4416611194610596, 0.02931908145546913, 0.0, 0.00014924867546817176, 0.0, 0.0008503801778180669, 0.0, -0.0004783876046260376, array([[-0.70783373]])]
[10.700000000000017, -0.09963832671131079, 2.415691614151001, -0.7330471873283386, 0.0, 0.0003504513995735643, 0.0, 0.0002959725490000246, 0.0, -0.00039393687952837304, array([[ -9.29650420e-05]])]
[10.750000000000018, -0.039011401968249385, 2.3996148109436035, -0.9250943064689636, 0.0, 0.0004608180067916659, 0.0, 9.086121400545628e-06, 0.0, -0.00039280653626934414, array([[ -1.34988930e-06]])]
[10.800000000000018, 0.6707500855928314, 2.3105292320251465, -1.6133065223693848, 0.0, 0.0005535714468770922, 0.0, -0.00022285814447698676, 0.0, -0.0004215301700377571, array([[ -3.68283118e-15]])]
[10.85000000000002, 1.2936185739748216, 2.2651212215423584, -1.6902247667312622, 0.0, 0.00048253184019976444, 0.0, -0.00018663294276038506, 0.0, -0.0004392151901108079, array([[ -2.87180258e-16]])]
[10.90000000000002, 0.9899207347258928, 2.1616201400756836, -1.0530542135238647, 0.0, 0.0003448906066976751, 0.0, -0.00035842908962367145, 0.0, -0.00036505351971350243, array([[ -6.15918921e-07]])]
[10.95000000000002, 0.14172749195052878, 2.1392085552215576, -0.6294938325881958, 0.0, 0.0002984262254069231, 0.0, -0.0004420573667570691, 0.0, -0.0002763807025656185, array([[-0.00537164]])]
[11.000000000000021, -0.6289916598706377, 2.1207613945007324, -0.30371013283729553, 0.0, 6.722963307984621e-05, 0.0, -0.00030857888413812306, 0.0, -0.00023266097953534922, array([[-0.77596843]])]
[11.050000000000022, -0.16090081757946584, 2.102874279022217, -0.6555929780006409, 0.0, -1.970411168001388e-05, 0.0, -0.00023651751934561512, 0.0, -0.00022354453836936442, array([[-0.004481]])]
[11.100000000000023, -0.08286728533434058, 2.048318386077881, -1.2270375490188599, 0.0, -0.0002730422418313037, 0.0, 1.1627350157158081e-05, 0.0, -0.000290814845031733, array([[ -1.54370830e-08]])]
[11.150000000000023, 1.0109861654000742, 2.0110225677490234, -1.4956121444702148, 0.0, -0.0004888926487742611, 0.0, 0.0003007578572177106, 0.0, -0.00030723975394403617, array([[ -4.25641364e-12]])]
[11.200000000000024, 1.5569564851788527, 1.8972502946853638, -1.344290018081665, 0.0, -0.0005983230794378966, 0.0, 0.000613137010084634, 0.0, -0.00029504280697031763, array([[ -1.81045081e-09]])]
[11.250000000000025, 1.3467047493010358, 1.866766095161438, -0.9272785186767578, 0.0, -0.00027876703212469496, 0.0, 0.00029332596275107834, 0.0, -0.00027450116528200533, array([[-0.00012515]])]
[11.300000000000026, 0.9705116925192855, 1.8433620929718018, 0.19623298943042755, 0.0, -0.00032167050073805294, 0.0, -2.0427148813481556e-06, 0.0, -0.0003140779893562385, array([[-61.13907138]])]
[11.350000000000026, 60.91885918340338, 1.8560025691986084, 0.6138998866081238, 0.0, -0.0001969841949418384, 0.0, -0.00010288430660542055, 0.0, -0.0002958607461607507, array([[-4.58622747]])]
[11.400000000000027, 3.7344295713509665, 1.9404574632644653, 1.6688107252120972, 0.0, -0.00013902194876886533, 0.0, -0.0002214687730846032, 0.0, -0.00022774617775607434, array([[ -5.39556705e-11]])]
[11.450000000000028, -1.5373038019445404, 1.99393630027771, 2.075288772583008, 0.0, 1.6340536344775267e-05, 0.0, -0.00031931150126068906, 0.0, -0.0001921922245677169, array([[ -1.31785215e-18]])]
[11.500000000000028, -2.504504715856165, 2.180525064468384, 2.116405963897705, 0.0, -9.435256736459414e-05, 0.0, -4.808203503489401e-05, 0.0, -0.0002844046683702609, array([[ -7.06421139e-20]])]
[11.55000000000003, -2.3798412484303113, 2.2443618774414062, 1.8167755603790283, 0.0, -0.0002628425238525048, 0.0, 0.0004870313382610007, 0.0, -0.0003254376794770195, array([[ -2.04506632e-14]])]
[11.60000000000003, -2.1238963875546846, 2.3383679389953613, 1.2418551445007324, 0.0, -0.000540614223316058, 0.0, 0.0013301305391789499, 0.0, -0.00027515706856183714, array([[ -2.57255989e-06]])]
[11.65000000000003, -1.6786135842836039, 2.3706846237182617, 0.973122775554657, 0.0, -0.0007671523611582772, 0.0, 0.0021786760765590404, 0.0, -0.00029409364887429446, array([[-0.00072558]])]
[11.700000000000031, -1.1858935903072574, 2.418694496154785, 0.2819019854068756, 0.0, -0.0010155061044578625, 0.0, 0.00344506874284764, 0.0, -0.00029905358197026215, array([[-1.09969197]])]
[11.750000000000032, 0.8172671282534832, 2.423933982849121, 0.01276769582182169, 0.0, -0.0012286397424488647, 0.0, 0.004313859258802706, 0.0, -0.0003445461961395303, array([[-0.65255313]])]
[11.800000000000033, 0.5751389408577693, 2.4120569229125977, -0.1460029035806656, 0.0, -0.0014238016010779773, 0.0, 0.005170968296916851, 0.0, -0.0003307419303258863, array([[-0.34593278]])]
[11.850000000000033, 0.635182418113458, 2.4102139472961426, -0.07218210399150848, 0.0, -0.0008680525540872866, 0.0, 0.003111888499669261, 0.0, -0.00036077942340147874, array([[-0.46377047]])]
[11.900000000000034, 0.665795100301946, 2.4101834297180176, 0.015686484053730965, 0.0, -0.0001989738579881582, 0.0, 0.0007831393656603352, 0.0, -0.00025877528218265673, array([[-0.90702375]])]
[11.950000000000035, 1.0978155527695543, 2.4140262603759766, 0.11053139716386795, 0.0, -0.00011574318188897569, 0.0, 0.0003489709052257277, 0.0, -0.00022719170231200596, array([[-0.91743135]])]
[12.000000000000036, 0.6958879752367462, 2.437145948410034, 0.7113827466964722, 0.0, -4.670534281870271e-05, 0.0, -4.520490398695542e-05, 0.0, -0.00017996598249556326, array([[-1.09084252]])]
[12.050000000000036, 0.4454320987698912, 2.4631078243255615, 0.9616922736167908, 0.0, 2.925926109879076e-05, 0.0, -9.347881474158542e-05, 0.0, -0.00016757722559013912, array([[-0.00041907]])]
[12.100000000000037, -1.3677887384518197, 2.5452239513397217, 1.0624595880508423, 0.0, -4.532203888972897e-05, 0.0, -0.0001711930574833546, 0.0, -0.00031812053591261476, array([[ -3.48427378e-05]])]
[12.150000000000038, -1.521671166434111, 2.5743794441223145, 0.8650892376899719, 0.0, -8.387308220304395e-05, 0.0, -0.0001696710129180924, 0.0, -0.0003960046747951204, array([[-0.00094418]])]
[12.200000000000038, -0.847492612920064, 2.616863965988159, 0.19275905191898346, 0.0, -4.8170487287616204e-05, 0.0, 4.2326640693496196e-05, 0.0, -0.00047828345541733197, array([[-0.22782051]])]
[12.250000000000039, 0.37001800564566434, 2.620098352432251, -0.07569116353988647, 0.0, -9.018674342287539e-05, 0.0, 0.0003220463893176691, 0.0, -0.00047458803560555894, array([[-0.07481996]])]
[12.30000000000004, 0.654020637109321, 2.5913267135620117, -0.6237246990203857, 0.0, -0.00022071838540005728, 0.0, 0.0009049236209349358, 0.0, -0.0005394109818116281, array([[-0.00227772]])]
[12.35000000000004, 0.9777338842741788, 2.5798909664154053, -0.6065484881401062, 0.0, -9.985499622563323e-05, 0.0, 0.0007098113553238021, 0.0, -0.0005449099384295854, array([[-0.00015695]])]
[12.400000000000041, 0.7306545507764998, 2.555452585220337, 0.02850738912820816, 0.0, -2.9360247360093248e-05, 0.0, 0.00036614438443846744, 0.0, -0.0004314205170946333, array([[-0.27533545]])]
[12.450000000000042, 0.14544065464860775, 2.562544345855713, 0.31980404257774353, 0.0, -2.5946082032163985e-05, 0.0, 0.00019936609948439593, 0.0, -0.00033397421659649585, array([[-0.22264126]])]
[12.500000000000043, -0.569237177048206, 2.597153663635254, 0.18060366809368134, 0.0, 9.574128120339327e-05, 0.0, -0.00020098857140968273, 0.0, -0.0002957119135102997, array([[-0.25951986]])]
[12.550000000000043, -0.9632748000455843, 2.5999057292938232, -0.00011288667155895382, 0.0, 0.00020821342344015992, 0.0, -0.00039194484804099526, 0.0, -0.00033721559475348315, array([[-0.12834157]])]
[12.600000000000044, -0.40287734275619236, 2.573340892791748, -0.7618120908737183, 0.0, 0.0002958681086410353, 0.0, -0.0003841842615344472, 0.0, -0.00020691356923066405, array([[ -1.01219609e-05]])]
[12.650000000000045, 0.601345693257364, 2.557074785232544, -0.9540218114852905, 0.0, 0.0003166168728168074, 0.0, -0.0002620394172984543, 0.0, -0.000145700993740135, array([[ -1.25583916e-07]])]
[12.700000000000045, 1.3845570201470547, 2.473698854446411, -1.2958972454071045, 0.0, 0.00028519429008140785, 0.0, -4.322155740364056e-05, 0.0, -0.0001014957761350184, array([[ -2.96458603e-11]])]
[12.750000000000046, 2.029860500052415, 2.441441059112549, -1.0576024055480957, 0.0, 0.00023253532331311025, 0.0, -3.3074427100149764e-05, 0.0, -0.00013639103789381659, array([[ -2.97451753e-08]])]
[12.800000000000047, 1.591071155535652, 2.407881498336792, 0.038527004420757294, 0.0, 0.00012497728873033632, 0.0, -0.00015436695779997127, 0.0, -4.8731399777977634e-05, array([[-0.90014595]])]
[12.850000000000048, 1.0728087966042497, 2.4169976711273193, 0.4769919812679291, 0.0, 7.775323751637332e-05, 0.0, -0.0002467691991736074, 0.0, -6.078739330118333e-06, array([[-0.29973733]])]
[12.900000000000048, -0.42877485446329283, 2.5088346004486084, 1.6417711973190308, 0.0, -1.0493989466136493e-05, 0.0, -0.00024185132188637195, 0.0, -8.416679212001991e-07, array([[ -2.37265743e-12]])]
[12.950000000000049, -2.164965708323244, 2.5426859855651855, 1.597367763519287, 0.0, 8.847550606392426e-05, 0.0, 7.377539568184748e-05, 0.0, -0.00014835364536769206, array([[ -6.73326009e-12]])]
[13.00000000000005, -2.363215201173695, 2.6398277282714844, 0.9643568396568298, 0.0, 0.00014115516360661468, 0.0, 0.0007771490541658114, 0.0, -0.00024001362300635467, array([[-0.00010367]])]
[13.05000000000005, -1.7982384012826798, 2.6645801067352295, 0.696552574634552, 0.0, 0.00022440095720568427, 0.0, 0.0014669141129092834, 0.0, -0.0003110478224230156, array([[-0.00444512]])]
[13.100000000000051, -0.6440153757369125, 2.693249225616455, 0.005352414678782225, 0.0, 0.0001741144993536661, 0.0, 0.0024923707172298418, 0.0, -0.0003797792973340934, array([[-0.06913215]])]
[13.150000000000052, -0.013649746822778003, 2.6910064220428467, -0.26381683349609375, 0.0, 0.0001766718283264009, 0.0, 0.0034413420748011718, 0.0, -0.0004615418525654758, array([[-0.00693247]])]
[13.200000000000053, 0.5243926632364375, 2.650951623916626, -0.9536217451095581, 0.0, 0.00012458225733582987, 0.0, 0.004906090822318112, 0.0, -0.0006122585140914291, array([[ -5.70200330e-08]])]
[13.250000000000053, 0.9870432419933324, 2.6240971088409424, -1.0925008058547974, 0.0, 3.1324489423209764e-05, 0.0, 0.00548389355916144, 0.0, -0.0006509167619076064, array([[ -1.73816012e-09]])]
[13.300000000000054, 1.1791337285436085, 2.5542969703674316, -0.47191157937049866, 0.0, 1.4681216448874329e-05, 0.0, 0.0035227981379440305, 0.0, -0.0006236641678163211, array([[ -1.83499688e-08]])]
[13.350000000000055, 1.0946807200677031, 2.5491795539855957, -0.16029377281665802, 0.0, 9.790852820164713e-06, 0.0, 0.002254862960748139, 0.0, -0.0005335683749416696, array([[-0.06237237]])]
[13.400000000000055, 0.4925613486865556, 2.582397937774658, 0.9540117383003235, 0.0, -4.7470196662449154e-05, 0.0, 0.0013289123337197769, 0.0, -0.000571542946427055, array([[-0.10116674]])]
[13.450000000000056, -0.3184060766101364, 2.6135642528533936, 1.105043888092041, 0.0, -3.57385295412367e-06, 0.0, 0.0006032944139693042, 0.0, -0.0006114675991947482, array([[ -4.92349112e-06]])]
[13.500000000000057, -1.4864019829981612, 2.688981056213379, 0.7361618876457214, 0.0, 8.609982112280483e-05, 0.0, 0.00012585095565701633, 0.0, -0.0005269144568293163, array([[-0.00261038]])]
[13.550000000000058, -1.1468014806034659, 2.7074034214019775, 0.4734557867050171, 0.0, 0.00015189233426961688, 0.0, -0.00012934065230199682, 0.0, -0.0004564601729489496, array([[-0.02446832]])]
[13.600000000000058, -0.8794380686647285, 2.7209954261779785, -0.21534080803394318, 0.0, 7.046123218587598e-05, 0.0, -0.0002448603693869061, 0.0, -0.0003885182615430114, array([[-0.01059444]])]
[13.650000000000059, 0.03236098990154892, 2.7134785652160645, -0.4842802882194519, 0.0, -2.3243995940492166e-06, 0.0, -0.0002339876770859005, 0.0, -0.00031719689935292265, array([[-0.00028553]])]
[13.70000000000006, 0.20718232159992686, 2.658891439437866, -1.169548511505127, 0.0, -6.579838163497047e-05, 0.0, -6.761211806344493e-05, 0.0, -0.0002897152030012301, array([[ -1.64412575e-10]])]
[13.75000000000006, 0.7789275885154834, 2.6249873638153076, -1.4054561853408813, 0.0, -0.00012378605544299074, 0.0, -5.915752787170133e-05, 0.0, -0.00028549908128834084, array([[ -1.44007640e-13]])]
[13.800000000000061, 0.6924632193894633, 2.516669511795044, -1.521072268486023, 0.0, -0.0001029725581108505, 0.0, -7.819511103226817e-05, 0.0, -0.00021604071324319261, array([[ -6.15530037e-15]])]
[13.850000000000062, 0.6524850947409929, 2.4779670238494873, -1.4004582166671753, 0.0, -8.4529665153929e-06, 0.0, -0.000209355831619117, 0.0, -0.00016816503611382833, array([[ -8.64675112e-13]])]
[13.900000000000063, 0.15659784700807963, 2.389909267425537, -1.2158875465393066, 0.0, 6.564354715335186e-05, 0.0, -0.0005195593712691315, 0.0, -8.506939097529307e-05, array([[ -7.34550100e-10]])]
[13.950000000000063, -0.126320528920072, 2.356076717376709, -1.3561245203018188, 0.0, 8.758178705965261e-05, 0.0, -0.0005501476485160628, 0.0, -8.962828908906111e-05, array([[ -1.30435786e-11]])]
[14.000000000000064, 0.2321148736346563, 2.242867946624756, -1.9669086933135986, 0.0, 6.550830042901727e-05, 0.0, -0.00042293139428164995, 0.0, -6.753310235745017e-05, array([[ -3.74085751e-21]])]
[14.050000000000065, 0.953715123143047, 2.1874711513519287, -2.193331480026245, 0.0, 5.145168345678207e-05, 0.0, -0.00023481173388227355, 0.0, -8.320391755948893e-05, array([[ -1.27773902e-25]])]
[14.100000000000065, 1.654926710221916, 2.0282511711120605, -2.0908548831939697, 0.0, 1.8939139619953578e-05, 0.0, -3.9413361000397575e-05, 0.0, -3.919694135658251e-05, array([[ -8.77042409e-30]])]
[14.150000000000066, 2.028995745833963, 1.9775917530059814, -1.705460786819458, 0.0, 4.6726261215918605e-05, 0.0, -0.00014531998064330168, 0.0, -1.576631607798007e-05, array([[ -2.74185550e-15]])]
[14.200000000000067, 1.7768653207831109, 1.899272084236145, -0.6134064197540283, 0.0, -3.9825972418886705e-05, 0.0, -0.00018877848559423235, 0.0, 6.077951315583327e-05, array([[-0.03964212]])]
[14.250000000000068, 0.9111955039063001, 1.8904376029968262, -0.17483840882778168, 0.0, -6.390029288144222e-05, 0.0, -0.0001600621834158468, 0.0, 6.836730055685019e-05, array([[-6.04850499]])]
[14.300000000000068, 7.0122292842583125, 1.921039342880249, 0.8295682668685913, 0.0, -5.983293886312293e-05, 0.0, -0.0002505843324287626, 0.0, 0.0001160799143614597, array([[-12.5402801]])]
[14.350000000000069, 13.081383562667114, 1.9515928030014038, 1.217410683631897, 0.0, 6.062655967968489e-05, 0.0, -0.00019276303425427247, 0.0, 7.054797933178465e-05, array([[ -3.16894417e-05]])]
[14.40000000000007, -0.41797408295892474, 2.0833375453948975, 2.250199556350708, 0.0, -8.084319237765428e-05, 0.0, -0.0004063080951905144, 0.0, 7.750668759761037e-07, array([[ -1.19369212e-22]])]
[14.45000000000007, -1.2403780473396182, 2.1498348712921143, 2.199087142944336, 0.0, -8.64431132353261e-05, 0.0, -0.0001926973641326961, 0.0, -6.481352268451248e-05, array([[ -7.52613870e-22]])]
[14.500000000000071, -2.031823544949293, 2.3057680130004883, 1.476759433746338, 0.0, -0.00024496852235232603, 0.0, 0.0006434194179338685, 0.0, -0.0002636652134366652, array([[ -2.43443964e-09]])]
[14.550000000000072, -1.6508487132806706, 2.3351924419403076, 1.285502552986145, 0.0, -0.00029569604542789774, 0.0, 0.0012099900604344064, 0.0, -0.00038481108464550267, array([[ -4.05333039e-07]])]
[14.600000000000072, -1.669616051294807, 2.414311170578003, 0.5181358456611633, 0.0, -0.00041758081880975635, 0.0, 0.0023360163792338923, 0.0, -0.0005015298091133197, array([[-0.22452518]])]
[14.650000000000073, -0.881120599845738, 2.4244117736816406, 0.32629257440567017, 0.0, -0.0004588963057674051, 0.0, 0.003180356836258836, 0.0, -0.0005262172961938177, array([[-0.44849109]])]
[14.700000000000074, 0.4579694347881313, 2.428663969039917, -0.3576508164405823, 0.0, -0.000595589817847788, 0.0, 0.004613594039700864, 0.0, -0.0006223672651650761, array([[-0.02423134]])]
[14.750000000000075, 1.1771841261382454, 2.418722152709961, -0.5046417713165283, 0.0, -0.0006630114509745968, 0.0, 0.005220062180353184, 0.0, -0.0006871249175153093, array([[-0.00250493]])]
[14.800000000000075, 1.3080030834215535, 2.3915460109710693, -0.10955935716629028, 0.0, -0.0003304564215139454, 0.0, 0.003421132560897583, 0.0, -0.0007147024745623047, array([[-0.355411]])]
[14.850000000000076, 0.9831858526841892, 2.3974313735961914, 0.32467731833457947, 0.0, -0.00019047737034469506, 0.0, 0.002174510051909501, 0.0, -0.0006830707539940359, array([[-0.53152959]])]
[14.900000000000077, 0.26867371792058636, 2.4671058654785156, 1.4097651243209839, 0.0, -0.000104096949267682, 0.0, 0.0011554680931744818, 0.0, -0.00043611149074031133, array([[ -5.41007217e-09]])]
[14.950000000000077, -1.1199681417746274, 2.511861801147461, 1.5130844116210938, 0.0, 0.00011728229000913053, 0.0, 0.0006404599784545613, 0.0, -0.0003139564801263688, array([[ -1.03218089e-10]])]
[15.000000000000078, -2.0921575041014426, 2.611978054046631, 1.0132683515548706, 0.0, 0.00024456028621150914, 0.0, -0.0001491641418744807, 0.0, -0.0001301677100581051, array([[ -3.71853255e-05]])]
[15.050000000000079, -1.9083760344616536, 2.639010429382324, 0.7486175894737244, 0.0, 0.0003287259577732245, 0.0, -0.00048663312874131154, 0.0, -0.00011134766633140465, array([[-0.00190517]])]
[15.10000000000008, -1.731436680257744, 2.673266887664795, 0.05925062671303749, 0.0, 0.00042710831733233173, 0.0, -0.0007774902289350624, 0.0, 9.106271329867766e-06, array([[-0.07505887]])]
[15.15000000000008, -0.7480162240266237, 2.670424222946167, -0.32487058639526367, 0.0, 0.00041254518863581666, 0.0, -0.0009124242605133033, 0.0, 6.859545558257556e-05, array([[-0.00286444]])]
[15.200000000000081, 0.11650730325391107, 2.6383845806121826, -0.899874746799469, 0.0, 0.00033181118181396324, 0.0, -0.0009617909024521119, 0.0, 0.00018570806157817773, array([[ -8.26320794e-05]])]
[15.250000000000082, 0.47346403200147674, 2.6124496459960938, -1.1549893617630005, 0.0, 0.00028564345667800046, 0.0, -0.0008827937854018902, 0.0, 0.0002527550332185441, array([[ -3.12950922e-10]])]
[15.300000000000082, 0.8476497405171658, 2.516420841217041, -1.5826137065887451, 0.0, 0.00024133602023154537, 0.0, -0.0006777680489658963, 0.0, 0.00034282497706778625, array([[ -1.13735189e-15]])]
[15.350000000000083, 0.9048578678257773, 2.4764351844787598, -1.4247827529907227, 0.0, 0.0002656498994799357, 0.0, -0.0006897306086555012, 0.0, 0.00035697648946380635, array([[ -3.79607945e-13]])]
[15.400000000000084, 0.5078984860893409, 2.403636932373047, -0.7086672782897949, 0.0, 0.00011243798879215165, 0.0, -0.0006546857391358129, 0.0, 0.00027012450754624695, array([[-0.00010664]])]
[15.450000000000085, -0.528861498182471, 2.388066291809082, -0.592814028263092, 0.0, 0.0002635109752371999, 0.0, -0.0005241775611152971, 0.0, 0.00021327827773991658, array([[-0.00071071]])]
[15.500000000000085, -1.0310655209356687, 2.3449301719665527, -0.8987069725990295, 0.0, 0.0002013328420320391, 0.0, -0.0004115423060884737, 0.0, 0.00010026807259666988, array([[ -3.53424750e-06]])]
