time, uz, alt, vel_alt, uthe, roll, uphi, pitch, upsi, yaw, F
[0.0, 0.0, -0.05707789212465286, -0.03506312519311905, 0.0, -0.003727802595627198, 0.0, 0.019477017454413225, 0.0, -0.08286870189374666, array([[ 0.03561927]])]
[0.05, -0.03561773067415221, -0.0566992461681366, -0.03481149673461914, 0.0, -0.0037328835115708003, 0.0, 0.019465233960591678, 0.0, -0.08278342726818166, array([[ 3.21705488]])]
[0.1, -3.2176675240472847, -0.05644151568412781, -0.03485221415758133, 0.0, -0.003783870686577923, 0.0, 0.019390206933025136, 0.0, -0.0827752294449601, array([[ 8.89166113]])]
[0.15000000000000002, -8.892096928372817, -0.05633614957332611, -0.03516094759106636, 0.0, -0.003744775066101495, 0.0, 0.01939958659415571, 0.0, -0.08272374352237426, array([[-1349.97612786]])]
[0.2, 1350.359612799196, -0.056240011006593704, -0.03553963825106621, 0.0, -0.0037409596658718137, 0.0, 0.019393299031700718, 0.0, -0.0826774554084766, array([[-5192.37771975]])]
[0.25, 5193.073535047669, -0.0516844168305397, 0.30165910720825195, 0.0, -0.0038242934343872773, 0.0, 0.018564891250741813, 0.0, -0.08215546606390647, array([[-4610.28144611]])]
[0.3, 4611.220523043962, -0.03631872683763504, 0.6973915100097656, 0.0, -0.0041411683313463616, 0.0, 0.013072018935948953, 0.0, -0.07788797121731997, array([[-110.28232099]])]
[0.35, 110.99024974542215, 0.05504819378256798, 1.76347815990448, 0.0, -0.0032770124848878436, 0.0, 0.0081039273453098, 0.0, -0.06576471571305047, array([[ -8.55232748e-11]])]
[0.39999999999999997, 0.08663406095637931, 0.18828678131103516, 2.4807047843933105, 0.0, -0.0018721819850090436, 0.0, 0.004425348879582386, 0.0, -0.052883593728061506, array([[ -1.38725130e-18]])]
[0.44999999999999996, -0.16264233574271203, 0.284965455532074, 2.2413809299468994, 0.0, -0.0007109594560314757, 0.0, 0.002656280126720917, 0.0, -0.045216097942246986, array([[ -5.42404000e-20]])]
[0.49999999999999994, 0.36754324831068513, 0.34544578194618225, 1.9960061311721802, 0.0, 0.0005322450947470938, 0.0, 0.0012320472085841775, 0.0, -0.03722584255240216, array([[ -7.78458912e-15]])]
[0.5499999999999999, 0.919188959598549, 0.4700123071670532, 1.4577910900115967, 0.0, 0.002052738836448773, 0.0, -0.0005786595661963048, 0.0, -0.026806890316946868, array([[ -7.11135816e-06]])]
[0.6, 2.1623619044597135, 0.513227641582489, 1.6143155097961426, 0.0, 0.002484437999309576, 0.0, -0.0009218453504561231, 0.0, -0.020853441644686884, array([[ -3.86271260e-08]])]
[0.65, 2.2323024261328954, 0.6622101664543152, 2.5330278873443604, 0.0, 0.0020830832320995526, 0.0, -0.0003592485915965167, 0.0, -0.015478039326721135, array([[ -7.02767743e-27]])]
[0.7000000000000001, 1.6009197086095808, 0.7401931285858154, 2.9187989234924316, 0.0, 0.0017691685931833221, 0.0, -0.00027525423588387743, 0.0, -0.012965974134104979, array([[ -1.79257057e-37]])]
[0.7500000000000001, 1.2542303231358527, 0.9881124496459961, 3.8687336444854736, 0.0, 0.0011032634390862512, 0.0, 7.185438028150426e-05, 0.0, -0.010766426457439228, array([[ -1.39721702e-70]])]
[0.8000000000000002, 0.14772441834211353, 1.1025959253311157, 4.219963550567627, 0.0, 0.0009012234216289742, 0.0, 6.766772130183501e-05, 0.0, -0.009400775303286141, array([[ -2.45714022e-85]])]
[0.8500000000000002, -0.25513884723186486, 1.4245904684066772, 4.3416337966918945, 0.0, 0.0003851658170809123, 0.0, 0.00031668795828032343, 0.0, -0.007858491769331306, array([[ -3.63669320e-91]])]
[0.9000000000000002, -0.3519270092248916, 1.5436749458312988, 4.097752571105957, 0.0, 4.785271645396887e-05, 0.0, 0.00044898044230421097, 0.0, -0.006846926865895641, array([[ -1.03330433e-80]])]
[0.9500000000000003, 0.030133089423179646, 1.8163069486618042, 3.4130444526672363, 0.0, -0.0003394575407038212, 0.0, 0.0006248828307352976, 0.0, -0.005465800658177806, array([[ -7.49127489e-55]])]
[1.0000000000000002, 1.1048995810747146, 1.908889889717102, 3.1460201740264893, 0.0, -0.0005802764312060945, 0.0, 0.000689805938902638, 0.0, -0.00431098337740955, array([[ -3.95053707e-46]])]
[1.0500000000000003, 1.467268676161766, 2.128678560256958, 3.266784191131592, 0.0, -0.0006261895484478576, 0.0, 0.0008294677005924732, 0.0, 8.892303840777838e-05, array([[ -1.15474371e-50]])]
[1.1000000000000003, 1.063011871576309, 2.227213144302368, 3.6281371116638184, 0.0, -0.00034000129592448667, 0.0, 0.0005432672081443878, 0.0, 0.000778191421262379, array([[ -1.11502820e-63]])]
[1.1500000000000004, 0.4392203223705291, 2.5254249572753906, 4.5010085105896, 0.0, -0.0003231731085691812, 0.0, 0.0006073108148127566, 0.0, 0.0009130555542058501, array([[ -2.74153575e-101]])]
[1.2000000000000004, -1.0862657678127288, 2.654313325881958, 4.540448188781738, 0.0, -0.00020888103830995526, 0.0, 0.000524100637739404, 0.0, 0.00039772723722937927, array([[ -1.35755888e-103]])]
[1.2500000000000004, -1.3887810325622558, 2.9722588062286377, 4.083539962768555, 0.0, 4.126803756556906e-05, 0.0, 0.00043030743149226986, 0.0, -0.0006025224594232801, array([[ -1.74392013e-84]])]
[1.3000000000000005, -1.5018343675136563, 3.2027554512023926, 3.511086940765381, 0.0, 0.00030066393460377784, 0.0, 0.00041234623216366683, 0.0, -0.0015665365389303258, array([[ -3.75137029e-74]])]
[1.3500000000000005, -1.3486852848529816, 3.337306499481201, 3.126544713973999, 0.0, 0.00045839495768060386, 0.0, 0.00044935595645378, 0.0, -0.002156804601541638, array([[ -8.67662287e-51]])]
[1.4000000000000006, -0.4185319715738296, 3.4224934577941895, 2.857271909713745, 0.0, 0.0006837710857235332, 0.0, 0.0005029643766307481, 0.0, -0.002623891804338887, array([[ -4.86830403e-43]])]
[1.4500000000000006, 0.06886391460895538, 3.606476306915283, 2.1648967266082764, 0.0, 0.000981455702182704, 0.0, 0.0005185252634498848, 0.0, -0.003262082044684579, array([[ -1.21621157e-26]])]
[1.5000000000000007, 0.7449096012115478, 3.6659657955169678, 1.9016293287277222, 0.0, 0.0011463590216391128, 0.0, 0.0004960362357340108, 0.0, -0.00347118528591383, array([[ -1.03280167e-21]])]
[1.5500000000000007, 0.8083205252885818, 3.7942984104156494, 1.7441948652267456, 0.0, 0.0010386759542989508, 0.0, 0.0005827729631288134, 0.0, -0.003457426947655018, array([[ -1.13705618e-19]])]
[1.6000000000000008, 0.46062709033489224, 3.847580909729004, 1.9237151145935059, 0.0, 0.0005701890596502388, 0.0, 0.0005627665960128016, 0.0, -0.003039724324379324, array([[ -3.76796657e-23]])]
[1.6500000000000008, 0.05749732017517091, 3.997654914855957, 2.0079784393310547, 0.0, 0.0001488971383423195, 0.0, 0.000504451999038311, 0.0, -0.0023258790839302537, array([[ -1.13725691e-25]])]
[1.7000000000000008, -0.5753528922796249, 4.05348014831543, 1.8565340042114258, 0.0, 5.9110309923617126e-05, 0.0, 0.0004187492420182069, 0.0, -0.001729357293592103, array([[ -3.75886548e-23]])]
[1.7500000000000009, -0.6132791367173195, 4.167076110839844, 1.207539677619934, 0.0, 5.0531332624925136e-05, 0.0, 0.0004538203485885066, 0.0, -0.0010085626780824515, array([[ -1.72792607e-14]])]
[1.800000000000001, -0.41387832850216083, 4.1982622146606445, 0.9397438168525696, 0.0, 7.718085839223005e-05, 0.0, 0.00042464433670246794, 0.0, -0.0005002667238298748, array([[ -3.90929512e-12]])]
[1.850000000000001, -0.2548791232666023, 4.2433671951293945, 0.247858464717865, 0.0, 0.00012380545308726586, 0.0, 0.0005183248884432766, 0.0, 0.0001621288606846935, array([[ -1.81603531e-09]])]
[1.900000000000001, 0.4648907786886702, 4.247446060180664, -0.021495353430509567, 0.0, 9.895442211048799e-05, 0.0, 0.000472470588900326, 0.0, 0.0005974128249566332, array([[ -1.01124035e-09]])]
[1.950000000000001, 0.8350779754536329, 4.226649761199951, -0.495260089635849, 0.0, 8.566410194611682e-05, 0.0, 0.0006641057836799766, 0.0, 0.001081179498474603, array([[ -6.89288785e-12]])]
[2.000000000000001, 1.2487678015301016, 4.214844226837158, -0.3562356233596802, 0.0, 9.817491002974424e-05, 0.0, 0.0006165423412291479, 0.0, 0.0012511173848360885, array([[ -6.95650770e-11]])]
[2.0500000000000007, 0.9293426752413576, 4.218732833862305, 0.5476736426353455, 0.0, 2.6227249582867328e-05, 0.0, 0.0005506288212718877, 0.0, 0.0010941395021137825, array([[ -5.85977743e-10]])]
[2.1000000000000005, -0.48396356382482786, 4.278294563293457, 1.2861539125442505, 0.0, -5.8319440965431665e-05, 0.0, 0.000474130309871516, 0.0, 0.0007134480681710862, array([[ -1.49940090e-12]])]
[2.1500000000000004, -1.1211746728405263, 4.326627254486084, 1.0355989933013916, 0.0, -3.3058285500479216e-05, 0.0, 0.00035377000976981944, 0.0, 0.00047439907854516475, array([[ -8.34521608e-14]])]
[2.2, -1.5298713508247492, 4.352637767791748, 0.7782553434371948, 0.0, -8.063635054679736e-05, 0.0, 0.0003770337512601239, 0.0, 0.0003635435008365287, array([[ -5.46100495e-12]])]
[2.25, -1.1718436422889458, 4.385477542877197, 0.09054768085479736, 0.0, -7.007187774001895e-05, 0.0, 0.000452582996969674, 0.0, 5.435357653392317e-05, array([[ -1.86498700e-10]])]
[2.3, 0.267775059156354, 4.385751247406006, -0.1771479994058609, 0.0, -5.1931928633841415e-05, 0.0, 0.0005121847505268831, 0.0, -6.129481555313823e-05, array([[ -3.90358037e-11]])]
[2.3499999999999996, 0.8778170042875356, 4.353557109832764, -0.7600807547569275, 0.0, -0.00010373802132490444, 0.0, 0.000674159666004345, 0.0, -0.00025266319159811246, array([[ -4.89223379e-15]])]
[2.3999999999999995, 1.7818582449853468, 4.33174991607666, -0.8109349012374878, 0.0, -0.00013989650132567984, 0.0, 0.000673381813306058, 0.0, -0.0003275281312917116, array([[ -2.10125634e-15]])]
[2.4499999999999993, 1.675819850564005, 4.305596351623535, 0.1434231996536255, 0.0, -0.00019397534347059014, 0.0, 0.0005990063430566707, 0.0, -0.0003889049387381439, array([[ -7.10727626e-10]])]
[2.499999999999999, 0.237014108116867, 4.316897392272949, 0.6001635193824768, 0.0, -0.00012899995935109016, 0.0, 0.0004828476909686587, 0.0, -0.0004141660957581478, array([[ -8.40506615e-11]])]
[2.549999999999999, -0.4396815946230211, 4.3894171714782715, 0.998448371887207, 0.0, -0.000148480975823942, 0.0, 0.0006488915059213519, 0.0, -0.00038434315679042167, array([[ -6.78825111e-14]])]
[2.5999999999999988, -1.346712919101051, 4.41513729095459, 0.7640808820724487, 0.0, -0.00013070689503953136, 0.0, 0.0005849812319058535, 0.0, -0.00028503523513250727, array([[ -2.53988211e-12]])]
[2.6499999999999986, -1.2174074087266555, 4.447007656097412, 0.08204661309719086, 0.0, -0.00019203047788719834, 0.0, 0.0006447269912214562, 0.0, -0.00022369309413809788, array([[ -6.95438943e-11]])]
[2.6999999999999984, -0.19879376799364365, 4.445999622344971, -0.18624247610569, 0.0, -0.0002087323479717694, 0.0, 0.0007217992901729135, 0.0, -0.0002653476101262509, array([[ -1.39273276e-11]])]
[2.7499999999999982, 0.4118836588179267, 4.4084601402282715, -0.8708850145339966, 0.0, -0.00020867106552803217, 0.0, 0.0008635729735917212, 0.0, -0.0003666834073192489, array([[ -1.36878204e-16]])]
[2.799999999999998, 1.8361187420785428, 4.381807327270508, -1.0368911027908325, 0.0, -0.00022020011470205847, 0.0, 0.0009825648288657928, 0.0, -0.00032691488781278285, array([[ -2.19654311e-18]])]
[2.849999999999998, 2.04357852242887, 4.315072059631348, -0.5170401334762573, 0.0, -0.00017355848925635812, 0.0, 0.0008553281569237564, 0.0, -0.0002820366561155271, array([[ -1.23474360e-12]])]
[2.8999999999999977, 1.104388818481309, 4.30727481842041, -0.06190306693315506, 0.0, -2.6910950487633978e-05, 0.0, 0.000673300607237996, 0.0, -0.00018174627296916332, array([[ -3.24112635e-10]])]
[2.9499999999999975, 0.4642756745107596, 4.345592975616455, 1.0919488668441772, 0.0, -0.0001666284173300118, 0.0, 0.0006385856043117141, 0.0, -0.0001362718197641522, array([[ -1.85925846e-14]])]
[2.9999999999999973, -1.2073155630007197, 4.379342079162598, 1.2346159219741821, 0.0, -9.312106234515113e-05, 0.0, 0.0004833536436358022, 0.0, -0.00015815748319279767, array([[ -3.65217217e-16]])]
[3.049999999999997, -1.566522189304232, 4.458347797393799, 0.7916041016578674, 0.0, 1.0507190306777355e-05, 0.0, 0.0003601908722777565, 0.0, -0.00022185912115144703, array([[ -8.42947251e-13]])]
[3.099999999999997, -1.0620386240622914, 4.477386474609375, 0.5271582007408142, 0.0, 0.0001050764836708855, 0.0, 0.0003227023857752489, 0.0, -0.0002280817928397084, array([[ -1.34430781e-11]])]
[3.149999999999997, -0.309185930737821, 4.492164611816406, -0.1619366705417633, 0.0, 0.0002817917724805549, 0.0, 0.00039507898630388675, 0.0, -0.000290251830467617, array([[ -8.14844109e-12]])]
[3.1999999999999966, 1.02133485727827, 4.484492778778076, -0.430550217628479, 0.0, 0.0003400973323794059, 0.0, 0.00041522771704272354, 0.0, -0.00031957109293459664, array([[ -3.61787654e-13]])]
[3.2499999999999964, 1.4888573236022036, 4.447454929351807, -0.22840584814548492, 0.0, 0.00033660257533980333, 0.0, 0.0005771677289395993, 0.0, -0.00029391928005033895, array([[ -8.75258523e-12]])]
[3.2999999999999963, 0.9586437001166845, 4.447872161865234, 0.22296056151390076, 0.0, 0.00020407081154408398, 0.0, 0.0004297057465486891, 0.0, -0.00019383166065991956, array([[ -8.26932524e-11]])]
[3.349999999999996, 0.3236172475188888, 4.505896091461182, 1.3174717426300049, 0.0, 0.00017920076374499828, 0.0, 0.00048222826320944373, 0.0, -0.00023328174845376745, array([[ -5.20771898e-18]])]
[3.399999999999996, -1.2856659845635294, 4.5468430519104, 1.4912776947021484, 0.0, 7.174894420075356e-05, 0.0, 0.0005594491245058187, 0.0, -0.00010989891274458305, array([[ -1.47714911e-20]])]
[3.4499999999999957, -1.67676237443462, 4.6403398513793945, 0.9773955345153809, 0.0, -3.408269761865611e-05, 0.0, 0.00047095633472121377, 0.0, -6.0362313813776115e-05, array([[ -1.83997637e-15]])]
[3.4999999999999956, -1.1957224733475575, 4.664661884307861, 0.7115250825881958, 0.0, -0.00012997403868881725, 0.0, 0.0005035876503948889, 0.0, -2.4309311817754638e-05, array([[ -9.18942932e-14]])]
[3.5499999999999954, -0.6696494766323839, 4.692603588104248, 0.021526187658309937, 0.0, -0.00022608123133263913, 0.0, 0.0005567137623402453, 0.0, 7.360976115604025e-05, array([[ -1.02343675e-12]])]
[3.599999999999995, 0.8071903442787927, 4.690084934234619, -0.24731627106666565, 0.0, -0.0003108798744295641, 0.0, 0.0006129645567817445, 0.0, 0.00016073709714726564, array([[ -1.38796479e-13]])]
[3.649999999999995, 1.3075702114171803, 4.663302421569824, -0.2538282573223114, 0.0, -0.0003024027532895826, 0.0, 0.0007887549605463009, 0.0, 0.00023261564937564577, array([[ -1.97457227e-13]])]
[3.699999999999995, 1.1529941169081366, 4.661604404449463, 0.1282951384782791, 0.0, -0.00027341457285630057, 0.0, 0.0005961067975751519, 0.0, 0.00028879302265793594, array([[ -2.44663127e-12]])]
[3.7499999999999947, 0.5702791237669317, 4.71282958984375, 1.2669342756271362, 0.0, -0.00014280151894828036, 0.0, 0.0005223535542508629, 0.0, 0.00034910719905117585, array([[ -6.92049729e-19]])]
[3.7999999999999945, -1.0771014515147543, 4.7526960372924805, 1.4974768161773682, 0.0, -0.00016070701184385888, 0.0, 0.0004774736731049042, 0.0, 0.0003192661603856079, array([[ -3.97767182e-22]])]
[3.8499999999999943, -1.5249242581409632, 4.856038570404053, 1.1657534837722778, 0.0, -0.00016528564746261823, 0.0, 0.0003445953907839909, 0.0, 8.991289407348749e-05, array([[ -7.78440505e-19]])]
[3.899999999999994, -1.5462135920440776, 4.886780261993408, 0.9030359387397766, 0.0, -0.00021139927275598292, 0.0, 0.00021206743797994856, 0.0, -2.387753111020639e-05, array([[ -1.12358567e-16]])]
[3.949999999999994, -1.1220194002939385, 4.930935859680176, 0.2144932895898819, 0.0, -0.0002778619913375159, 0.0, 0.00019255425551477842, 0.0, -0.00020325884948744816, array([[ -2.45151999e-14]])]
[3.999999999999994, 0.3270349831553421, 4.934776782989502, -0.05455061048269272, 0.0, -0.0002934170278954556, 0.0, 0.00021457191665029724, 0.0, -0.0003979820079538741, array([[ -1.06810616e-14]])]
[4.049999999999994, 0.9265907452115895, 4.912920951843262, -0.5362995266914368, 0.0, -0.0002826098563184011, 0.0, 0.00036019375144434276, 0.0, -0.000588758070225958, array([[ -4.28442335e-17]])]
[4.099999999999993, 1.6500636425847188, 4.902310848236084, -0.28306156396865845, 0.0, -0.00029145269125906056, 0.0, 0.0003814418647109496, 0.0, -0.0006867120268416802, array([[ -2.37605348e-15]])]
[4.149999999999993, 1.173677231478507, 4.9206743240356445, 0.7766655683517456, 0.0, -0.00014290726076590386, 0.0, 0.0002986150268457202, 0.0, -0.0007497294561553584, array([[ -4.55779817e-16]])]
[4.199999999999993, -0.34004212481900997, 4.949466228485107, 1.2141352891921997, 0.0, -0.00013766850264583305, 0.0, 0.00021194098481951926, 0.0, -0.0007381745038459587, array([[ -4.67316254e-20]])]
[4.249999999999993, -0.9966913710348309, 5.061892032623291, 1.4602237939834595, 0.0, -0.0002120532584988055, 0.0, 0.00046695416998598644, 0.0, -0.0007806934443144932, array([[ -5.48578867e-24]])]
[4.299999999999993, -1.7383649422600862, 5.101330757141113, 1.2064963579177856, 0.0, -0.00032361727357268876, 0.0, 0.0007911411201906674, 0.0, -0.0007165402166654349, array([[ -3.62907972e-21]])]
[4.3499999999999925, -1.555211404915899, 5.167990684509277, 0.521884024143219, 0.0, -0.000468049412199728, 0.0, 0.0012615243300176282, 0.0, -0.0006294635315936218, array([[ -8.93034827e-17]])]
[4.399999999999992, -0.5212336653645614, 5.180485725402832, 0.25315549969673157, 0.0, -0.0005777703590033203, 0.0, 0.0017111290248619996, 0.0, -0.0005282573539775647, array([[ -2.57713850e-16]])]
[4.449999999999992, 0.04116221878677632, 5.176965713500977, -0.43675491213798523, 0.0, -0.00073613964746376, 0.0, 0.002413594324587441, 0.0, -0.0004043183131476778, array([[ -1.85814188e-18]])]
[4.499999999999992, 1.117193210814148, 5.162230968475342, -0.7016706466674805, 0.0, -0.0008489993926650214, 0.0, 0.002897135422177233, 0.0, -0.00027054848278029194, array([[ -1.64768640e-20]])]
[4.549999999999992, 1.3053880130592734, 5.111539840698242, -0.3949805498123169, 0.0, -0.0008139200107059552, 0.0, 0.0027940578115637285, 0.0, -0.0002498880355722003, array([[ -1.18950765e-17]])]
[4.599999999999992, 0.5647062258981168, 5.108171463012695, 0.05537004396319389, 0.0, -0.00046027174557651453, 0.0, 0.0016524330691666418, 0.0, -0.00026927727136649953, array([[ -7.96675074e-16]])]
[4.6499999999999915, -0.099026869479566, 5.141331672668457, 0.5243797302246094, 0.0, -0.00043700207256796474, 0.0, 0.001327737181701199, 0.0, -0.00011636255911321828, array([[ -1.44153197e-16]])]
[4.699999999999991, -1.0877149729244406, 5.155938148498535, 0.3201555609703064, 0.0, -0.0003604034274010047, 0.0, 0.0011538735200024718, 0.0, -1.8331077471904334e-05, array([[ -3.52720209e-16]])]
[4.749999999999991, -1.0402816069126124, 5.15990686416626, -0.3531462550163269, 0.0, -0.0001372366546920539, 0.0, 0.001122631254987268, 0.0, 0.0001460039645623889, array([[ -8.76817231e-18]])]
[4.799999999999991, -0.19673704361543057, 5.148006916046143, -0.6209763884544373, 0.0, -4.957708849893711e-06, 0.0, 0.0011579393851057905, 0.0, 0.00023306923430501642, array([[ -1.19427837e-19]])]
[4.849999999999991, 0.4063615856692194, 5.081986427307129, -1.3058538436889648, 0.0, 0.00020557181274846758, 0.0, 0.0013773345374892602, 0.0, 0.0003335232151955829, array([[ -1.51392719e-27]])]
[4.899999999999991, 1.844532970562577, 5.044208526611328, -1.4765384197235107, 0.0, 0.0004050599625798849, 0.0, 0.001476817028058768, 0.0, 0.00046492607485594626, array([[ -4.78283789e-30]])]
[4.94999999999999, 2.0414379083923992, 4.947053909301758, -0.9857128858566284, 0.0, 0.00032142320372874073, 0.0, 0.0011352409915109504, 0.0, 0.0005202746419020386, array([[ -6.07077711e-22]])]
[4.99999999999999, 1.1793206238001583, 4.926883697509766, -0.5430640578269958, 0.0, 0.00016912785663703, 0.0, 0.0006912575901047153, 0.0, 0.00042279136478024393, array([[ -3.04445277e-17]])]
[5.04999999999999, 0.5293251581862568, 4.932798862457275, 0.6216381192207336, 0.0, 0.00026503400571739047, 0.0, 0.0005052374660844846, 0.0, 0.0003546062445839309, array([[ -2.56957692e-15]])]
[5.09999999999999, -1.146882905289528, 4.956083297729492, 0.8468543291091919, 0.0, 0.00010389742972356317, 0.0, 0.0003187766556151332, 0.0, 0.0003639967459885625, array([[ -8.59390423e-17]])]
[5.14999999999999, -1.5884551572427152, 5.013410568237305, 0.4598327875137329, 0.0, -0.00017205386932861056, 0.0, 0.00036291354989959735, 0.0, 0.0002508268249736497, array([[ -2.41844181e-15]])]
[5.1999999999999895, -1.109783959295598, 5.024417877197266, 0.19572106003761292, 0.0, -0.0002184180083752455, 0.0, 0.0004989134005798247, 0.0, 0.00021379861733887746, array([[ -4.77294568e-15]])]
[5.249999999999989, -0.5212383174151134, 5.0171637535095215, -0.49372953176498413, 0.0, -0.00044141201530062505, 0.0, 0.0008424241597272496, 0.0, 0.0001846701599100023, array([[ -1.40449796e-17]])]
[5.299999999999989, 0.9730318078957497, 5.000964164733887, -0.7626843452453613, 0.0, -0.0006143095181181366, 0.0, 0.0010526104639816296, 0.0, 0.00013530526341666514, array([[ -8.07087266e-20]])]
[5.349999999999989, 1.4792992173507808, 4.940894603729248, -0.6085478663444519, 0.0, -0.0007461010614410299, 0.0, 0.001374355985161094, 0.0, 4.702895361314301e-05, array([[ -6.65970339e-18]])]
[5.399999999999989, 1.3142941214889288, 4.931344509124756, -0.16963791847229004, 0.0, -0.0004124055450894323, 0.0, 0.0009252916043714231, 0.0, -4.554081129959974e-05, array([[ -4.72866834e-15]])]
[5.449999999999989, 0.6781017686612952, 4.964056491851807, 0.9840640425682068, 0.0, -0.00039168310063066123, 0.0, 0.000558303495355185, 0.0, -7.816530376490174e-05, array([[ -6.24805708e-18]])]
[5.4999999999999885, -0.9809069355728569, 4.998747825622559, 1.2645028829574585, 0.0, -0.0001877604297678955, 0.0, 0.0005726483948083593, 0.0, 1.2421707016463121e-05, array([[ -5.27841905e-21]])]
[5.549999999999988, -1.479186522774398, 5.094637393951416, 1.0207545757293701, 0.0, 4.6102617786761594e-05, 0.0, 0.0004492987554779826, 0.0, 1.0968537724591443e-05, array([[ -2.81044771e-19]])]
[5.599999999999988, -1.598433749973774, 5.121922016143799, 0.758808970451355, 0.0, 0.00017064328270549996, 0.0, 0.0003184607794892882, 0.0, 6.021287228194003e-05, array([[ -1.60164183e-17]])]
[5.649999999999988, -1.2848761738091705, 5.156772136688232, 0.07069091498851776, 0.0, 0.00029776144226448167, 0.0, 0.0003172464990398538, 0.0, 0.00011940710877203129, array([[ -3.34454447e-16]])]
[5.699999999999988, 0.15277652362361582, 5.15708065032959, -0.19794422388076782, 0.0, 0.0003867585311691369, 0.0, 0.00038644847323320865, 0.0, 0.00021881686854729977, array([[ -5.92697398e-17]])]
[5.749999999999988, 0.7626680630631746, 5.123915672302246, -0.8377887606620789, 0.0, 0.0005142591657284858, 0.0, 0.0005208135792300327, 0.0, 0.00028411939677139964, array([[ -1.30144263e-21]])]
[5.799999999999987, 1.5691597567498683, 5.101085662841797, -0.8719752430915833, 0.0, 0.0004934837502863409, 0.0, 0.0005573255668025428, 0.0, 0.00030865247550019176, array([[ -8.40478674e-22]])]
[5.849999999999987, 1.3875595446117222, 5.066044807434082, -0.03550373390316963, 0.0, 0.00029329294697908327, 0.0, 0.0003025067503366062, 0.0, 0.00036351878532544634, array([[ -1.11029331e-15]])]
[5.899999999999987, 0.11311217419337591, 5.07356071472168, 0.41641828417778015, 0.0, 0.0001610023165934515, 0.0, 0.0001755275022355098, 0.0, 0.000293019023933227, array([[ -1.08440560e-15]])]
[5.949999999999987, -0.5548501526564348, 5.122445106506348, 0.4670143127441406, 0.0, 0.00014218928409837384, 0.0, 8.960430307389502e-05, 0.0, 0.0002358601375957272, array([[ -3.16308599e-16]])]
[5.999999999999987, -1.0888896065391596, 5.134075164794922, 0.21613337099552155, 0.0, 0.00013630728569430478, 0.0, -3.855238634043009e-06, 0.0, 0.00021764606582734018, array([[ -6.40691653e-16]])]
[6.0499999999999865, -0.9510048110783094, 5.128937244415283, -0.4677915871143341, 0.0, 0.00016138114808836077, 0.0, 0.00010669339601075947, 0.0, 0.0001921139392643265, array([[ -2.79836881e-18]])]
[6.099999999999986, 0.1373195788823068, 5.113616943359375, -0.7363189458847046, 0.0, 0.00014001777148998438, 0.0, 0.0001812035757837243, 0.0, 0.00016725136912669393, array([[ -1.88704650e-20]])]
[6.149999999999986, 0.7487359935604034, 5.040566921234131, -1.3653066158294678, 0.0, 0.00017376499354536317, 0.0, 0.0003616517762108697, 0.0, -5.953431129281021e-06, array([[ -3.73059309e-28]])]
[6.199999999999986, 1.8427022029459474, 4.965620517730713, -1.0840314626693726, 0.0, -3.696815797523496e-06, 0.0, 0.0003115002941571816, 0.0, -0.0001192761539385305, array([[ -2.34750005e-27]])]
[6.249999999999986, 1.7297945560514925, 4.9361066818237305, -0.47956886887550354, 0.0, 9.399660594666399e-05, 0.0, 0.00016422259362772133, 0.0, -0.0001853541163969862, array([[ -7.73610716e-17]])]
[6.299999999999986, 0.4211268296092749, 4.9314422607421875, -0.02667715959250927, 0.0, -7.544457682683302e-05, 0.0, 7.361565685687599e-05, 0.0, -0.00011809824338523568, array([[ -1.35992887e-14]])]
[6.349999999999985, -0.28595433532258996, 4.970304012298584, 0.6704939007759094, 0.0, 2.4140918458696314e-05, 0.0, 0.00012862618452276663, 0.0, -0.00013512124016081128, array([[ -7.71549601e-16]])]
[6.399999999999985, -1.4500748633593312, 4.989650249481201, 0.509762704372406, 0.0, 3.502809086741984e-05, 0.0, 5.395502715202998e-05, 0.0, -0.00015332928577339286, array([[ -2.69260642e-15]])]
[6.449999999999985, -1.4281473043560955, 5.008430004119873, -0.15437953174114227, 0.0, -9.26097938157237e-05, 0.0, 8.720115693818678e-05, 0.0, -0.00020736651784073989, array([[ -1.33792881e-15]])]
[6.499999999999985, -0.5173984961956726, 5.002688884735107, -0.4225873351097107, 0.0, -0.00015234437353832362, 0.0, 0.0002469174052215452, 0.0, -0.00033045010321299494, array([[ -5.98481280e-17]])]
[6.549999999999985, 0.2989873287826777, 4.952134609222412, -1.1138263940811157, 0.0, -0.0002347982249697523, 0.0, 0.0005541642474800806, 0.0, -0.0004390666329452429, array([[ -1.15230742e-23]])]
[6.5999999999999845, 1.581291424334049, 4.919620990753174, -1.339640736579895, 0.0, -0.00022505520246842025, 0.0, 0.0007871106596868461, 0.0, -0.0005565956014891274, array([[ -9.24599722e-27]])]
[6.649999999999984, 1.980872953645885, 4.826503753662109, -1.010895013809204, 0.0, -0.0002186720653629486, 0.0, 0.0008112811863278898, 0.0, -0.0006102065242601353, array([[ -2.55040240e-21]])]
[6.699999999999984, 1.3209757824614643, 4.806916236877441, -0.5724772810935974, 0.0, -0.00019021272344404733, 0.0, 0.00043271145806092313, 0.0, -0.0006165652446535228, array([[ -1.46916197e-16]])]
[6.749999999999984, 0.6776544485241175, 4.813297748565674, 0.5834829211235046, 0.0, -0.00019351398463031045, 0.0, 0.00022424406987429585, 0.0, -0.00044795840333211297, array([[ -3.09809486e-14]])]
[6.799999999999984, -0.9855855358019161, 4.836123466491699, 0.8380095958709717, 0.0, -0.00016571227718048965, 0.0, 0.00014837855861967844, 0.0, -0.00033760853898957843, array([[ -8.27580263e-16]])]
[6.849999999999984, -1.4978290364518752, 4.9005608558654785, 0.590959906578064, 0.0, -0.00027868807874975544, 0.0, 0.0001454191649409303, 0.0, -4.225140443860824e-05, array([[ -6.29752735e-15]])]
[6.8999999999999835, -1.2219921786338026, 4.915532112121582, 0.32898709177970886, 0.0, -0.0003561477957634222, 0.0, 0.00018020989915063431, 0.0, 7.305054277622083e-05, array([[ -2.74198838e-14]])]
[6.949999999999983, -0.6964985845982754, 4.919070243835449, -0.3600287437438965, 0.0, -0.00032172369386357017, 0.0, 0.0003713210542168845, 0.0, 0.00019491158432121235, array([[ -6.53583852e-16]])]
[6.999999999999983, 0.7763514132052666, 4.907224178314209, -0.6293226480484009, 0.0, -0.000354505426351115, 0.0, 0.0007012396478641705, 0.0, 0.0002626191710390386, array([[ -8.25854501e-18]])]
[7.049999999999983, 1.305496955886483, 4.852479457855225, -0.7599633932113647, 0.0, -0.0003158911210278172, 0.0, 0.000979128112464889, 0.0, 0.00035076005852389936, array([[ -1.21637769e-18]])]
[7.099999999999983, 1.4903844747692345, 4.837884902954102, -0.4287050664424896, 0.0, -0.00020833029720128648, 0.0, 0.0007643653300666958, 0.0, 0.0003105426692029789, array([[ -1.02226323e-15]])]
[7.149999999999983, 0.9910711193829784, 4.853611946105957, 0.7141734957695007, 0.0, -0.00021300043813429412, 0.0, 0.0002763786197139575, 0.0, 0.00012480952761801458, array([[ -3.55643583e-15]])]
[7.199999999999982, -0.651412632465359, 4.882169246673584, 1.147525668144226, 0.0, -9.075164493456284e-05, 0.0, 0.0001756660750973162, 0.0, 0.00011471574765612626, array([[ -8.04056326e-19]])]
[7.249999999999982, -1.345997348241508, 4.985501289367676, 1.1959739923477173, 0.0, 9.878890145698636e-06, 0.0, 9.525837186068966e-05, 0.0, 9.921414935307764e-05, array([[ -3.86454934e-20]])]
[7.299999999999982, -1.8160822215676307, 5.017805099487305, 0.9374352097511292, 0.0, -2.556367745005734e-05, 0.0, 0.0002276248741725465, 0.0, 4.593715425427064e-05, array([[ -6.01422481e-18]])]
[7.349999999999982, -1.4562375008687376, 5.066064834594727, 0.24930959939956665, 0.0, -3.252082990286043e-05, 0.0, 0.0006051844045767478, 0.0, -0.00016379250320307107, array([[ -2.14588283e-15]])]
[7.399999999999982, -0.033324595466254, 5.071577548980713, -0.019163014367222786, 0.0, -3.3164771945595794e-05, 0.0, 0.0008734081003754367, 0.0, -0.00027354754453140447, array([[ -1.14078414e-15]])]
[7.4499999999999815, 0.5731219226028781, 5.0504374504089355, -0.7100750803947449, 0.0, -1.9304534233324154e-05, 0.0, 0.001430009168112194, 0.0, -0.00044145998755004315, array([[ -1.08628104e-19]])]
[7.499999999999981, 1.4273699887096882, 5.030945777893066, -0.8550404906272888, 0.0, -4.1879522879165004e-05, 0.0, 0.0017685184891451926, 0.0, -0.0004433377534832627, array([[ -4.81968755e-21]])]
[7.549999999999981, 1.360078692510724, 4.989287376403809, -0.21217581629753113, 0.0, -1.751650604463337e-05, 0.0, 0.0012879974592825427, 0.0, -0.0005328318482808465, array([[ -1.10242734e-15]])]
[7.599999999999981, 0.2892526751942944, 4.9922099113464355, 0.23813042044639587, 0.0, -0.00013317473825760775, 0.0, 0.0007180290609585223, 0.0, -0.0004940931891419495, array([[ -8.51871514e-15]])]
[7.649999999999981, -0.37599862579255444, 5.040055751800537, 0.6024037599563599, 0.0, -3.844430102658891e-05, 0.0, 0.0005669257291212537, 0.0, -0.000466070767548665, array([[ -4.66469815e-16]])]
[7.699999999999981, -1.2349143921956414, 5.056405544281006, 0.38405412435531616, 0.0, -2.8417477004966517e-05, 0.0, 0.0003348279948452924, 0.0, -0.00040630037849289177, array([[ -1.76912410e-15]])]
[7.7499999999999805, -1.1770498494431358, 5.064888000488281, -0.2941971719264984, 0.0, 2.0189880229598654e-06, 0.0, 0.0002099893270053519, 0.0, -0.00023281898212425189, array([[ -1.11638616e-16]])]
[7.79999999999998, -0.1641218839958309, 5.054769992828369, -0.5630726218223572, 0.0, 9.599875131035234e-05, 0.0, 0.00019083904825500703, 0.0, -0.00014649328751418426, array([[ -2.11959634e-18]])]
[7.84999999999998, 0.4409801422432065, 4.993173122406006, -1.2485466003417969, 0.0, 0.00023993360866058808, 0.0, 0.00033289460946610516, 0.0, -4.025245155759726e-05, array([[ -6.14368344e-26]])]
[7.89999999999998, 1.779259856827557, 4.958231449127197, -1.404360055923462, 0.0, 0.0002503864181375557, 0.0, 0.0003952670211766192, 0.0, 6.444987035211856e-05, array([[ -4.01670160e-28]])]
[7.94999999999998, 1.887631127797067, 4.868302822113037, -0.9623459577560425, 0.0, 0.00018645353416704046, 0.0, 0.00021357654352071654, 0.0, 0.00019440116271234669, array([[ -4.93278176e-21]])]
[7.99999999999998, 1.0597399100707843, 4.85002326965332, -0.52263343334198, 0.0, -9.001678512353014e-05, 0.0, -4.379698440425588e-05, 0.0, 0.00010890942036000525, array([[ -1.74427207e-16]])]
[8.04999999999998, 0.3184913761913778, 4.859564304351807, 0.6296650171279907, 0.0, 0.00026351255506593135, 0.0, 4.24308002494716e-05, 0.0, -5.220618340181705e-06, array([[ -8.76113044e-15]])]
[8.09999999999998, -1.2801808940246613, 4.883521556854248, 0.836456298828125, 0.0, 2.852054419096827e-05, 0.0, -0.0001975584807169828, 0.0, -1.4501332151416183e-05, array([[ -3.74642117e-16]])]
[8.14999999999998, -1.710335545316338, 4.936182498931885, 0.36572036147117615, 0.0, -0.0003153845126052126, 0.0, -0.000348432023723754, 0.0, -3.2145247777877187e-05, array([[ -1.63311923e-14]])]
[8.199999999999982, -1.1280676438286734, 4.9448933601379395, 0.10073398798704147, 0.0, -0.0004570517723639374, 0.0, -0.00035606229018387783, 0.0, 2.5706653784213766e-05, array([[ -1.80783253e-14]])]
[8.249999999999982, -0.544088871180993, 4.932001113891602, -0.5890547633171082, 0.0, -0.0007103687280656054, 0.0, -0.0001599485265732013, 0.0, -3.736959089581588e-05, array([[ -1.16685754e-17]])]
[8.299999999999983, 0.9414147942140698, 4.885361194610596, -1.067697286605835, 0.0, -0.0008770923117333115, 0.0, 0.00011745181135858341, 0.0, 4.799590412165795e-05, array([[ -3.68505280e-20]])]
[8.349999999999984, 1.523812687732279, 4.852749824523926, -0.6712172031402588, 0.0, -0.0008454874187769647, 0.0, 0.00028824992109877367, 0.0, 3.755654607148416e-06, array([[ -8.91298384e-18]])]
[8.399999999999984, 1.3566489719972012, 4.842072010040283, -0.25734251737594604, 0.0, -0.0006100815619069667, 0.0, 3.672415517110031e-05, 0.0, 6.438918323907361e-05, array([[ -9.49526072e-15]])]
[8.449999999999985, 0.7457743614539599, 4.870299339294434, 0.8880743980407715, 0.0, -0.0005165197235842236, 0.0, 9.75430808244386e-06, 0.0, 0.00010266720549307615, array([[ -1.96362337e-16]])]
[8.499999999999986, -0.9035133506730196, 4.902066230773926, 1.1977936029434204, 0.0, -0.000430481411752362, 0.0, -8.896655060536432e-05, 0.0, 5.7676038957045775e-05, array([[ -1.68502750e-19]])]
[8.549999999999986, -1.4316262580826877, 4.995477199554443, 1.0088108777999878, 0.0, -0.00018272317573511424, 0.0, -0.000230811415341185, 0.0, -3.5192480380847974e-06, array([[ -2.22727485e-18]])]
[8.599999999999987, -1.6512836617976427, 5.022104740142822, 0.747836709022522, 0.0, -4.519579243348526e-05, 0.0, -0.00017096521072466436, 0.0, -6.571044472152451e-06, array([[ -1.18325028e-16]])]
[8.649999999999988, -1.3430389548838135, 5.055865287780762, 0.05924501642584801, 0.0, 8.00684168445456e-05, 0.0, 9.768897187597909e-05, 0.0, -3.9614124033077114e-05, array([[ -2.11963897e-15]])]
[8.699999999999989, 0.008846610188486315, 5.056713104248047, -0.2090238779783249, 0.0, 0.0001843633579045527, 0.0, 0.00028084369857606485, 0.0, -0.00012169421178850152, array([[ -3.45905471e-16]])]
[8.74999999999999, 0.6817941970378163, 5.023355484008789, -0.89797043800354, 0.0, 0.0003163039661716421, 0.0, 0.0006709777803305157, 0.0, -0.0002001757104106614, array([[ -1.76775756e-21]])]
[8.79999999999999, 1.588453278169036, 4.998701095581055, -1.0006617307662964, 0.0, 0.00030774950584636416, 0.0, 0.0008190645376671633, 0.0, -0.0001757949222948054, array([[ -1.58815780e-22]])]
[8.84999999999999, 1.4486364993825556, 4.950800895690918, -0.26207447052001953, 0.0, 0.00013615937610771765, 0.0, 0.0004944524982747372, 0.0, -0.00015531963033265278, array([[ -1.29484081e-15]])]
[8.899999999999991, 0.3362823877483619, 4.952022552490234, 0.18733027577400208, 0.0, 0.00013804293115068274, 0.0, 0.0002296835806916901, 0.0, -0.00016882441740980812, array([[ -1.79808204e-14]])]
[8.949999999999992, -0.3280592407285987, 4.993394374847412, 0.5116220712661743, 0.0, 5.928734300291085e-05, 0.0, 2.496377259855249e-05, 0.0, -0.00017086257915269185, array([[ -2.46591182e-15]])]
[8.999999999999993, -1.1452834846451854, 5.007419586181641, 0.31093958020210266, 0.0, 6.724965496834724e-05, 0.0, -9.08187664720527e-05, 0.0, -0.00017322659637600558, array([[ -5.69694759e-15]])]
[9.049999999999994, -1.1092038442566932, 5.011298179626465, -0.3627846837043762, 0.0, 4.54412948381559e-05, 0.0, -4.198007603360336e-05, 0.0, -0.00023711911649032432, array([[ -1.22125809e-16]])]
[9.099999999999994, -0.20877343840897072, 4.99940824508667, -0.6317744851112366, 0.0, 5.828475706505072e-05, 0.0, 5.378982999916655e-05, 0.0, -0.00019109223821978696, array([[ -1.52020421e-18]])]
[9.149999999999995, 0.3917967415228486, 4.933475971221924, -1.3238376379013062, 0.0, -6.819239839294389e-06, 0.0, 0.0002572248774621828, 0.0, -0.00011657905697017528, array([[ -1.27200750e-26]])]
[9.199999999999996, 1.8634553475677964, 4.895227432250977, -1.5283859968185425, 0.0, -1.3525513754413716e-05, 0.0, 0.0005464529398403595, 0.0, -9.753150046410405e-05, array([[ -9.76588585e-30]])]
[9.249999999999996, 2.2098331231996418, 4.792306900024414, -1.138108730316162, 0.0, -2.0066810826167962e-06, 0.0, 0.000436346607643581, 0.0, -5.816702753296199e-06, array([[ -9.45479216e-23]])]
[9.299999999999997, 1.5146920292451977, 4.768465042114258, -0.7035889625549316, 0.0, -9.073722436568881e-05, 0.0, 0.00023959049371938783, 0.0, -2.5046097275916316e-05, array([[ -1.96435182e-17]])]
[9.349999999999998, 0.8766571283992379, 4.763951301574707, 0.4361444413661957, 0.0, 2.6512327813621107e-06, 0.0, -2.604602583189698e-05, 0.0, 6.0775719485402605e-05, array([[ -2.31626087e-13]])]
[9.399999999999999, -0.7670598264408774, 4.782995700836182, 0.7821091413497925, 0.0, -0.0001565403171066295, 0.0, -1.926997654638112e-05, 0.0, 6.044008749722423e-05, array([[ -4.94654646e-15]])]
[9.45, -1.3324332981184075, 4.85502290725708, 0.7861634492874146, 0.0, -8.829166620403816e-05, 0.0, 5.737757947096363e-06, 0.0, 1.1042220735080603e-05, array([[ -1.31082948e-15]])]
[9.5, -1.4415451234579073, 4.876633167266846, 0.5282791256904602, 0.0, -3.0537698902724915e-05, 0.0, 0.00022302931167286676, 0.0, -4.45947700020275e-05, array([[ -1.76317495e-14]])]
[9.55, -0.9323213988542379, 4.89703893661499, -0.1596648395061493, 0.0, 0.0001535072856926511, 0.0, 0.0005559193929818019, 0.0, -8.09635719263181e-05, array([[ -9.54584373e-15]])]
[9.600000000000001, 0.5346599882841205, 4.891707420349121, -0.42865997552871704, 0.0, 0.00021814578511721627, 0.0, 0.000866537171248761, 0.0, -9.760188483818202e-05, array([[ -4.04094074e-16]])]
[9.650000000000002, 1.093904273025692, 4.848453998565674, -0.7650573253631592, 0.0, 0.0003554455708279939, 0.0, 0.0013492664680535736, 0.0, -5.581552584328032e-05, array([[ -1.17520275e-18]])]
[9.700000000000003, 1.5815282835066318, 4.834041595458984, -0.4139833450317383, 0.0, 0.00020624883451584778, 0.0, 0.0009587622903913628, 0.0, -0.00014362188988153903, array([[ -1.39195150e-15]])]
[9.750000000000004, 1.0393874495476496, 4.851093292236328, 0.7258810997009277, 0.0, 0.00025019169063812024, 0.0, 0.00047794072815956817, 0.0, -0.00010260993623864888, array([[ -3.25449868e-15]])]
[9.800000000000004, -0.5997884709015455, 4.879916667938232, 1.1590368747711182, 0.0, 0.0001294918658637703, 0.0, 0.00031419743791654314, 0.0, -7.398952421167373e-05, array([[ -6.47641324e-19]])]
[9.850000000000005, -1.294063378870487, 4.984105587005615, 1.2115333080291748, 0.0, -8.684596380790164e-05, 0.0, -1.7428208817189878e-05, 0.0, -1.347942277068653e-06, array([[ -2.73527304e-20]])]
[9.900000000000006, -1.7816326963156461, 5.018139839172363, 0.9524654150009155, 0.0, -0.0001066362763307857, 0.0, 2.5037776081204683e-05, 0.0, 8.596621550803609e-06, array([[ -4.60238261e-18]])]
[9.950000000000006, -1.630385761745274, 5.069958686828613, 0.2631132900714874, 0.0, -0.0002023087054672856, 0.0, 0.00032557453493827876, 0.0, 5.9309830419693415e-05, array([[ -1.99757288e-15]])]
[10.000000000000007, -0.32008797194808514, 5.076844692230225, -0.00634144339710474, 0.0, -0.00026630411155130056, 0.0, 0.0006159470702836998, 0.0, 9.078659226020507e-05, array([[ -1.12798204e-15]])]
[10.050000000000008, 0.4290093145845469, 5.058669090270996, -0.6985282897949219, 0.0, -0.00034796025009552445, 0.0, 0.0010795581766499549, 0.0, 0.00018492115521589168, array([[ -1.22640031e-19]])]
[10.100000000000009, 1.3016728331148624, 5.038694858551025, -0.926205575466156, 0.0, -0.00041610408904065304, 0.0, 0.0014573787798596788, 0.0, 0.00021650023573385098, array([[ -6.34261377e-22]])]
[10.15000000000001, 1.4262612909823655, 4.988928318023682, -0.34083104133605957, 0.0, -0.00039574659958711774, 0.0, 0.001162261696069998, 0.0, 0.00021606768529547406, array([[ -2.48604292e-16]])]
[10.20000000000001, 0.36654556491412243, 4.988592147827148, 0.10822691023349762, 0.0, -0.00025342775602627075, 0.0, 0.0006180992881688859, 0.0, 0.0001926170723325333, array([[ -8.53479176e-15]])]
[10.25000000000001, -0.2706070677935991, 5.026557445526123, 0.45158666372299194, 0.0, -0.00020062832176758182, 0.0, 0.00031384179105026287, 0.0, 0.00026153185104320554, array([[ -2.09079328e-15]])]
[10.300000000000011, -1.1065470307692866, 5.040618896484375, 0.23359690606594086, 0.0, -0.00025735450317888203, 0.0, 3.9287839575598875e-05, 0.0, 0.0002603781666596743, array([[ -3.63272916e-15]])]
[10.350000000000012, -1.073595288768407, 5.0424981117248535, -0.4425722360610962, 0.0, -0.00032618299576328303, 0.0, -0.00018777601818430078, 0.0, 0.00031958801936307954, array([[ -2.13113260e-17]])]
[10.400000000000013, -0.10110077910125251, 5.0300798416137695, -0.7108503580093384, 0.0, -0.00042395363763038396, 0.0, -0.00017324272624413223, 0.0, 0.0003366214440471984, array([[ -1.60962373e-19]])]
[10.450000000000014, 0.5663130013272165, 4.962014198303223, -1.4003878831863403, 0.0, -0.00046575814966187597, 0.0, -0.00011778651240915993, 0.0, 0.00029901716363893346, array([[ -4.34152650e-28]])]
[10.500000000000014, 1.9207714242488145, 4.923926830291748, -1.523385763168335, 0.0, -0.0005202847092902521, 0.0, 5.346239584579726e-06, 0.0, 0.0002861757256114804, array([[ -6.99118098e-30]])]
[10.550000000000015, 2.1061514942348003, 4.831801891326904, -0.9734610915184021, 0.0, -0.00037239186470011454, 0.0, -2.1108270578213737e-05, 0.0, 0.00034779972663224334, array([[ -6.95512530e-21]])]
[10.600000000000016, 1.154356336556375, 4.813796043395996, -0.5334733724594116, 0.0, -0.00036395298356093947, 0.0, -0.0001318690634940686, 0.0, 0.00020418333404136023, array([[ -2.74495081e-16]])]
[10.650000000000016, 0.5058631305769088, 4.823775768280029, 0.6179773807525635, 0.0, -9.998949594571925e-05, 0.0, -0.00024262102240317978, 0.0, 0.0001967536213581547, array([[ -1.88306680e-14]])]
[10.700000000000017, -1.1578079793974567, 4.849867820739746, 0.8804208636283875, 0.0, -0.0003203571139672199, 0.0, -0.00025042137601905424, 0.0, 0.0001825359611123068, array([[ -3.32940837e-16]])]
[10.750000000000018, -1.639066416509449, 4.912619590759277, 0.45762839913368225, 0.0, -0.00034281004907113776, 0.0, -0.00027636514112524657, 0.0, 8.375100937289034e-05, array([[ -1.54969349e-14]])]
[10.800000000000018, -1.1272716508060538, 4.92555570602417, 0.19256213307380676, 0.0, -0.00029963227862141227, 0.0, -0.00013982818631276563, 0.0, 2.2968782817528817e-06, array([[ -2.91853280e-14]])]
[10.85000000000002, -0.5833893008529848, 4.9229607582092285, -0.49757498502731323, 0.0, -0.00030967303625170124, 0.0, 0.00027240625087459334, 0.0, -0.00012117221787618291, array([[ -7.42865583e-17]])]
[10.90000000000002, 0.8995787880942226, 4.9086174964904785, -0.766903281211853, 0.0, -0.0003273862795395039, 0.0, 0.0005603886249243024, 0.0, -0.00012139035860600329, array([[ -3.97293645e-19]])]
[10.95000000000002, 1.4478025054931638, 4.853399276733398, -0.6457123756408691, 0.0, -0.0002908284681756835, 0.0, 0.0009446721245962267, 0.0, -0.00016358285663206087, array([[ -1.53061566e-17]])]
[11.000000000000021, 1.2960233391448854, 4.843779563903809, -0.23948518931865692, 0.0, -0.00022677751726370705, 0.0, 0.00047858795817842754, 0.0, -0.0001736149838835049, array([[ -1.14188026e-14]])]
[11.050000000000022, 0.6757047113776321, 4.874474048614502, 0.8997482061386108, 0.0, -0.00025477887226769437, 0.0, 0.0002920642603829536, 0.0, -0.00011779549755762698, array([[ -1.51952812e-16]])]
[11.100000000000023, -0.9314928018907083, 4.909035682678223, 1.1773978471755981, 0.0, -0.00019547786031603163, 0.0, 7.929848467656875e-05, 0.0, -0.00011523723136612031, array([[ -2.51090725e-19]])]
[11.150000000000023, -1.426941507384181, 5.005728721618652, 0.9796943664550781, 0.0, 1.3224867644789298e-05, 0.0, -0.00027303436680142367, 0.0, -8.387403180977349e-05, array([[ -3.36610860e-18]])]
[11.200000000000024, -1.5863694336265324, 5.033719539642334, 0.7188907861709595, 0.0, 0.00014571934242975886, 0.0, -0.00023044150889330465, 0.0, -0.00012418140233829287, array([[ -1.43629455e-16]])]
[11.250000000000025, -1.1819508565962313, 5.069687366485596, 0.029786836355924606, 0.0, 0.000269401698488647, 0.0, 0.00011328810211139722, 0.0, -0.00010240157922466165, array([[ -1.49862292e-15]])]
[11.300000000000026, 0.26792722275480774, 5.070479869842529, -0.23939411342144012, 0.0, 0.00037338921904943914, 0.0, 0.00035416903672694374, 0.0, -7.251074983587814e-05, array([[ -1.98840816e-16]])]
[11.350000000000026, 0.8725395378470422, 5.038791656494141, -0.7997370958328247, 0.0, 0.0005666211043468796, 0.0, 0.0007454502010527635, 0.0, 8.239755334381726e-05, array([[ -1.68216877e-20]])]
[11.400000000000027, 1.6341440995782612, 5.021338939666748, -0.647652268409729, 0.0, 0.0005280782927993218, 0.0, 0.000762464048468211, 0.0, 7.277819777574474e-05, array([[ -7.44754239e-19]])]
[11.450000000000028, 1.3223221842944621, 5.012840270996094, 0.3060615658760071, 0.0, 0.00023441508505512277, 0.0, 0.0001726391476234299, 0.0, -0.00011133173625301944, array([[ -5.20053194e-15]])]
[11.500000000000028, -0.11584797672926857, 5.032229423522949, 0.7476592063903809, 0.0, 0.00017680226991079157, 0.0, -1.9269598262408216e-05, 0.0, -1.8799197419153752e-05, array([[ -1.00728037e-16]])]
[11.55000000000003, -0.7751146776042878, 5.115820407867432, 0.9077427387237549, 0.0, -2.3856373774757763e-06, 0.0, -0.000144051292758883, 0.0, 3.869097778646796e-05, array([[ -1.72662859e-18]])]
[11.60000000000003, -1.4274512742459773, 5.1417975425720215, 0.6510626673698425, 0.0, -0.0001788418970629273, 0.0, -6.46710263548117e-05, 0.0, 9.905087438459673e-05, array([[ -4.51149698e-17]])]
[11.65000000000003, -1.2986475848034023, 5.172719955444336, -0.0370941236615181, 0.0, -0.00041474838190125584, 0.0, 0.00020394079137045102, 0.0, 0.00010979239230202909, array([[ -1.59431967e-16]])]
[11.700000000000031, -0.22196315038949233, 5.159633636474609, -0.6136912703514099, 0.0, -0.0006922110117880012, 0.0, 0.0006515582834150573, 0.0, 0.00010016829109169725, array([[ -1.40688567e-17]])]
[11.750000000000032, 0.385009365323931, 5.1314778327941895, -0.9969121813774109, 0.0, -0.0008075690030869505, 0.0, 0.0010159806711882865, 0.0, 0.00016944158616702293, array([[ -1.50385988e-23]])]
[11.800000000000033, 1.564394126832485, 5.103656768798828, -1.1874011754989624, 0.0, -0.0009104507594365894, 0.0, 0.0013290234041890084, 0.0, 0.00020009834926838874, array([[ -6.45470467e-26]])]
[11.850000000000033, 1.7308665480092165, 5.027538776397705, -0.7862067818641663, 0.0, -0.0007625127791046923, 0.0, 0.0011059391228360439, 0.0, 0.00017162181347413734, array([[ -2.88197133e-20]])]
[11.900000000000034, 0.911148894317448, 5.015931606292725, -0.3431134521961212, 0.0, -0.0005739164042046748, 0.0, 0.0005556294568487026, 0.0, 0.00016143158397659562, array([[ -1.53012085e-16]])]
[11.950000000000035, 0.25842781413346544, 5.038907527923584, 0.642309844493866, 0.0, -0.0003990689612334422, 0.0, 0.00023705663767034445, 0.0, 0.00012125132585513276, array([[ -3.22410546e-16]])]
[12.000000000000036, -1.2349579358473417, 5.061046123504639, 0.6222503781318665, 0.0, -0.0003748192611668169, 0.0, 4.1288973260434064e-06, 0.0, 0.00012753558643318393, array([[ -2.74083295e-16]])]
[12.050000000000036, -1.4200479005277153, 5.097287178039551, 0.06611884385347366, 0.0, -0.00019547864767996347, 0.0, -0.00030002386047566344, 0.0, 0.0002002268488760172, array([[ -1.04026208e-15]])]
[12.100000000000037, -0.7923062209784975, 5.099161624908447, -0.19991815090179443, 0.0, -9.678747616451475e-05, 0.0, -0.00045439941731120856, 0.0, 0.0002797927616737432, array([[ -1.77722656e-16]])]
[12.150000000000038, -0.050120806097984125, 5.068154335021973, -0.8901235461235046, 0.0, 9.356291047529915e-06, 0.0, -0.00043737418924052606, 0.0, 0.00029022114344357696, array([[ -9.72100161e-22]])]
[12.200000000000038, 1.2852347092702985, 5.042984962463379, -1.1591650247573853, 0.0, 0.00010149939169966441, 0.0, -0.0003787739544305663, 0.0, 0.00032611308005936246, array([[ -5.14747045e-25]])]
[12.250000000000039, 1.76849158141762, 4.96346378326416, -0.8835023641586304, 0.0, 0.00011864266921979058, 0.0, -0.00015159177518052596, 0.0, 0.000328989295646174, array([[ -7.87741012e-21]])]
[12.30000000000004, 1.2624006376042962, 4.950125217437744, -0.4436628222465515, 0.0, 9.020218071104963e-05, 0.0, -0.00031180052788088895, 0.0, 0.0003667477999054593, array([[ -1.14939526e-16]])]
[12.35000000000004, 0.580388401709497, 4.970962047576904, 0.6309282183647156, 0.0, 7.874664081492842e-05, 0.0, -0.000282997000978137, 0.0, 0.00035174644270761135, array([[ -1.24608358e-15]])]
[12.400000000000041, -0.9600213079154478, 4.995405673980713, 0.7482776045799255, 0.0, -1.642215227955805e-05, 0.0, -0.0002531394938125021, 0.0, 0.00032411133264582514, array([[ -1.95369248e-16]])]
[12.450000000000042, -1.2889300191774962, 5.054520130157471, 0.4310730993747711, 0.0, -0.00011105395032567419, 0.0, -0.000267430989036006, 0.0, 0.0003136716858288647, array([[ -1.44664058e-15]])]
[12.500000000000043, -1.1369750292971714, 5.067137718200684, 0.1693679392337799, 0.0, -0.00015061902202371266, 0.0, -0.0001507749950690617, 0.0, 0.0002332520075543272, array([[ -2.28382699e-15]])]
[12.550000000000043, -0.5707257075607752, 5.0638861656188965, -0.5196202397346497, 0.0, -0.00016650020040009198, 0.0, 9.499766897435222e-05, 0.0, 0.0002468883225765341, array([[ -4.00114503e-18]])]
[12.600000000000044, 0.8401945432648061, 5.049506664276123, -0.788176417350769, 0.0, -0.0002165101004606496, 0.0, 0.00033527693836660216, 0.0, 0.00018330249049700357, array([[ -1.87818792e-20]])]
[12.650000000000045, 1.3508032476529477, 4.995716571807861, -0.6763778924942017, 0.0, -0.00019673284952560687, 0.0, 0.0005814783988756561, 0.0, 0.00010387692777952616, array([[ -6.37068301e-19]])]
[12.700000000000045, 1.195310259461403, 4.987852573394775, -0.27436572313308716, 0.0, -0.00017665676158161667, 0.0, 0.00021756827196312592, 0.0, 7.592940162545621e-05, array([[ -6.06119547e-16]])]
[12.750000000000046, 0.5944866945594555, 5.0215044021606445, 0.793459951877594, 0.0, -0.00012033608771998624, 0.0, -9.5168134752985e-06, 0.0, 0.00015046481774141996, array([[ -6.26883852e-17]])]
[12.800000000000047, -0.9774649435281751, 5.050991058349609, 0.9176127314567566, 0.0, -0.00026207279930585796, 0.0, -0.00012552778299381026, 0.0, 0.00012384388637567476, array([[ -4.90723934e-18]])]
[12.850000000000048, -1.313293808363378, 5.123728275299072, 0.6114909052848816, 0.0, -0.00019655158084296048, 0.0, -0.00026958529926649356, 0.0, 0.00010126322121101505, array([[ -9.52584459e-17]])]
[12.900000000000048, -1.315272336527705, 5.141856670379639, 0.35004445910453796, 0.0, -7.385074965732854e-05, 0.0, -0.0002968020444287464, 0.0, 5.7246378356141394e-05, array([[ -4.38590721e-16]])]
[12.950000000000049, -0.8845107627287502, 5.152682781219482, -0.33869147300720215, 0.0, 0.00011127103342950246, 0.0, -0.00015582316390711298, 0.0, 7.324255154304695e-05, array([[ -1.29229157e-17]])]
[13.00000000000005, 0.6183292323723435, 5.143630504608154, -0.6077245473861694, 0.0, 0.0002719707546865535, 0.0, 5.441630099482825e-06, 0.0, 8.319861681175194e-05, array([[ -1.77797946e-19]])]
[13.05000000000005, 1.1824916937574743, 5.095456123352051, -0.8313901424407959, 0.0, 0.0003487195275557332, 0.0, 0.0002819498278531597, 0.0, 2.6264499822005427e-05, array([[ -2.71046945e-21]])]
[13.100000000000051, 1.55813574206084, 5.081821441650391, -0.5237126350402832, 0.0, 0.00021141846619303654, 0.0, 0.00013220634731496753, 0.0, 1.2910910752737497e-05, array([[ -2.73958007e-18]])]
[13.150000000000052, 1.060028765797615, 5.097475528717041, 0.6110240817070007, 0.0, 0.0001925510865984195, 0.0, -0.00022427180317983659, 0.0, 5.7382414329035715e-05, array([[ -1.55673655e-16]])]
[13.200000000000053, -0.597601945134811, 5.125864028930664, 1.0463364124298096, 0.0, 8.438197202921769e-05, 0.0, -0.00026728421786016834, 0.0, -2.133758179679141e-05, array([[ -1.00438068e-19]])]
[13.250000000000053, -1.2268839697167278, 5.218940258026123, 0.9096130728721619, 0.0, -4.713516017441662e-05, 0.0, -0.00019179644823650254, 0.0, -1.4241114261890749e-05, array([[ -2.46458911e-19]])]
[13.300000000000054, -1.5652531313896179, 5.245345115661621, 0.6478449702262878, 0.0, -0.0001348865326260319, 0.0, 0.00010384577647099612, 0.0, -3.768628531963291e-05, array([[ -6.76656090e-18]])]
[13.350000000000055, -1.3800129282474518, 5.277659893035889, -0.040884289890527725, 0.0, -0.00020945350392530983, 0.0, 0.0006361979127716439, 0.0, -0.00014496750045766562, array([[ -2.16434611e-17]])]
[13.400000000000055, -0.15239471783861516, 5.2771992683410645, -0.3099195659160614, 0.0, -0.0002806919409242778, 0.0, 0.0011320617149554453, 0.0, -0.00014489117862905376, array([[ -1.82675459e-18]])]
[13.450000000000056, 0.5963811786100268, 5.240093231201172, -1.001693606376648, 0.0, -0.00039155244135799224, 0.0, 0.0019007887471676418, 0.0, -0.000140299727551929, array([[ -1.67192923e-24]])]
[13.500000000000057, 1.5259160224720834, 5.215460300445557, -1.139052152633667, 0.0, -0.0004635560166007992, 0.0, 0.00242677722908297, 0.0, -0.00018238411124035502, array([[ -3.83997325e-26]])]
[13.550000000000058, 1.5507058995217082, 5.160922050476074, -0.48520225286483765, 0.0, -0.0003830899144049614, 0.0, 0.0016387078078298803, 0.0, -0.00020042719325112415, array([[ -1.21077183e-18]])]
[13.600000000000058, 0.4863531859219074, 5.158945083618164, -0.036219317466020584, 0.0, -0.00027750270897676575, 0.0, 0.000974266693353017, 0.0, -0.0002008385015822276, array([[ -2.14717855e-16]])]
[13.650000000000059, -0.21527744455262993, 5.194333553314209, 0.4077497720718384, 0.0, -0.0001273262276147939, 0.0, 0.00042924001268389837, 0.0, -0.00011508822018389383, array([[ -1.24735774e-16]])]
[13.70000000000006, -1.1124408859014507, 5.2078962326049805, 0.19520209729671478, 0.0, -0.00022298003150563446, 0.0, 7.491174388760478e-05, 0.0, -7.089934930282123e-05, array([[ -1.70463375e-16]])]
[13.75000000000006, -1.0398440879955884, 5.208513259887695, -0.47971463203430176, 0.0, -0.00030640554498180636, 0.0, -0.0002463775490119103, 0.0, -2.836922945948216e-05, array([[ -5.43194543e-19]])]
[13.800000000000061, -0.07174423556774853, 5.195781230926514, -0.7479202151298523, 0.0, -0.0003326828879111505, 0.0, -0.0003368478295677008, 0.0, 5.037936760702756e-05, array([[ -3.22193119e-21]])]
[13.850000000000062, 0.5318065647408367, 5.126982688903809, -1.4395395517349243, 0.0, -0.0003973204127767815, 0.0, -0.0002986772264033157, 0.0, 5.004549635284243e-05, array([[ -4.22234134e-30]])]
[13.900000000000063, 1.9539060672372577, 5.08946418762207, -1.6010545492172241, 0.0, -0.0004012837977450981, 0.0, -0.00025304254157036763, 0.0, 0.00010499642100567487, array([[ -1.18121294e-32]])]
[13.950000000000063, 2.1913963392004367, 5.001784801483154, -0.954467236995697, 0.0, -0.00036878633587594925, 0.0, -0.0001808053289108402, 0.0, 0.000139370816731328, array([[ -5.68782280e-22]])]
[14.000000000000064, 1.1658534812182186, 4.986789703369141, -0.5110136866569519, 0.0, -0.00017417611756821263, 0.0, -0.00043281486826417275, 0.0, 0.00013684635963564796, array([[ -1.94928560e-17]])]
[14.050000000000065, 0.5156933555379509, 5.003576755523682, 0.6396586298942566, 0.0, -5.502774366650434e-05, 0.0, -0.0002805437839464338, 0.0, -9.517468679368505e-06, array([[ -6.38194002e-16]])]
[14.100000000000065, -1.1715660094097249, 5.030124664306641, 0.8541326522827148, 0.0, 2.228323331623243e-06, 0.0, -0.00034649701548005704, 0.0, 7.089061133713667e-05, array([[ -2.14769295e-17]])]
[14.150000000000066, -1.5757356262579558, 5.095105171203613, 0.4894500970840454, 0.0, 3.960417128249856e-05, 0.0, -0.0004948067490853871, 0.0, 0.0001315726593613061, array([[ -4.75573629e-16]])]
[14.200000000000067, -1.1268485485389823, 5.109699726104736, 0.22595545649528503, 0.0, 1.4054206300514884e-05, 0.0, -0.00038380487942625855, 0.0, 0.00010679741431494012, array([[ -1.05753564e-15]])]
[14.250000000000068, -0.5406706677377212, 5.1113762855529785, -0.46243682503700256, 0.0, -0.00011033639155727876, 0.0, -0.00014948220697769658, 0.0, 0.00015696309965169765, array([[ -4.46939426e-18]])]
[14.300000000000068, 0.9392504588514565, 5.101264953613281, -0.7304242253303528, 0.0, -0.00015535876760697118, 0.0, 8.387265440063398e-05, 0.0, 0.00023432996548243505, array([[ -2.84441719e-20]])]
[14.350000000000069, 1.4860403398796915, 5.053269386291504, -0.6255571246147156, 0.0, -0.0002001342538796428, 0.0, 0.00047010911991777544, 0.0, 0.00031386268803357996, array([[ -6.53018426e-19]])]
[14.40000000000007, 1.3349150830507277, 5.047252178192139, -0.1998967081308365, 0.0, -0.00015259936072745044, 0.0, 0.00023699724791287943, 0.0, 0.0003241754786402081, array([[ -4.66905985e-16]])]
[14.45000000000007, 0.7361731493845587, 5.086390495300293, 0.9398112893104553, 0.0, -0.00014743567683380264, 0.0, -5.590433353750773e-06, 0.0, 0.00031458449218931754, array([[ -1.69451140e-18]])]
[14.500000000000071, -0.9066782457567751, 5.122776985168457, 1.2710514068603516, 0.0, -9.199813663783014e-05, 0.0, -9.903051385358921e-05, 0.0, 0.000301775993523823, array([[ -4.90822844e-22]])]
[14.550000000000072, -1.4567128122225401, 5.230120658874512, 1.139813780784607, 0.0, -0.00011039353279703452, 0.0, -0.00022067548619560158, 0.0, 0.00021268517203373467, array([[ -1.74619810e-21]])]
[14.600000000000072, -1.7769631424918768, 5.263065814971924, 0.8805062770843506, 0.0, -0.0001573977942910259, 0.0, -0.00013345566587818366, 0.0, 0.00012198347919962059, array([[ -1.82646656e-19]])]
[14.650000000000073, -1.4968544697389004, 5.312379837036133, 0.19333212077617645, 0.0, -0.00021015250048275955, 0.0, 0.00021312973945628456, 0.0, -8.030295890858033e-06, array([[ -2.29089349e-17]])]
[14.700000000000074, -0.1270830604806542, 5.320004463195801, -0.07428612560033798, 0.0, -0.00022445364916772758, 0.0, 0.0005404479707400455, 0.0, -0.000117650357027926, array([[ -7.99010115e-18]])]
[14.750000000000075, 0.5430576014518738, 5.303019046783447, -0.7422088384628296, 0.0, -0.00021449987841031738, 0.0, 0.0011216708099390199, 0.0, -0.0001445154226155512, array([[ -4.66659513e-22]])]
[14.800000000000075, 1.3490866484493018, 5.286081790924072, -0.8282162547111511, 0.0, -0.00021543855361849513, 0.0, 0.0013693807575754825, 0.0, -0.000259603576758168, array([[ -8.16889186e-23]])]
[14.850000000000076, 1.2684725364670157, 5.251420974731445, -0.19667483866214752, 0.0, -9.119071827857343e-05, 0.0, 0.0007985640655757665, 0.0, -0.00016390336026564248, array([[ -1.05347920e-17]])]
[14.900000000000077, 0.1717192872753367, 5.25731897354126, 0.25124016404151917, 0.0, -6.989224194628823e-05, 0.0, 0.0005076962016828595, 0.0, -0.00016135588052423877, array([[ -6.50747705e-17]])]
[14.950000000000077, -0.4917208459600805, 5.309676647186279, 0.5262333154678345, 0.0, 1.6205215854900402e-05, 0.0, -5.689018471631356e-06, 0.0, -0.0001896608670724517, array([[ -6.35226347e-18]])]
[15.000000000000078, -1.259394493922591, 5.326141834259033, 0.2956686019897461, 0.0, 7.230818993454578e-05, 0.0, -0.00025894451379479154, 0.0, -0.00010655658768162469, array([[ -1.60169208e-17]])]
[15.050000000000079, -1.17159204300493, 5.33411169052124, -0.3841618299484253, 0.0, 0.00012059899181910867, 0.0, -0.0004612779758396949, 0.0, 3.12451459795501e-05, array([[ -2.20489822e-19]])]
[15.10000000000008, -0.12804574362933635, 5.325409889221191, -0.652069091796875, 0.0, 0.00010077350284450099, 0.0, -0.000513388350086684, 0.0, 8.249765929971456e-05, array([[ -2.27625553e-21]])]
[15.15000000000008, 0.4315915685147047, 5.266548156738281, -1.335280179977417, 0.0, 0.00012578521028794708, 0.0, -0.0004324376643220235, 0.0, 0.00012329447836765547, array([[ -1.50945187e-29]])]
[15.200000000000081, 1.7677534167841074, 5.231955051422119, -1.4946991205215454, 0.0, 0.00013354624325038022, 0.0, -0.00030831774476443817, 0.0, 0.00021922731224855528, array([[ -6.11304367e-32]])]
[15.250000000000082, 1.9230110641196367, 5.150392055511475, -0.8273668885231018, 0.0, 0.00013155805964544328, 0.0, -0.00036948955864803086, 0.0, 0.00023237341116031193, array([[ -1.08774129e-21]])]
[15.300000000000082, 0.8477472986048087, 5.138229846954346, -0.38155025243759155, 0.0, 9.834650162386083e-05, 0.0, -0.0003861193643603021, 0.0, 0.00022597240835163076, array([[ -9.67435979e-18]])]
