time, uz, alt, vel_alt, uthe, roll, uphi, pitch, upsi, yaw, F
[0.0, 0.0, 0.013755506835877895, 0.03876621276140213, 0.0, -0.013426521998363368, 0.0, 0.023748944753563726, 0.0, -0.08483309315278553]
[0.05, 0.22240924313429739, 0.013755506835877895, 0.03876621276140213, 0.0, -0.013426521998363368, 0.0, 0.023748944753563726, 0.0, -0.08483309315278553]
[0.1, 0.22240924313429739, 0.013766760006546974, 0.0386551208794117, 0.0, -0.013414425816366343, 0.0, 0.023729035054327448, 0.0, -0.08479162089723623]
[0.15000000000000002, 0.22239616630285974, 0.01414362620562315, 0.03920413553714752, 0.0, -0.013471057819178968, 0.0, 0.02370860566660175, 0.0, -0.08473191798170354]
[0.2, 0.22247952683631328, 0.01444359589368105, 0.039338547736406326, 0.0, -0.01346066183178487, 0.0, 0.02369627087019967, 0.0, -0.08471507994823851]
[0.25, 0.22250893325272944, 0.01465584710240364, 0.039278265088796616, 0.0, -0.013495647256256337, 0.0, 0.023716921218847675, 0.0, -0.08472552752522244]
[0.3, 0.22251076746381818, 0.014900852926075459, 0.03913215920329094, 0.0, -0.01350292104002442, 0.0, 0.02369598071836597, 0.0, -0.08476908503093795]
[0.35, 0.22250354158747937, 0.015228346921503544, 0.039719466120004654, 0.0, -0.013600769982909329, 0.0, 0.023681298810840665, 0.0, -0.08476788831447182]
[0.39999999999999997, 0.22258943880189208, 0.015571502968668938, 0.04022980481386185, 0.0, -0.013625773922531179, 0.0, 0.023693808820710646, 0.0, -0.08479224691609398]
[0.44999999999999996, 0.22266661667637522, 0.01621173694729805, 0.040351200848817825, 0.0, -0.013608843301198366, 0.0, 0.02367867810440028, 0.0, -0.08480534599718903]
[0.49999999999999994, 0.22270917406819757, 0.016664080321788788, 0.0400112085044384, 0.0, -0.013605293350574093, 0.0, 0.0236795798496932, 0.0, -0.08479771548642659]
[0.5499999999999999, 0.2226872565179318, 0.017513366416096687, 0.04031011089682579, 0.0, -0.013535831202718052, 0.0, 0.02364337717418589, 0.0, -0.08477365999305005]
[0.6, 0.22276054357364775, 0.018033351749181747, 0.04017181694507599, 0.0, -0.013532675641067863, 0.0, 0.023660363882043785, 0.0, -0.08474117645313273]
[0.65, 0.22276618364676828, 0.01910773664712906, 0.041159894317388535, 0.0, -0.013543440669512543, 0.0, 0.02366407954814508, 0.0, -0.0847802320861067]
[0.7000000000000001, 0.22293337024770676, 0.01973184570670128, 0.04122162610292435, 0.0, -0.01352034344800203, 0.0, 0.02367993025336766, 0.0, -0.08477196597652524]
[0.7500000000000001, 0.22296794410318135, 0.020464248955249786, 0.04005962982773781, 0.0, -0.013483631432746872, 0.0, 0.023650404106168182, 0.0, -0.08484985717569396]
[0.8000000000000002, 0.22285779206670817, 0.02034911699593067, 0.03993614390492439, 0.0, -0.013476933918942313, 0.0, 0.023629828330176454, 0.0, -0.08483984054202531]
[0.8500000000000002, 0.22283772691905496, 0.018065039068460464, 0.03897959366440773, 0.0, -0.013470615882899876, 0.0, 0.023666201561700108, 0.0, -0.08484787603938038]
[0.9000000000000002, 0.2226219858788699, 0.01734646037220955, 0.038511015474796295, 0.0, -0.013453246441698747, 0.0, 0.02364794043515306, 0.0, -0.08484390807330563]
[0.9500000000000003, 0.22253364365279674, 0.01565619558095932, 0.03800147771835327, 0.0, -0.01344110512601471, 0.0, 0.023689992946665715, 0.0, -0.08477276560856152]
[1.0000000000000002, 0.22239820682197808, 0.015287421643733978, 0.037289321422576904, 0.0, -0.013414724994549631, 0.0, 0.023733559435077156, 0.0, -0.08481832016046499]
[1.0500000000000003, 0.22229527725130319, 0.014501295052468777, 0.035665035247802734, 0.0, -0.013462421540052604, 0.0, 0.02367447892790858, 0.0, -0.08480682961057147]
[1.1000000000000003, 0.22206289690542966, 0.014598319306969643, 0.035332091152668, 0.0, -0.013450051403125945, 0.0, 0.023660571112794796, 0.0, -0.08481653542636623]
[1.1500000000000004, 0.22202644752211867, 0.014949241653084755, 0.034750305116176605, 0.0, -0.013454639716759493, 0.0, 0.023716955058128864, 0.0, -0.08480730092808571]
[1.2000000000000004, 0.2219706134030968, 0.015095092356204987, 0.03438694775104523, 0.0, -0.01344048073255965, 0.0, 0.023733310864593963, 0.0, -0.08477290230463531]
[1.2500000000000004, 0.2219325657212734, 0.012387577444314957, 0.03279142454266548, 0.0, -0.013344249398748618, 0.0, 0.023731940819061135, 0.0, -0.08465772993194444]
[1.3000000000000005, 0.22162046279154718, 0.011597526259720325, 0.03200462460517883, 0.0, -0.013373350672129289, 0.0, 0.023728005029374343, 0.0, -0.08468767291420402]
[1.3500000000000005, 0.2214901695018634, 0.009798865765333176, 0.03138997405767441, 0.0, -0.01339306417626873, 0.0, 0.023739787197550138, 0.0, -0.08471473887469284]
[1.4000000000000006, 0.2213372026973962, 0.009337915107607841, 0.030958212912082672, 0.0, -0.013399703564169717, 0.0, 0.023725229293857165, 0.0, -0.08470400559826219]
[1.4500000000000006, 0.22126451627902682, 0.008769388310611248, 0.029682151973247528, 0.0, -0.013422818846444617, 0.0, 0.023731133963721413, 0.0, -0.08474068865301553]
[1.5000000000000007, 0.22108408065754917, 0.008875725790858269, 0.029118351638317108, 0.0, -0.013437520610849714, 0.0, 0.023744211924842513, 0.0, -0.08472779745812968]
[1.5500000000000007, 0.22101984717629847, 0.008970960974693298, 0.02886076644062996, 0.0, -0.01332477844967822, 0.0, 0.02373662751999951, 0.0, -0.08461896391875495]
[1.6000000000000008, 0.22099252161182462, 0.009049116633832455, 0.028673967346549034, 0.0, -0.013292266688063582, 0.0, 0.0237736246179927, 0.0, -0.08464752497232814]
[1.6500000000000008, 0.22097309914559124, 0.008878485299646854, 0.028400879353284836, 0.0, -0.013316478093384595, 0.0, 0.023675721583283436, 0.0, -0.08462155126954649]
[1.7000000000000008, 0.22093236335221678, 0.00896583590656519, 0.027850661426782608, 0.0, -0.013356300469203327, 0.0, 0.023673194887745306, 0.0, -0.08461931772419547]
[1.7500000000000009, 0.22086896577168252, 0.009459505788981915, 0.028041886165738106, 0.0, -0.013359297200892163, 0.0, 0.023649870677757978, 0.0, -0.08459809097304324]
[1.800000000000001, 0.2209137000916153, 0.010003598406910896, 0.02796180546283722, 0.0, -0.013333341065173159, 0.0, 0.023704166104118886, 0.0, -0.0845968126520734]
[1.850000000000001, 0.22092749232999978, 0.011425931937992573, 0.027428194880485535, 0.0, -0.013231115525597295, 0.0, 0.023777316644637097, 0.0, -0.08455078068166469]
[1.900000000000001, 0.2209239539664611, 0.012081545777618885, 0.02725811116397381, 0.0, -0.013179073681424245, 0.0, 0.023791619197982044, 0.0, -0.08454789072677835]
[1.950000000000001, 0.22093158793620765, 0.013401799835264683, 0.02721775695681572, 0.0, -0.01322424855621372, 0.0, 0.02385275211883885, 0.0, -0.08456076883799848]
[2.000000000000001, 0.22098385409329085, 0.0139854047447443, 0.027668854221701622, 0.0, -0.013195385747506201, 0.0, 0.023840796616890668, 0.0, -0.08452649618917114]
[2.0500000000000007, 0.2210642148340121, 0.014777344651520252, 0.02651558443903923, 0.0, -0.013078319876102248, 0.0, 0.02377380080774199, 0.0, -0.08463057884186583]
[2.1000000000000005, 0.2209577074303105, 0.015067572705447674, 0.02639562450349331, 0.0, -0.013046428190142179, 0.0, 0.023791823981306446, 0.0, -0.08465452939556388]
[2.1500000000000004, 0.2209556330014765, 0.015944428741931915, 0.026485111564397812, 0.0, -0.013022315987857268, 0.0, 0.023804240198969307, 0.0, -0.08467643338829282]
[2.2, 0.22100454477511344, 0.01645192876458168, 0.026351895183324814, 0.0, -0.013029271113915114, 0.0, 0.02383766126106689, 0.0, -0.08462004845179172]
[2.25, 0.22101026395596562, 0.017376769334077835, 0.02591484785079956, 0.0, -0.012940485653197463, 0.0, 0.023855951038697004, 0.0, -0.08459563664130879]
[2.3, 0.22099696457013485, 0.01770644076168537, 0.025520645081996918, 0.0, -0.012930899739563396, 0.0, 0.023842332363405716, 0.0, -0.08455762966859898]
[2.3499999999999996, 0.220963113778308, 0.018156010657548904, 0.024879490956664085, 0.0, -0.012914530781093855, 0.0, 0.023858192308279045, 0.0, -0.08455736848921196]
[2.3999999999999995, 0.2209043042274937, 0.018453696742653847, 0.024765603244304657, 0.0, -0.012933797107614187, 0.0, 0.023867290097575128, 0.0, -0.08455370209892706]
[2.4499999999999993, 0.22090329429902134, 0.01792442798614502, 0.023591453209519386, 0.0, -0.01291648999068742, 0.0, 0.023835245265163573, 0.0, -0.0846285323033446]
[2.499999999999999, 0.2207370026572421, 0.017772957682609558, 0.02330855280160904, 0.0, -0.012876471320341781, 0.0, 0.023821145503081367, 0.0, -0.08465899539270344]
[2.549999999999999, 0.2206958988238871, 0.01759221777319908, 0.02206198126077652, 0.0, -0.012929395629206773, 0.0, 0.023820533888033762, 0.0, -0.08464689301520739]
[2.5999999999999988, 0.22053586278587578, 0.01752377301454544, 0.02121538668870926, 0.0, -0.012945254757963976, 0.0, 0.023792785373573228, 0.0, -0.08457381997757872]
[2.6499999999999986, 0.2204295285616815, 0.017366841435432434, 0.020163454115390778, 0.0, -0.01289963689831608, 0.0, 0.023799331314861456, 0.0, -0.08453770481265133]
[2.6999999999999984, 0.22029428931847214, 0.017583342269062996, 0.02043919637799263, 0.0, -0.012935758496154361, 0.0, 0.023787915185213077, 0.0, -0.08453907866450759]
[2.7499999999999982, 0.2203373362648487, 0.018163194879889488, 0.01993377134203911, 0.0, -0.012897881639562946, 0.0, 0.023778638755164026, 0.0, -0.08461221525772004]
[2.799999999999998, 0.22030074308305975, 0.018394790589809418, 0.020069189369678497, 0.0, -0.012861387349238227, 0.0, 0.02380120043857022, 0.0, -0.08466229847978944]
[2.849999999999998, 0.22032731035038824, 0.018380040302872658, 0.019937723875045776, 0.0, -0.01291960388312437, 0.0, 0.023785896035217705, 0.0, -0.08461134838150036]
[2.8999999999999977, 0.22031061943106353, 0.018378019332885742, 0.0193618293851614, 0.0, -0.012912374115938756, 0.0, 0.023836139899594842, 0.0, -0.08454841236687596]
[2.9499999999999975, 0.2202402151654288, 0.018131501972675323, 0.019666563719511032, 0.0, -0.012841953067157456, 0.0, 0.02390600205630135, 0.0, -0.08448230615951378]
[2.9999999999999973, 0.2202667440956086, 0.018276777118444443, 0.019651304930448532, 0.0, -0.01283764442682548, 0.0, 0.023957277459782027, 0.0, -0.08449442529924628]
[3.049999999999997, 0.22027117431677876, 0.018262313678860664, 0.019017377868294716, 0.0, -0.012838880776279095, 0.0, 0.02393169933678825, 0.0, -0.08451180921856022]
[3.099999999999997, 0.220193145266287, 0.0184333436191082, 0.01886419765651226, 0.0, -0.012858572561185918, 0.0, 0.023933414386625607, 0.0, -0.08448126701542333]
[3.149999999999997, 0.2201818509794399, 0.018622729927301407, 0.018487274646759033, 0.0, -0.012856207488319272, 0.0, 0.02385666490197485, 0.0, -0.08443480524312735]
[3.1999999999999966, 0.22014403289481996, 0.01887761615216732, 0.018659673631191254, 0.0, -0.012849767930910258, 0.0, 0.02385876049626472, 0.0, -0.08441339349584764]
[3.2499999999999964, 0.22017612448208032, 0.018204472959041595, 0.01738736219704151, 0.0, -0.01283617503754602, 0.0, 0.023823797159524786, 0.0, -0.08443602561286945]
[3.2999999999999963, 0.21999161469284442, 0.018013209104537964, 0.017140990123152733, 0.0, -0.012837132096748667, 0.0, 0.02379330216134387, 0.0, -0.08447134679880965]
[3.349999999999996, 0.21995324711244552, 0.017582664266228676, 0.01666009984910488, 0.0, -0.012802562549334675, 0.0, 0.023785603898253266, 0.0, -0.08439594387746703]
[3.399999999999996, 0.21987587920758872, 0.017116492614150047, 0.016114769503474236, 0.0, -0.01283702815822405, 0.0, 0.02377031563086466, 0.0, -0.08439684879926512]
[3.4499999999999957, 0.21978909981641917, 0.015732603147625923, 0.015494448132812977, 0.0, -0.012870712977400714, 0.0, 0.023824431168917918, 0.0, -0.08430853345576983]
[3.4999999999999956, 0.2196534084853716, 0.0153620271012187, 0.015291069634258747, 0.0, -0.012849289880839729, 0.0, 0.023814623655237326, 0.0, -0.08430710253798411]
[3.5499999999999954, 0.21961252261636777, 0.01425759308040142, 0.014323108829557896, 0.0, -0.012780866562990696, 0.0, 0.023785884702111626, 0.0, -0.08435307154248052]
[3.599999999999995, 0.219446490520332, 0.013722357340157032, 0.0141610661521554, 0.0, -0.01276635421076985, 0.0, 0.02377039654674516, 0.0, -0.08430806767168443]
[3.649999999999995, 0.21940351869715377, 0.011908240616321564, 0.013296899385750294, 0.0, -0.012789322295347192, 0.0, 0.02383751709641302, 0.0, -0.08425540120805163]
[3.699999999999995, 0.21921941639849915, 0.011507232673466206, 0.013282598927617073, 0.0, -0.012771506587068649, 0.0, 0.023894416016318507, 0.0, -0.08432374934113084]
[3.7499999999999947, 0.21920029864847657, 0.010924536734819412, 0.012046362273395061, 0.0, -0.012805314596859215, 0.0, 0.023901388439603884, 0.0, -0.08424642023856245]
[3.7999999999999945, 0.2190241117649339, 0.01092428807169199, 0.011461061425507069, 0.0, -0.01281365048925406, 0.0, 0.02395335986810356, 0.0, -0.08426004190681206]
[3.8499999999999943, 0.21895263575932009, 0.01074707880616188, 0.011083592660725117, 0.0, -0.012801678620656816, 0.0, 0.023882423760798743, 0.0, -0.08416203390368864]
[3.899999999999994, 0.21889887011775744, 0.010661495849490166, 0.010374780744314194, 0.0, -0.012775501181421489, 0.0, 0.02384642907601357, 0.0, -0.08414898324149403]
[3.949999999999994, 0.21880861672908067, 0.010236897505819798, 0.008880484849214554, 0.0, -0.01269781092423485, 0.0, 0.023921751655589994, 0.0, -0.08403498142096591]
[3.999999999999994, 0.2186077696000412, 0.010005262680351734, 0.009072462096810341, 0.0, -0.012674805449463325, 0.0, 0.02394929994283308, 0.0, -0.08404931552267]
[4.049999999999994, 0.21862117560133337, 0.00884972047060728, 0.007754057180136442, 0.0, -0.012636958268208999, 0.0, 0.024105216957547002, 0.0, -0.08401886607075276]
[4.099999999999993, 0.21841014027248135, 0.008401098661124706, 0.007258547469973564, 0.0, -0.012632489774210344, 0.0, 0.02414290069628889, 0.0, -0.08399932691581863]
[4.149999999999993, 0.21833020424008368, 0.007202870212495327, 0.005779777653515339, 0.0, -0.012625542361878751, 0.0, 0.024113919605864103, 0.0, -0.08403937023728039]
[4.199999999999993, 0.2180977391890995, 0.006695824209600687, 0.005763175431638956, 0.0, -0.012637696729373307, 0.0, 0.024127860484532353, 0.0, -0.0840932795507266]
[4.249999999999993, 0.21807374682496297, 0.005700474139302969, 0.004263497423380613, 0.0, -0.012537030708779161, 0.0, 0.02405746649829768, 0.0, -0.0841783889864477]
[4.299999999999993, 0.21784751757510937, 0.00515404948964715, 0.0036232920829206705, 0.0, -0.012532577868945884, 0.0, 0.024074509853345364, 0.0, -0.08417431156823411]
[4.3499999999999925, 0.21774567738721612, 0.004194272216409445, 0.0020435901824384928, 0.0, -0.012581117359798305, 0.0, 0.024135793887952624, 0.0, -0.08423058831619817]
[4.399999999999992, 0.21751121823369057, 0.003935614600777626, 0.0014376739272847772, 0.0, -0.012532177878189535, 0.0, 0.02418434654879723, 0.0, -0.0842136108275841]
[4.449999999999992, 0.21742603081102715, 0.0027549148071557283, 0.0004855548031628132, 0.0, -0.01255765528809678, 0.0, 0.024182271067035844, 0.0, -0.08420412139007954]
[4.499999999999992, 0.21725862915091215, 0.002399287885054946, 0.0001829901011660695, 0.0, -0.01254219934532137, 0.0, 0.024181594368663226, 0.0, -0.08420451629710071]
[4.549999999999992, 0.21720628024253294, 0.0014675295678898692, -0.0012037958949804306, 0.0, -0.012541260192323458, 0.0, 0.024221387381806094, 0.0, -0.08426654333560286]
[4.599999999999992, 0.21699658990210385, 0.0011438047513365746, -0.0012804486323148012, 0.0, -0.012541658849452802, 0.0, 0.02426434267117842, 0.0, -0.08431830947287784]
[4.6499999999999915, 0.21697320684382224, 0.0005884478450752795, -0.0025557121261954308, 0.0, -0.012582574656203244, 0.0, 0.024294366814111998, 0.0, -0.08428146773992849]
[4.699999999999991, 0.21679343911004018, 0.0002691061235964298, -0.0027501669246703386, 0.0, -0.012617833064892083, 0.0, 0.024313044869629933, 0.0, -0.0842928304352285]
[4.749999999999991, 0.21675586229577193, -0.0006634494056925178, -0.003988863900303841, 0.0, -0.012660393002013038, 0.0, 0.024392839825015677, 0.0, -0.0842685113526333]
[4.799999999999991, 0.21656421908951828, -0.0009663017117418349, -0.0042197550646960735, 0.0, -0.012648874809977171, 0.0, 0.02435770498878354, 0.0, -0.08426601812713712]
[4.849999999999991, 0.21652290771644792, -0.001758076949045062, -0.004853364545851946, 0.0, -0.01264129582894997, 0.0, 0.024347416083499284, 0.0, -0.08424897991244597]
[4.899999999999991, 0.2164112442955188, -0.002267892938107252, -0.004874022677540779, 0.0, -0.012673932910570939, 0.0, 0.02432463536898805, 0.0, -0.0842384305463544]
[4.94999999999999, 0.21638663670899344, -0.003371940925717354, -0.004825257230550051, 0.0, -0.012698764097073687, 0.0, 0.024322524930660748, 0.0, -0.08417670947823054]
[4.99999999999999, 0.21634476361124774, -0.0037186231929808855, -0.005631172563880682, 0.0, -0.012671380717529481, 0.0, 0.024343982489663206, 0.0, -0.08419676234714864]
[5.04999999999999, 0.2162313430732302, -0.0026283334009349346, -0.005008063279092312, 0.0, -0.012658381991654937, 0.0, 0.02436828612103775, 0.0, -0.08427895109583473]
[5.09999999999999, 0.2163546560706943, -0.0021631179843097925, -0.003971974365413189, 0.0, -0.012660535670884772, 0.0, 0.02432432512585887, 0.0, -0.08427901464802971]
[5.14999999999999, 0.2165013156589027, -0.001218095188960433, -0.0026358370669186115, 0.0, -0.0125780246644264, 0.0, 0.024336495522787976, 0.0, -0.08423689263871016]
[5.1999999999999895, 0.21670539641054345, -0.000841219793073833, -0.001914665219374001, 0.0, -0.012570065449889579, 0.0, 0.02435781192038977, 0.0, -0.08423407314055008]
[5.249999999999989, 0.21680977773527846, 0.00010699798440327868, -0.0011695504654198885, 0.0, -0.012554900442934582, 0.0, 0.024467115969246063, 0.0, -0.08423209748011565]
[5.299999999999989, 0.21694183304085657, 0.0003602790820877999, -0.0005129732307977974, 0.0, -0.012543564439595398, 0.0, 0.024486030815820282, 0.0, -0.08422718517465208]
[5.349999999999989, 0.21703297325835558, 0.0006960564060136676, 0.0001313758548349142, 0.0, -0.01246935137118326, 0.0, 0.02459900950494801, 0.0, -0.08430836027772019]
[5.399999999999989, 0.21712619415538384, 0.0007775725680403411, 1.1241849279031157e-05, 0.0, -0.01248795049781026, 0.0, 0.02459294650291686, 0.0, -0.0843018059349136]
[5.449999999999989, 0.21711505707344445, -1.2009892088826746e-05, 0.0008659703889861703, 0.0, -0.012586237026614053, 0.0, 0.024589069150885674, 0.0, -0.08431035698145684]
[5.4999999999999885, 0.21718521471596988, -9.924278856487945e-05, 0.0008820882067084312, 0.0, -0.012604008562300475, 0.0, 0.02457481014042396, 0.0, -0.08434102548084885]
[5.549999999999988, 0.21718340377243844, -0.00038368883542716503, 0.0005093694198876619, 0.0, -0.012585715287304499, 0.0, 0.024619343076024532, 0.0, -0.0843735022127751]
[5.599999999999988, 0.21712557260581755, -0.0005585086764767766, -0.00022460203035734594, 0.0, -0.012554501993947068, 0.0, 0.024631274116823643, 0.0, -0.08441149580522021]
[5.649999999999988, 0.21702838149622836, -0.001142563996836543, -0.0007072320440784097, 0.0, -0.012549864543579878, 0.0, 0.024647193785904603, 0.0, -0.08444166798008046]
[5.699999999999988, 0.21694415109507506, -0.0015069579239934683, -0.001093085389584303, 0.0, -0.012573032554169266, 0.0, 0.024654008444687448, 0.0, -0.08446360818121786]
[5.749999999999988, 0.21688125285666432, -0.0022662519477307796, -0.0016458603786304593, 0.0, -0.012579714020884316, 0.0, 0.024654887834708712, 0.0, -0.08454469598957788]
[5.799999999999987, 0.2167808664133935, -0.002404930302873254, -0.00184253032784909, 0.0, -0.012565413235058926, 0.0, 0.024689210446503355, 0.0, -0.08455749271159897]
[5.849999999999987, 0.21675084546624912, -0.0022807836066931486, -0.002522631548345089, 0.0, -0.012526797085676979, 0.0, 0.024698701744896197, 0.0, -0.08446914758156343]
[5.899999999999987, 0.2166731831421051, -0.0022710750345140696, -0.002539921086281538, 0.0, -0.012552193423749426, 0.0, 0.02474232490602715, 0.0, -0.08447567358475293]
[5.949999999999987, 0.21667149266486985, -0.002095467410981655, -0.002639210782945156, 0.0, -0.012454530593008014, 0.0, 0.024818750700423196, 0.0, -0.08446651858491722]
[5.999999999999987, 0.21666697671515864, -0.0020431808661669493, -0.0029437600169330835, 0.0, -0.012504860228649595, 0.0, 0.0248564193252325, 0.0, -0.08443652327353546]
[6.0499999999999865, 0.21663205630681007, -0.0022015830036252737, -0.003358097281306982, 0.0, -0.012479033802941849, 0.0, 0.024861086570475692, 0.0, -0.08444146057177546]
[6.099999999999986, 0.21657460374623538, -0.00227873376570642, -0.0038925798144191504, 0.0, -0.01246884269842549, 0.0, 0.024880622238514224, 0.0, -0.08445243361758471]
[6.149999999999986, 0.21650600125792901, -0.0030609099194407463, -0.004339535720646381, 0.0, -0.012526054547851974, 0.0, 0.02498358451653298, 0.0, -0.08436872358139186]
[6.199999999999986, 0.21641754407079886, -0.003617025911808014, -0.005094566382467747, 0.0, -0.012517485360652001, 0.0, 0.02499185127014946, 0.0, -0.08434951676195881]
[6.249999999999986, 0.21630126388220114, -0.003019405761733651, -0.004823801573365927, 0.0, -0.012503361723964688, 0.0, 0.025014781241744534, 0.0, -0.08440180386480764]
[6.299999999999986, 0.2163602131702937, -0.003049280261620879, -0.004913043230772018, 0.0, -0.012491933585510604, 0.0, 0.025026282282927498, 0.0, -0.08439144284948871]
[6.349999999999985, 0.2163480226005893, -0.003144873073324561, -0.004969439934939146, 0.0, -0.012529039015262337, 0.0, 0.025055860130059844, 0.0, -0.08434326462634792]
[6.399999999999985, 0.21633699548240748, -0.0031311188358813524, -0.005153763107955456, 0.0, -0.012539651004451166, 0.0, 0.02502530575304973, 0.0, -0.08433163491696988]
[6.449999999999985, 0.21631508545654823, -0.003021135227754712, -0.005700193345546722, 0.0, -0.012552321267683313, 0.0, 0.02500182921777309, 0.0, -0.08424387947029432]
[6.499999999999985, 0.2162531308144424, -0.0030835075303912163, -0.006502429489046335, 0.0, -0.012544816968393779, 0.0, 0.02500081125853987, 0.0, -0.08422487688573178]
[6.549999999999985, 0.21615247581317087, -0.0033013401553034782, -0.007365732919424772, 0.0, -0.01263573429872707, 0.0, 0.024958201596407815, 0.0, -0.08419714507862457]
[6.5999999999999845, 0.21603762995501044, -0.0033321292139589787, -0.007517759222537279, 0.0, -0.012653294150396767, 0.0, 0.02496856328367961, 0.0, -0.08419179009182728]
[6.649999999999984, 0.21601773376137948, -0.003055620938539505, -0.007319592870771885, 0.0, -0.012568782974725566, 0.0, 0.025019652038896893, 0.0, -0.08417916225943557]
[6.699999999999984, 0.21605390821142123, -0.0030876246746629477, -0.007368826773017645, 0.0, -0.012581671903591104, 0.0, 0.025011772900178236, 0.0, -0.0841845838151166]
[6.749999999999984, 0.21604651035010813, -0.0036382917314767838, -0.007801540661603212, 0.0, -0.012441497651439933, 0.0, 0.025061421679375064, 0.0, -0.08413925625083903]
[6.799999999999984, 0.21596982108741064, -0.0039064050652086735, -0.007962601259350777, 0.0, -0.012412948808315687, 0.0, 0.02505403338610307, 0.0, -0.08412348780148211]
[6.849999999999984, 0.21593854091880843, -0.004489116836339235, -0.008868773467838764, 0.0, -0.012445960478937902, 0.0, 0.025128204904617674, 0.0, -0.0840202038275601]
[6.8999999999999835, 0.21580265421822667, -0.004791124723851681, -0.009402703493833542, 0.0, -0.012471513002412508, 0.0, 0.025178282045922963, 0.0, -0.08400947705774296]
[6.949999999999983, 0.21572437838036565, -0.0056463018991053104, -0.009921686723828316, 0.0, -0.012488663592127443, 0.0, 0.0252353538306934, 0.0, -0.0839792007903696]
[6.999999999999983, 0.2156239642527513, -0.006155063398182392, -0.009967532940208912, 0.0, -0.012495586337153327, 0.0, 0.02522425884202253, 0.0, -0.08396993960563079]
[7.049999999999983, 0.21559632688159122, -0.006864537019282579, -0.010639451444149017, 0.0, -0.012486733993982849, 0.0, 0.025306798349067024, 0.0, -0.08389967547330793]
[7.099999999999983, 0.21548355123499408, -0.007146018091589212, -0.011005466803908348, 0.0, -0.01249883909684202, 0.0, 0.025254346598535277, 0.0, -0.08385104797112763]
[7.149999999999983, 0.21542666699951513, -0.008084789849817753, -0.012043425813317299, 0.0, -0.012590110098637097, 0.0, 0.025356845616916226, 0.0, -0.08381132487608063]
[7.199999999999982, 0.21525926461189984, -0.008629088290035725, -0.012256849557161331, 0.0, -0.012580011644950864, 0.0, 0.02536771586526054, 0.0, -0.08384695376015372]
[7.249999999999982, 0.21520962656434622, -0.010082867927849293, -0.012824763543903828, 0.0, -0.012603616404029253, 0.0, 0.025385332436444953, 0.0, -0.083793043572754]
[7.299999999999982, 0.21507730653265486, -0.01075487956404686, -0.012721382081508636, 0.0, -0.012574408861761024, 0.0, 0.025354684948125226, 0.0, -0.08382679983735739]
[7.349999999999982, 0.21506081786513326, -0.012134496122598648, -0.013189551420509815, 0.0, -0.01255752772570386, 0.0, 0.025483528774754637, 0.0, -0.08394145198347581]
[7.399999999999982, 0.21494388939952475, -0.01289509516209364, -0.013605975545942783, 0.0, -0.012554709909653532, 0.0, 0.025487222333712253, 0.0, -0.08389823673628406]
[7.4499999999999815, 0.21486009486341848, -0.012989851646125317, -0.014122777618467808, 0.0, -0.012585991563956452, 0.0, 0.025487636214952133, 0.0, -0.08388371196287796]
[7.499999999999981, 0.2147928884794749, -0.013087602332234383, -0.015121649950742722, 0.0, -0.012598776647485288, 0.0, 0.025504667526306125, 0.0, -0.08391049342691677]
[7.549999999999981, 0.2146666916079819, -0.013487502932548523, -0.015133467502892017, 0.0, -0.012651034720190673, 0.0, 0.025410293281506395, 0.0, -0.08387103106485407]
[7.599999999999981, 0.21464792499085886, -0.013609395362436771, -0.015727316960692406, 0.0, -0.012625529538139767, 0.0, 0.025458719662425418, 0.0, -0.08388081851039943]
[7.649999999999981, 0.21457013559199867, -0.01278181467205286, -0.016168393194675446, 0.0, -0.012663674706039706, 0.0, 0.025384570590872322, 0.0, -0.08386992322168854]
[7.699999999999981, 0.21455213097933679, -0.012596489861607552, -0.01618144102394581, 0.0, -0.012649146088608492, 0.0, 0.02539189894747062, 0.0, -0.08387037828567673]
[7.7499999999999805, 0.21455856611017138, -0.012440590187907219, -0.015920890495181084, 0.0, -0.012573751695540139, 0.0, 0.025371545230066298, 0.0, -0.083892210164554]
[7.79999999999998, 0.21459713290359822, -0.01251784898340702, -0.015523875132203102, 0.0, -0.012539687096325759, 0.0, 0.025397615445217698, 0.0, -0.08388950238155159]
[7.84999999999998, 0.21464226162839678, -0.012714169919490814, -0.016378941014409065, 0.0, -0.012481774959386216, 0.0, 0.0254642502998941, 0.0, -0.0839889382726286]
[7.89999999999998, 0.2145293534612283, -0.012962359935045242, -0.016376985237002373, 0.0, -0.012457710740059854, 0.0, 0.025491509338064967, 0.0, -0.08401876271876721]
[7.94999999999998, 0.21451884067017582, -0.01396739948540926, -0.0167903583496809, 0.0, -0.012501373526161427, 0.0, 0.025521355241256122, 0.0, -0.083921909068128]
[7.99999999999998, 0.21442482949979602, -0.014526713639497757, -0.0168863944709301, 0.0, -0.012495334126709648, 0.0, 0.025538647610020573, 0.0, -0.08392785014871833]
[8.04999999999998, 0.2143888740002364, -0.01588241197168827, -0.01816931553184986, 0.0, -0.012539240781610912, 0.0, 0.025537734586516765, 0.0, -0.08392850701189151]
[8.09999999999998, 0.21417350048694755, -0.016505738720297813, -0.018587201833724976, 0.0, -0.012551096904110277, 0.0, 0.025563807942464368, 0.0, -0.08391592454833224]
[8.14999999999998, 0.21409547405473886, -0.017830342054367065, -0.01899045519530773, 0.0, -0.012602173988824152, 0.0, 0.025494818553425946, 0.0, -0.08391603375357684]
[8.199999999999982, 0.21398885500285775, -0.018316034227609634, -0.01894274353981018, 0.0, -0.012569121005930613, 0.0, 0.02550232553736764, 0.0, -0.0839086509650266]
[8.249999999999982, 0.21397364041104913, -0.01972620002925396, -0.02002747729420662, 0.0, -0.01251259444276815, 0.0, 0.025457174134244396, 0.0, -0.08375177093351258]
[8.299999999999983, 0.21378010603711006, -0.020354270935058594, -0.020214518532156944, 0.0, -0.012486781562916742, 0.0, 0.025444546532895077, 0.0, -0.08374223862648902]
[8.349999999999984, 0.21373006027031688, -0.02155989781022072, -0.01980501040816307, 0.0, -0.012470245669568461, 0.0, 0.025557726062428978, 0.0, -0.08370827397915886]
[8.399999999999984, 0.2137278334560245, -0.021945049986243248, -0.019869383424520493, 0.0, -0.01246656334370248, 0.0, 0.025567070894218776, 0.0, -0.08371394610247211]
[8.449999999999985, 0.213703288718462, -0.02265523374080658, -0.020219121128320694, 0.0, -0.01253492933904856, 0.0, 0.02562134431935491, 0.0, -0.0837896261273729]
[8.499999999999986, 0.21362982058458027, -0.02303791604936123, -0.020397810265421867, 0.0, -0.012496605599679625, 0.0, 0.025589140367056264, 0.0, -0.0837475632092903]
[8.549999999999986, 0.21359142484333365, -0.02393929846584797, -0.020231472328305244, 0.0, -0.012365273047930066, 0.0, 0.02560481053576962, 0.0, -0.0837221566993632]
[8.599999999999987, 0.21357268681917338, -0.024427227675914764, -0.02024579979479313, 0.0, -0.012342041079399835, 0.0, 0.025595832662377593, 0.0, -0.08371217360057523]
[8.649999999999988, 0.2135498003421351, -0.02543669007718563, -0.020560817793011665, 0.0, -0.012419369117758405, 0.0, 0.025615921605098495, 0.0, -0.08365003913151975]
[8.699999999999989, 0.21346760673332957, -0.025873422622680664, -0.021296311169862747, 0.0, -0.012435576527941881, 0.0, 0.025600494731126282, 0.0, -0.08366339230667451]
[8.74999999999999, 0.21335888373814524, -0.02711454965174198, -0.02219424955546856, 0.0, -0.012385910309214446, 0.0, 0.025668057923706748, 0.0, -0.08368294083267784]
[8.79999999999999, 0.21319547983836382, -0.027824681252241135, -0.022867390885949135, 0.0, -0.012378733612571174, 0.0, 0.02564238530623297, 0.0, -0.08369820195808766]
[8.84999999999999, 0.21308252638097852, -0.02971522882580757, -0.023294813930988312, 0.0, -0.012391991382362988, 0.0, 0.025681072404724455, 0.0, -0.08367264813144883]
[8.899999999999991, 0.21294843950629233, -0.030692370608448982, -0.02343994565308094, 0.0, -0.012351758602254254, 0.0, 0.025710652801656343, 0.0, -0.08368413437331321]
[8.949999999999992, 0.2128883891410008, -0.03258626535534859, -0.024066956713795662, 0.0, -0.01241154272931258, 0.0, 0.025714398599527413, 0.0, -0.08361676379813102]
[8.999999999999993, 0.21272978757005184, -0.03318430855870247, -0.02396829053759575, 0.0, -0.012406558462703315, 0.0, 0.025710952335359763, 0.0, -0.08358790352190872]
[9.049999999999994, 0.21271592747859652, -0.03415563702583313, -0.024420564994215965, 0.0, -0.012357039185783254, 0.0, 0.025787032569207995, 0.0, -0.08351866559429058]
[9.099999999999994, 0.21261862681824711, -0.03469248488545418, -0.024427618831396103, 0.0, -0.012346191457344237, 0.0, 0.025823919408667365, 0.0, -0.08352923299965563]
[9.149999999999995, 0.21259450929544865, -0.03588639944791794, -0.025036662817001343, 0.0, -0.01237751545891906, 0.0, 0.025750466869412417, 0.0, -0.08349278524951818]
[9.199999999999996, 0.2124684246459603, -0.03663204610347748, -0.024980928748846054, 0.0, -0.012364423078733923, 0.0, 0.025721148892949817, 0.0, -0.08350642443964587]
[9.249999999999996, 0.21244292836256323, -0.038069721311330795, -0.025203384459018707, 0.0, -0.012309754000827799, 0.0, 0.02572694201711552, 0.0, -0.08357054322891388]
[9.299999999999997, 0.21235348643034693, -0.038733307272195816, -0.025374075397849083, 0.0, -0.012319301292435168, 0.0, 0.025687858246140578, 0.0, -0.08360246741171232]
[9.349999999999998, 0.21230389852289108, -0.04035560041666031, -0.02649305947124958, 0.0, -0.012276445737713968, 0.0, 0.025729518787359743, 0.0, -0.0835418611255065]
[9.399999999999999, 0.2120969928285107, -0.04116380214691162, -0.02733900211751461, 0.0, -0.012304405003547987, 0.0, 0.025754187464776628, 0.0, -0.08353589052113783]
[9.45, 0.21195869193244724, -0.042700473219156265, -0.028565477579832077, 0.0, -0.012293965548590137, 0.0, 0.025695574969158738, 0.0, -0.08358100928653882]
[9.5, 0.21174237068764862, -0.04335010424256325, -0.02889018878340721, 0.0, -0.01225993951354881, 0.0, 0.025699762132715215, 0.0, -0.08361442628191156]
[9.55, 0.2116745814337581, -0.04450831189751625, -0.02952573262155056, 0.0, -0.012196524887870932, 0.0, 0.025812689292245734, 0.0, -0.08362894557050916]
[9.600000000000001, 0.21154680797550823, -0.04508443549275398, -0.030002973973751068, 0.0, -0.01221219683302331, 0.0, 0.025768282735580923, 0.0, -0.08361307310187951]
[9.650000000000002, 0.21146357913225888, -0.04547274112701416, -0.030005084350705147, 0.0, -0.01219698910867503, 0.0, 0.025699587687436704, 0.0, -0.08357478657156767]
[9.700000000000003, 0.21144650005515664, -0.0457906648516655, -0.030062420293688774, 0.0, -0.012211901208139924, 0.0, 0.025683085092924784, 0.0, -0.08355319193054377]
[9.750000000000004, 0.21142572688076644, -0.04642930254340172, -0.030889978632330894, 0.0, -0.012207513982749395, 0.0, 0.025723973156804594, 0.0, -0.08362031582227793]
[9.800000000000004, 0.21129701622281222, -0.04691575467586517, -0.03130195662379265, 0.0, -0.012204775956450047, 0.0, 0.025735163733466564, 0.0, -0.08364844986560097]
[9.850000000000005, 0.21122564060367643, -0.04792717844247818, -0.032229360193014145, 0.0, -0.012193205449586485, 0.0, 0.02574635798812232, 0.0, -0.08364212925873672]
[9.900000000000006, 0.2110685897503048, -0.04839453473687172, -0.03254733979701996, 0.0, -0.012176012509182925, 0.0, 0.025755951453582778, 0.0, -0.08361783467017013]
[9.950000000000006, 0.21100951856598257, -0.049466777592897415, -0.03282828629016876, 0.0, -0.012139667116073992, 0.0, 0.025750296780147026, 0.0, -0.08364971832082467]
[10.000000000000007, 0.21092876543864605, -0.05034758150577545, -0.03322427719831467, 0.0, -0.012143434784910269, 0.0, 0.025711695794094807, 0.0, -0.08365753063301508]
[10.050000000000008, 0.21084225852325553, -0.05179671570658684, -0.03446018695831299, 0.0, -0.012175336270278381, 0.0, 0.02574677735537341, 0.0, -0.08370205187883901]
[10.100000000000009, 0.21062857744798064, -0.052572257816791534, -0.03448427468538284, 0.0, -0.012148949693177489, 0.0, 0.02577896048632682, 0.0, -0.08372360727968581]
[10.15000000000001, 0.21059203985229133, -0.05410289391875267, -0.03482523187994957, 0.0, -0.01214843808072492, 0.0, 0.025764546412964443, 0.0, -0.08369954287393684]
[10.20000000000001, 0.21048410182289776, -0.05498102679848671, -0.03506510704755783, 0.0, -0.012161085556532001, 0.0, 0.025774511054231872, 0.0, -0.08371124968708132]
[10.25000000000001, 0.21041677234858272, -0.056712958961725235, -0.03513747453689575, 0.0, -0.012168389397064596, 0.0, 0.025741598871298472, 0.0, -0.08374943265474485]
[10.300000000000011, 0.21033290897682305, -0.05761813372373581, -0.035685040056705475, 0.0, -0.012134022301802678, 0.0, 0.0257407418031327, 0.0, -0.08376095963298463]
[10.350000000000012, 0.210226839056164, -0.06089337542653084, -0.03754846379160881, 0.0, -0.012205565136949712, 0.0, 0.02576664590465838, 0.0, -0.08372452517447382]
[10.400000000000013, 0.20985743154756722, -0.06089337542653084, -0.03754846379160881, 0.0, -0.012205565136949712, 0.0, 0.02576664590465838, 0.0, -0.08372452517447382]
[10.450000000000014, 0.20985743154756722, -0.06208210811018944, -0.03833387792110443, 0.0, -0.01214302184029367, 0.0, 0.025777868068695853, 0.0, -0.08374090350943941]
[10.500000000000014, 0.20971003658249973, -0.06271137297153473, -0.03847740590572357, 0.0, -0.012124767130000007, 0.0, 0.025738083735371304, 0.0, -0.08374461727082734]
[10.550000000000015, 0.20966525206178424, -0.06424520164728165, -0.03983526676893234, 0.0, -0.012082490252734496, 0.0, 0.02570378795322234, 0.0, -0.08380703414783956]
[10.600000000000016, 0.20943301179215312, -0.06502437591552734, -0.040253207087516785, 0.0, -0.01211286124764038, 0.0, 0.02570385002335624, 0.0, -0.08381747274729623]
[10.650000000000016, 0.20934822744995354, -0.0664181262254715, -0.04184401035308838, 0.0, -0.012094000778651666, 0.0, 0.025742197585822968, 0.0, -0.08374956315099596]
[10.700000000000017, 0.20909361310780047, -0.06714193522930145, -0.04105643182992935, 0.0, -0.012125141224016605, 0.0, 0.02570363876254384, 0.0, -0.08373232978989165]
[10.750000000000018, 0.20915842103943227, -0.06829521805047989, -0.04123654216527939, 0.0, -0.0121364279947582, 0.0, 0.025721314244617537, 0.0, -0.083794862598852]
[10.800000000000018, 0.20908646935567254, -0.06885702908039093, -0.04169291630387306, 0.0, -0.012134808196467473, 0.0, 0.025715043394587824, 0.0, -0.08382534377168979]
[10.85000000000002, 0.20900640841953452, -0.0683155283331871, -0.042099401354789734, 0.0, -0.01208263837329575, 0.0, 0.025617088055774062, 0.0, -0.08386831858523644]
[10.90000000000002, 0.20898023440718647, -0.06846775114536285, -0.04227277636528015, 0.0, -0.012028603371694736, 0.0, 0.025598903403645824, 0.0, -0.08382564102243856]
[10.95000000000002, 0.20895247102618214, -0.06884288787841797, -0.04215410724282265, 0.0, -0.011990680054570067, 0.0, 0.025601329405985085, 0.0, -0.08377200049401945]
[11.000000000000021, 0.20895070960275827, -0.06912866979837418, -0.041953399777412415, 0.0, -0.01197559200320619, 0.0, 0.025637115590029257, 0.0, -0.0837858774079974]
[11.050000000000022, 0.20896283591151238, -0.06934858113527298, -0.042356811463832855, 0.0, -0.01196458662430216, 0.0, 0.025698797655648854, 0.0, -0.08381769141357967]
[11.100000000000023, 0.208904052785486, -0.0695551410317421, -0.0426652692258358, 0.0, -0.011972152734198646, 0.0, 0.025727638676569423, 0.0, -0.0838156170235369]
[11.150000000000023, 0.20885744191803038, -0.07010757923126221, -0.04190398007631302, 0.0, -0.011920475262562522, 0.0, 0.02569158186329119, 0.0, -0.08372046022537706]
[11.200000000000024, 0.2089264637003839, -0.07072404026985168, -0.04244660586118698, 0.0, -0.011950506102482529, 0.0, 0.02570657971605, 0.0, -0.08368458032282247]
[11.250000000000025, 0.20883350399985906, -0.07050900906324387, -0.04275326058268547, 0.0, -0.011989929398975903, 0.0, 0.025709614564410867, 0.0, -0.08368697943491062]
[11.300000000000026, 0.2088053766102344, -0.07051689177751541, -0.042997244745492935, 0.0, -0.01198888812492892, 0.0, 0.02569660477932803, 0.0, -0.08371624185774279]
[11.350000000000026, 0.20877524466477332, -0.07072845101356506, -0.042484670877456665, 0.0, -0.012071498045689901, 0.0, 0.0256390442763488, 0.0, -0.08371736644889187]
[11.400000000000027, 0.2088286651879549, -0.07117592543363571, -0.04355498403310776, 0.0, -0.012099159313160681, 0.0, 0.025628221659298622, 0.0, -0.08372448868066132]
[11.450000000000028, 0.20867859535977243, -0.07194697856903076, -0.04356786236166954, 0.0, -0.012156311220827621, 0.0, 0.025616181217690763, 0.0, -0.08370954800673906]
[11.500000000000028, 0.2086436208940297, -0.07236819714307785, -0.044201016426086426, 0.0, -0.012174026461976954, 0.0, 0.025603574098656018, 0.0, -0.08371509584528443]
[11.55000000000003, 0.2085807639672607, -0.07327993214130402, -0.04443972557783127, 0.0, -0.012135813386014821, 0.0, 0.02554770724905372, 0.0, -0.08374671315066881]
[11.60000000000003, 0.2084794228465855, -0.07392009347677231, -0.044855594635009766, 0.0, -0.012142007139296864, 0.0, 0.02556839168660521, 0.0, -0.08371065029753573]
[11.65000000000003, 0.2084009134456515, -0.0724729374051094, -0.043737586587667465, 0.0, -0.012156207996809996, 0.0, 0.025525365427354882, 0.0, -0.08370025216196716]
[11.700000000000031, 0.20860011302925646, -0.07220529019832611, -0.04426577314734459, 0.0, -0.012140500996554114, 0.0, 0.0255178711462618, 0.0, -0.0837570362224485]
[11.750000000000032, 0.2085472159273177, -0.07182378321886063, -0.04503659904003143, 0.0, -0.012115860534684532, 0.0, 0.025533833369290798, 0.0, -0.08383116119907028]
[11.800000000000033, 0.2084696249681711, -0.07200773060321808, -0.045648712664842606, 0.0, -0.012118498399635181, 0.0, 0.02553725743595763, 0.0, -0.08383796800197658]
[11.850000000000033, 0.20838691729389128, -0.0726669430732727, -0.045710477977991104, 0.0, -0.012096117032485776, 0.0, 0.025610703170985974, 0.0, -0.08378356373015639]
[11.900000000000034, 0.2083508186649531, -0.0731513500213623, -0.04559551924467087, 0.0, -0.012069639503596245, 0.0, 0.025599747891815794, 0.0, -0.08379040921514692]
[11.950000000000035, 0.20834387061730025, -0.07435460388660431, -0.04669279232621193, 0.0, -0.011990307251204098, 0.0, 0.025685578565456144, 0.0, -0.08382393346729688]
[12.000000000000036, 0.2081577686166018, -0.07516074180603027, -0.047150254249572754, 0.0, -0.011996861659029549, 0.0, 0.02571849414872133, 0.0, -0.08381613625178282]
[12.050000000000036, 0.20806699062108994, -0.07474318146705627, -0.047188494354486465, 0.0, -0.011981347935674432, 0.0, 0.025733905181780533, 0.0, -0.08385797169808865]
[12.100000000000037, 0.20808041021816429, -0.07476174831390381, -0.046808354556560516, 0.0, -0.011946960627887694, 0.0, 0.025736891246248783, 0.0, -0.08385458140999603]
[12.150000000000038, 0.20812602097168562, -0.07471795380115509, -0.04689225181937218, 0.0, -0.011829765550473399, 0.0, 0.025751473273056734, 0.0, -0.08378918736100377]
[12.200000000000038, 0.20811767429418862, -0.07503531873226166, -0.0476854108273983, 0.0, -0.011867893477157223, 0.0, 0.02574223125720635, 0.0, -0.08380134885632018]
[12.250000000000039, 0.20800708133049306, -0.07513453811407089, -0.047482360154390335, 0.0, -0.011836778915163007, 0.0, 0.025753885638386778, 0.0, -0.08370871631980649]
[12.30000000000004, 0.20802757563404736, -0.07533153891563416, -0.04773018881678581, 0.0, -0.01184738861752565, 0.0, 0.02575691453556573, 0.0, -0.08375342106220829]
[12.35000000000004, 0.20798878167964513, -0.07557166367769241, -0.04765884950757027, 0.0, -0.011851697603794434, 0.0, 0.02570973867046353, 0.0, -0.08384049674646636]
[12.400000000000041, 0.207987090004608, -0.07587874680757523, -0.04747859016060829, 0.0, -0.011832932158788478, 0.0, 0.025714951206521532, 0.0, -0.08384273954428022]
[12.450000000000042, 0.20799579682968555, -0.07523038983345032, -0.04720355197787285, 0.0, -0.011797972887836211, 0.0, 0.025664698196904027, 0.0, -0.08388169679341591]
[12.500000000000043, 0.20805746581591664, -0.0753149762749672, -0.0477200523018837, 0.0, -0.011793232480868677, 0.0, 0.025690501939000198, 0.0, -0.08392407469966735]
[12.550000000000043, 0.2079907368417084, -0.0754905417561531, -0.04826639965176582, 0.0, -0.011852892852042224, 0.0, 0.025685267383729476, 0.0, -0.08391722249672615]
[12.600000000000044, 0.20791642233364283, -0.07617862522602081, -0.04889348894357681, 0.0, -0.011804787289406963, 0.0, 0.025662401932692737, 0.0, -0.08387889987365996]
[12.650000000000045, 0.20781004695519803, -0.07701043039560318, -0.04941871762275696, 0.0, -0.01177581265764109, 0.0, 0.025694230139747247, 0.0, -0.08383569558051097]
[12.700000000000045, 0.2077098827335238, -0.0777880921959877, -0.050120122730731964, 0.0, -0.011794129200948092, 0.0, 0.025729687801209395, 0.0, -0.08383278502102161]
[12.750000000000046, 0.2075905528606474, -0.07989874482154846, -0.05193869769573212, 0.0, -0.01177937513694062, 0.0, 0.025729544078523882, 0.0, -0.08394683700318234]
[12.800000000000047, 0.2072770713856816, -0.08085953444242477, -0.05231644585728645, 0.0, -0.011783128174364088, 0.0, 0.025736896287122227, 0.0, -0.08392448861422487]
[12.850000000000048, 0.20718932692877948, -0.08126211166381836, -0.05256294831633568, 0.0, -0.011713621275618539, 0.0, 0.025826799235385244, 0.0, -0.08383961107907409]
[12.900000000000048, 0.20714178933329874, -0.08164311200380325, -0.053387269377708435, 0.0, -0.011674869166909149, 0.0, 0.025823153204588334, 0.0, -0.08383435137789491]
[12.950000000000049, 0.20702463479697703, -0.08201701194047928, -0.05392737314105034, 0.0, -0.011600440900716612, 0.0, 0.025788191457394277, 0.0, -0.08393136326514614]
[13.00000000000005, 0.20694249078221616, -0.08233058452606201, -0.05414533242583275, 0.0, -0.011591785367775316, 0.0, 0.025795042835603264, 0.0, -0.08390075134464291]
[13.05000000000005, 0.2069022939891368, -0.08274005353450775, -0.054769162088632584, 0.0, -0.011609710424793434, 0.0, 0.025791642572236047, 0.0, -0.08391555899845125]
[13.100000000000051, 0.20680838618986305, -0.08310340344905853, -0.055208493024110794, 0.0, -0.01161556126927951, 0.0, 0.025759164266428113, 0.0, -0.08388581464017131]
[13.150000000000052, 0.20673900356434283, -0.08380088210105896, -0.05543150752782822, 0.0, -0.011596062902530955, 0.0, 0.02575811746843315, 0.0, -0.08396731217836992]
[13.200000000000053, 0.2066815587182343, -0.08413387089967728, -0.05569230020046234, 0.0, -0.011574624751723302, 0.0, 0.02573664035075167, 0.0, -0.08396908753553345]
[13.250000000000053, 0.2066352908581495, -0.0842052549123764, -0.055434003472328186, 0.0, -0.011479828818430916, 0.0, 0.025761506569242955, 0.0, -0.08398276788742116]
[13.300000000000054, 0.20666373653322456, -0.08456181734800339, -0.05548495054244995, 0.0, -0.011482819483757404, 0.0, 0.025751479678771505, 0.0, -0.08398637417174212]
[13.350000000000055, 0.20664206961125134, -0.08541050553321838, -0.05593418702483177, 0.0, -0.011448251595413541, 0.0, 0.025693903553417937, 0.0, -0.08399931090948244]
[13.400000000000055, 0.20655045266456903, -0.08621145784854889, -0.05639712139964104, 0.0, -0.011437369683839405, 0.0, 0.025721512700442952, 0.0, -0.08402094083911675]
[13.450000000000056, 0.20645923112310466, -0.08762894570827484, -0.05624758079648018, 0.0, -0.011435534738158944, 0.0, 0.025619961433699025, 0.0, -0.08406002548754463]
[13.500000000000057, 0.2064160844566673, -0.0885271281003952, -0.05635151267051697, 0.0, -0.011429252279928456, 0.0, 0.02563358549682372, 0.0, -0.08406930914678841]
[13.550000000000058, 0.20636448511362074, -0.09037303179502487, -0.056565310806035995, 0.0, -0.011364500115292758, 0.0, 0.025642577807773893, 0.0, -0.08397646447841167]
[13.600000000000058, 0.20625841581322252, -0.09089447557926178, -0.05674015358090401, 0.0, -0.011329612258601586, 0.0, 0.025673278186740884, 0.0, -0.08394177661585434]
[13.650000000000059, 0.20621447856567798, -0.0906432643532753, -0.05515885725617409, 0.0, -0.011347234045056075, 0.0, 0.02565680195305976, 0.0, -0.08403648783308752]
[13.70000000000006, 0.20641843731723722, -0.0908496230840683, -0.05501500517129898, 0.0, -0.011312877205041585, 0.0, 0.02567874303961407, 0.0, -0.08403633963729261]
[13.75000000000006, 0.20642706219658252, -0.09146237373352051, -0.0546429380774498, 0.0, -0.011179978527950267, 0.0, 0.025733483342197504, 0.0, -0.08399098226559568]
[13.800000000000061, 0.20644594723060725, -0.09205128997564316, -0.05512552708387375, 0.0, -0.011180375432796787, 0.0, 0.0257329286732348, 0.0, -0.0839886188236857]
[13.850000000000062, 0.20636151126131413, -0.09338604658842087, -0.0554019957780838, 0.0, -0.011242975090688109, 0.0, 0.025758466689451306, 0.0, -0.08395576071276598]
[13.900000000000063, 0.20626993277728556, -0.09409987926483154, -0.055800989270210266, 0.0, -0.011206295981034488, 0.0, 0.025770562241245472, 0.0, -0.08394185838683406]
[13.950000000000063, 0.2061902924403548, -0.09532199800014496, -0.056037914007902145, 0.0, -0.011196161879263155, 0.0, 0.025738317866371867, 0.0, -0.08404168480909634]
[14.000000000000064, 0.20610842174626887, -0.09574626386165619, -0.05640857294201851, 0.0, -0.011182184662879256, 0.0, 0.025712726886177113, 0.0, -0.08407247369318406]
[14.050000000000065, 0.2060447850932926, -0.0950130894780159, -0.056413207203149796, 0.0, -0.01115400431418769, 0.0, 0.025779684027720046, 0.0, -0.08404272768576726]
[14.100000000000065, 0.20607598036430774, -0.09495574980974197, -0.05632767453789711, 0.0, -0.011119884636248707, 0.0, 0.025752138743027456, 0.0, -0.08404472805871845]
[14.150000000000066, 0.20608890785716474, -0.09501790255308151, -0.05618154630064964, 0.0, -0.011049431139292593, 0.0, 0.02571651797768593, 0.0, -0.0840714403693198]
[14.200000000000067, 0.20610405765809117, -0.09540953487157822, -0.05647912621498108, 0.0, -0.011026538719478146, 0.0, 0.02570421254027547, 0.0, -0.08406144080599014]
[14.250000000000068, 0.206050757638514, -0.09573454409837723, -0.05707062780857086, 0.0, -0.010978625842328664, 0.0, 0.02571264101668853, 0.0, -0.08410896592545647]
[14.300000000000068, 0.20596445589423176, -0.0960388034582138, -0.05724372714757919, 0.0, -0.010963466753809036, 0.0, 0.025751654907180652, 0.0, -0.08409693682539066]
[14.350000000000069, 0.2059301399494707, -0.09634725004434586, -0.05694086477160454, 0.0, -0.010931437929095263, 0.0, 0.02584934750935521, 0.0, -0.08410975628661728]
[14.40000000000007, 0.20595375753946601, -0.09674831479787827, -0.05709117650985718, 0.0, -0.010920171586646151, 0.0, 0.02587058079219196, 0.0, -0.08409581135203965]
[14.45000000000007, 0.20591803035110234, -0.09529078006744385, -0.05646863579750061, 0.0, -0.0109637270316491, 0.0, 0.02589800622155983, 0.0, -0.08405115403210311]
[14.500000000000071, 0.2060571829766035, -0.09501264244318008, -0.05626899376511574, 0.0, -0.010977647208267593, 0.0, 0.025917867404183337, 0.0, -0.0840393074509249]
[14.550000000000072, 0.20609360819064076, -0.09440106153488159, -0.05617402493953705, 0.0, -0.010981402459340494, 0.0, 0.026072821632454616, 0.0, -0.0839549925025457]
[14.600000000000072, 0.20613169756919142, -0.09443186968564987, -0.05623330920934677, 0.0, -0.01095488530247637, 0.0, 0.0260438448564576, 0.0, -0.0839044312918792]
[14.650000000000073, 0.2061231243507564, -0.09444472193717957, -0.05665620416402817, 0.0, -0.010989283179312711, 0.0, 0.02596723917586794, 0.0, -0.08390240148917665]
[14.700000000000074, 0.20607093211725352, -0.09483859688043594, -0.05679098144173622, 0.0, -0.011064795104864529, 0.0, 0.026006646175022515, 0.0, -0.08393881849929274]
[14.750000000000075, 0.2060374131491035, -0.09575120359659195, -0.056988220661878586, 0.0, -0.01114948441628725, 0.0, 0.026041761494228138, 0.0, -0.08404368604988946]
[14.800000000000075, 0.20597379611738023, -0.09605725109577179, -0.05756692215800285, 0.0, -0.011134605993177874, 0.0, 0.026068118788715667, 0.0, -0.08402719693173552]
[14.850000000000076, 0.205889878687039, -0.0956939160823822, -0.05653507262468338, 0.0, -0.011129085251004247, 0.0, 0.026003838664333492, 0.0, -0.08398420319790738]
[14.900000000000077, 0.20603160718783733, -0.09586739540100098, -0.056586142629384995, 0.0, -0.011122527533377414, 0.0, 0.025974678993450316, 0.0, -0.08395761299143156]
[14.950000000000077, 0.20601785641618073, -0.09588094800710678, -0.05658009275794029, 0.0, -0.01116700042859993, 0.0, 0.02593490146947119, 0.0, -0.08396412067092299]
[15.000000000000078, 0.20601800800658762, -0.09622637182474136, -0.05617883801460266, 0.0, -0.011199853005514696, 0.0, 0.0259242158025881, 0.0, -0.08396997229369077]
[15.050000000000079, 0.20605203745096923, -0.09681294858455658, -0.0558699406683445, 0.0, -0.011250274974975084, 0.0, 0.025975403681148795, 0.0, -0.08406249567916342]
[15.10000000000008, 0.2060643433117121, -0.09715908765792847, -0.05547984316945076, 0.0, -0.011242508796481553, 0.0, 0.02596452805262391, 0.0, -0.08402132109010256]
[15.15000000000008, 0.20609697947166858, -0.09745682030916214, -0.05575045198202133, 0.0, -0.011240359442115981, 0.0, 0.026008616333225983, 0.0, -0.08400089454203213]
[15.200000000000081, 0.20605104035720223, -0.0977974683046341, -0.05589772015810013, 0.0, -0.011235764975894782, 0.0, 0.02599511337930776, 0.0, -0.0839399138816492]
[15.250000000000082, 0.20601830204173918, -0.09762399643659592, -0.05543806031346321, 0.0, -0.011190101770061368, 0.0, 0.026054123340008326, 0.0, -0.0840113121081703]
[15.300000000000082, 0.20608194131009278, -0.09787555783987045, -0.05570505931973457, 0.0, -0.011143951596260861, 0.0, 0.026086106909695237, 0.0, -0.08400776912562809]
[15.350000000000083, 0.20603844309143718, -0.09904457628726959, -0.05543351545929909, 0.0, -0.011105923126529672, 0.0, 0.026106895451334565, 0.0, -0.0840442633451972]
[15.400000000000084, 0.20602095671765502, -0.09979540854692459, -0.05595844238996506, 0.0, -0.01115564401262857, 0.0, 0.026085375712788104, 0.0, -0.0840756763947891]
[15.450000000000085, 0.2059243370859325, -0.10090398788452148, -0.05563878268003464, 0.0, -0.011149525905602186, 0.0, 0.0260661640591749, 0.0, -0.0840645922363667]
[15.500000000000085, 0.2059153438796103, -0.10139433294534683, -0.055856168270111084, 0.0, -0.011162646089100533, 0.0, 0.026076184904544216, 0.0, -0.08407705699631553]
[15.550000000000086, 0.205867559351027, -0.10256311297416687, -0.056254591792821884, 0.0, -0.011098218752111299, 0.0, 0.02613023526141502, 0.0, -0.08406227883558146]
[15.600000000000087, 0.20576828028805552, -0.10328428447246552, -0.05616234242916107, 0.0, -0.011097235647170174, 0.0, 0.02612468459544883, 0.0, -0.08408543678091526]
[15.650000000000087, 0.2057483027860522, -0.1038273498415947, -0.056714627891778946, 0.0, -0.011054253593054989, 0.0, 0.026146045494723512, 0.0, -0.08415932906809795]
[15.700000000000088, 0.2056573431392759, -0.10422064363956451, -0.056978922337293625, 0.0, -0.011010932165138307, 0.0, 0.026143366986122168, 0.0, -0.08418893688224253]
[15.750000000000089, 0.20560803530015048, -0.10470964759588242, -0.057401321828365326, 0.0, -0.01108896058092531, 0.0, 0.026145611641597753, 0.0, -0.08425209559976611]
[15.80000000000009, 0.20553527667090296, -0.10519694536924362, -0.057640865445137024, 0.0, -0.011122712637516763, 0.0, 0.02610439876621969, 0.0, -0.08426300808670847]
[15.85000000000009, 0.2054849186557531, -0.10622017085552216, -0.057026028633117676, 0.0, -0.011051110948102036, 0.0, 0.026246347706654728, 0.0, -0.08428072568175211]
[15.900000000000091, 0.2055156641024351, -0.10693636536598206, -0.057432133704423904, 0.0, -0.011033283908445312, 0.0, 0.026274688762839817, 0.0, -0.08430217223464405]
[15.950000000000092, 0.20543505312703544, -0.1083357110619545, -0.057751722633838654, 0.0, -0.010995250248231354, 0.0, 0.026283774631999463, 0.0, -0.08426425449879021]
[16.000000000000092, 0.2053354116632044, -0.108835868537426, -0.05830947682261467, 0.0, -0.010999215050212657, 0.0, 0.026279699177901537, 0.0, -0.08423365636847076]
[16.050000000000093, 0.2052456430549174, -0.10869432985782623, -0.05796242132782936, 0.0, -0.010950206743268907, 0.0, 0.026283350568504147, 0.0, -0.08421699364126571]
[16.100000000000094, 0.20529414998643097, -0.10892162472009659, -0.05817991495132446, 0.0, -0.010927516258117565, 0.0, 0.02626333165150959, 0.0, -0.08424888422349036]
[16.150000000000095, 0.20525774760156867, -0.10898193717002869, -0.05687393620610237, 0.0, -0.01090191290285775, 0.0, 0.02611151332051503, 0.0, -0.08423539740510144]
[16.200000000000095, 0.20541459487102923, -0.10905755311250687, -0.056754324585199356, 0.0, -0.010913142929242807, 0.0, 0.026116049183880996, 0.0, -0.08423025890470132]
[16.250000000000096, 0.2054259237673133, -0.10902106761932373, -0.05622940883040428, 0.0, -0.011051045975251686, 0.0, 0.026087640200020468, 0.0, -0.08430194639744429]
[16.300000000000097, 0.2054915965325385, -0.10877677798271179, -0.05544724315404892, 0.0, -0.011085332466127315, 0.0, 0.026024372407049003, 0.0, -0.08428033617215426]
[16.350000000000097, 0.20559768158867955, -0.10838552564382553, -0.05494565889239311, 0.0, -0.011134209512147789, 0.0, 0.026022969344192716, 0.0, -0.08423287671029668]
[16.400000000000098, 0.20567587407834825, -0.10774318128824234, -0.05362468957901001, 0.0, -0.011110328739937409, 0.0, 0.026031429047228067, 0.0, -0.08422020669681299]
[16.4500000000001, 0.2058649907889962, -0.10426736623048782, -0.05094875395298004, 0.0, -0.011081279593045928, 0.0, 0.02600060948307226, 0.0, -0.08422680649786449]
[16.5000000000001, 0.20634229483723637, -0.1035410463809967, -0.04927555099129677, 0.0, -0.011061906018136156, 0.0, 0.026013730311251693, 0.0, -0.08422553578129072]
[16.5500000000001, 0.20657805709473787, -0.10205278545618057, -0.04806112125515938, 0.0, -0.011065291494882688, 0.0, 0.026004478685655953, 0.0, -0.08428399402748152]
[16.6000000000001, 0.20679081042878328, -0.10143813490867615, -0.046375811100006104, 0.0, -0.011074007385072075, 0.0, 0.026021019790662656, 0.0, -0.08426101157807456]
[16.6500000000001, 0.2070232134604454, -0.10135060548782349, -0.045756321400403976, 0.0, -0.011032560687152398, 0.0, 0.026042645093608263, 0.0, -0.08426042314601317]
[16.700000000000102, 0.20710264492727815, -0.10153894126415253, -0.04522227868437767, 0.0, -0.011025665651208801, 0.0, 0.026050820784442284, 0.0, -0.08425599151207966]
[16.750000000000103, 0.2071596928370744, -0.10191632062196732, -0.04496075212955475, 0.0, -0.010957136038035763, 0.0, 0.02603398487340455, 0.0, -0.08426671064111614]
[16.800000000000104, 0.2071752771556377, -0.10199277848005295, -0.04483788087964058, 0.0, -0.010981184073113983, 0.0, 0.026011908621444438, 0.0, -0.0842706084791814]
[16.850000000000104, 0.20718696758083996, -0.10084360092878342, -0.04355953261256218, 0.0, -0.01081232947847727, 0.0, 0.02596609364518232, 0.0, -0.08441086874462861]
[16.900000000000105, 0.20739283627577124, -0.09993380308151245, -0.04306620731949806, 0.0, -0.010833083108872741, 0.0, 0.025908546248701297, 0.0, -0.08444767278978725]
[16.950000000000106, 0.20749248373679813, -0.09951082617044449, -0.04230209067463875, 0.0, -0.010859015638677276, 0.0, 0.025897690410934173, 0.0, -0.08445056439638944]
[17.000000000000107, 0.20760410573892293, -0.09913299977779388, -0.04113154858350754, 0.0, -0.010868229525400104, 0.0, 0.025855127483034923, 0.0, -0.08443119176360292]
[17.050000000000107, 0.20776339636757968, -0.09899071604013443, -0.04055138677358627, 0.0, -0.01084737399237968, 0.0, 0.025793233391223327, 0.0, -0.08442844162806133]
[17.100000000000108, 0.2078403978560865, -0.09909751266241074, -0.040632765740156174, 0.0, -0.010825186373177037, 0.0, 0.025778051137358277, 0.0, -0.08441278909766113]
[17.15000000000011, 0.2078258350545913, -0.09877026826143265, -0.03958027437329292, 0.0, -0.010824589819467365, 0.0, 0.02587454744916313, 0.0, -0.08449097740763854]
[17.20000000000011, 0.20796852047793565, -0.09792294353246689, -0.03806144744157791, 0.0, -0.010754386716996264, 0.0, 0.025934580898596855, 0.0, -0.08449420705997872]
[17.25000000000011, 0.20819067535355684, -0.09706998616456985, -0.03715432435274124, 0.0, -0.010786808449699665, 0.0, 0.02589351274343391, 0.0, -0.08452637422992682]
[17.30000000000011, 0.20833838519588108, -0.09626542031764984, -0.036235593259334564, 0.0, -0.01075473422720954, 0.0, 0.025901602970362533, 0.0, -0.08447401908085096]
[17.35000000000011, 0.20848541605487464, -0.0959821566939354, -0.03501860052347183, 0.0, -0.01069630413747896, 0.0, 0.025839002891133354, 0.0, -0.08447574851938158]
[17.400000000000112, 0.20864628184810283, -0.09567641466856003, -0.034619323909282684, 0.0, -0.010689979125662255, 0.0, 0.025874583807890476, 0.0, -0.0844655813144926]
[17.450000000000113, 0.20870827826723456, -0.09442748129367828, -0.03436113893985748, 0.0, -0.010590491597151717, 0.0, 0.02593450066062928, 0.0, -0.08445837863679378]
[17.500000000000114, 0.20879390644580123, -0.09395107626914978, -0.03396435081958771, 0.0, -0.01056975637160736, 0.0, 0.02593102765520478, 0.0, -0.08448061197647456]
[17.550000000000114, 0.20886299214094872, -0.09314403682947159, -0.03311736136674881, 0.0, -0.010654954986307598, 0.0, 0.025865969907439876, 0.0, -0.08451409277846222]
[17.600000000000115, 0.20900137050166723, -0.0927405133843422, -0.033068906515836716, 0.0, -0.010640569136969523, 0.0, 0.02586715693556776, 0.0, -0.08455255295727865]
[17.650000000000116, 0.2090247674746066, -0.09085309505462646, -0.03208297863602638, 0.0, -0.010637455528079775, 0.0, 0.025937039908468996, 0.0, -0.08445116451926887]
[17.700000000000117, 0.20922691223077475, -0.08949404954910278, -0.03145034611225128, 0.0, -0.010650843104614472, 0.0, 0.02589478268681729, 0.0, -0.08440063870798202]
[17.750000000000117, 0.20936303051322697, -0.08877149224281311, -0.030837122350931168, 0.0, -0.010673763175288589, 0.0, 0.02590027237660938, 0.0, -0.0844337088393389]
[17.800000000000118, 0.20946920631699265, -0.08760175108909607, -0.02979295514523983, 0.0, -0.010645255048606016, 0.0, 0.02581780483214497, 0.0, -0.08447562857850388]
[17.85000000000012, 0.20964737231958655, -0.08689206093549728, -0.028555888682603836, 0.0, -0.010603066389052396, 0.0, 0.025855944752935962, 0.0, -0.08453123881670321]
[17.90000000000012, 0.2098291619121283, -0.08628854900598526, -0.02781299315392971, 0.0, -0.010578081273043941, 0.0, 0.025836231694885924, 0.0, -0.08453914640422121]
[17.95000000000012, 0.20994601359296589, -0.08517798781394958, -0.02656545303761959, 0.0, -0.010608035556423418, 0.0, 0.025793705960584768, 0.0, -0.08449356437655099]
