time, uz, alt, vel_alt, uthe, roll, uphi, pitch, upsi, yaw, F
[0.0, 0.0, -0.018111931160092354, 0.004826290532946587, 0.0, -0.015919000885897254, 0.0, 0.01311321198987104, 0.0, -0.08590501437246374, array([[-58.16996314]])]
[0.05, 58.17268038021096, -0.01795841194689274, 0.004649206064641476, 0.0, -0.015922386318110868, 0.0, 0.013120672218669832, 0.0, -0.08585658595876683, array([[-149.80296543]])]
[0.1, 149.8056759345385, -0.017689798027276993, 0.0047517078928649426, 0.0, -0.015938551672687748, 0.0, 0.013117602394732666, 0.0, -0.08586696415757279, array([[-328.47776708]])]
[0.15000000000000002, 328.4806925350578, -0.013788006268441677, 0.6744425892829895, 0.0, -0.01544999807311607, 0.0, 0.01253052746650887, 0.0, -0.08535247594129469, array([[-191.52722766]])]
[0.2, 191.4911509470244, 0.02851923741400242, 1.1364372968673706, 0.0, -0.010958732450926243, 0.0, 0.007261995557022164, 0.0, -0.07733846622888264, array([[-0.00081748]])]
[0.25, -0.30994372262324277, 0.1391821801662445, 2.050187349319458, 0.0, -0.0064023195422818705, 0.0, 0.004092391264714712, 0.0, -0.05949503836239212, array([[ -1.62989811e-17]])]
[0.3, -0.2706862706353548, 0.21724601089954376, 1.8093717098236084, 0.0, -0.0050007243607726876, 0.0, 0.0031493338370418788, 0.0, -0.055091059719666546, array([[ -6.28150898e-13]])]
[0.35, -0.19381228446478535, 0.3092972934246063, 1.2485135793685913, 0.0, 0.0008031495237253351, 0.0, -0.0006734562577554566, 0.0, -0.03761796482325095, array([[ -8.04744104e-10]])]
[0.39999999999999997, 0.24740122625122163, 0.3444114029407501, 0.9416565895080566, 0.0, 0.002278283118615841, 0.0, -0.0015743442623061732, 0.0, -0.033264134762779916, array([[-0.13513089]])]
[0.44999999999999996, 0.8358412820183974, 0.3899209499359131, 0.49229592084884644, 0.0, 0.006793534325217791, 0.0, -0.004190139587658209, 0.0, -0.016809913884611838, array([[-15.17400378]])]
[0.49999999999999994, 16.163389707093874, 0.40882590413093567, 0.7104302048683167, 0.0, 0.006638856481958613, 0.0, -0.003914157797560248, 0.0, -0.013617274413630675, array([[-17.50987385]])]
[0.5499999999999999, 18.474181807256713, 0.4850473701953888, 1.5954314470291138, 0.0, 0.0044013864486016395, 0.0, -0.0017617353835220747, 0.0, -0.006909333923595988, array([[ -1.02877823e-08]])]
[0.6, 0.7953069223786201, 0.543860673904419, 2.0646603107452393, 0.0, 0.0038851027609592983, 0.0, -0.0014487691953104836, 0.0, -0.006324612791156491, array([[ -4.94189373e-17]])]
[0.65, 0.3122013650294543, 0.7096893191337585, 2.7334413528442383, 0.0, 0.0017169275426479247, 0.0, -0.0003016024209188029, 0.0, -0.005267526830691377, array([[ -3.41046358e-25]])]
[0.7000000000000001, 0.08095812695312499, 0.7962632179260254, 2.667750835418701, 0.0, 0.0012351191982667127, 0.0, -0.00015661051711614706, 0.0, -0.005055111586437869, array([[ -2.72301059e-31]])]
[0.7500000000000001, 0.008823666103363041, 0.9613401293754578, 2.1634457111358643, 0.0, -8.7631277524266e-05, 0.0, 0.0002645456651241725, 0.0, -0.004335576754154328, array([[ -2.92753495e-19]])]
[0.8000000000000002, 0.1864333733501434, 1.0400601625442505, 1.792466640472412, 0.0, -0.00030429500203935615, 0.0, 0.00038625946311843565, 0.0, -0.004171082650104092, array([[ -3.59052390e-12]])]
[0.8500000000000002, 0.5605740533080243, 1.131238579750061, 1.3039337396621704, 0.0, -0.0010891327161603966, 0.0, 0.000719080603913919, 0.0, -0.0034167331849727367, array([[ -3.13762751e-09]])]
[0.9000000000000002, 0.7690544575976522, 1.171512246131897, 1.2393677234649658, 0.0, -0.0011054657157063964, 0.0, 0.0007313056786200971, 0.0, -0.0031896582994853625, array([[-0.00021332]])]
[0.9500000000000003, 0.907365146728641, 1.2608015537261963, 1.49639093875885, 0.0, -0.0006973841540435775, 0.0, 0.0005466055262862154, 0.0, -0.0025762067690142483, array([[ -9.11228805e-08]])]
[1.0000000000000002, 0.7610148877129703, 1.3138490915298462, 1.8262660503387451, 0.0, -0.0007464321925242211, 0.0, 0.0005457568083201368, 0.0, -0.0024051879628240683, array([[ -4.39599727e-13]])]
[1.0500000000000003, 0.38911937848206607, 1.4554775953292847, 2.3190040588378906, 0.0, -0.00035170293608787384, 0.0, 0.0004424442721669965, 0.0, -0.0018839579876957708, array([[ -5.93282627e-18]])]
[1.1000000000000003, 0.1252172538189888, 1.529348611831665, 2.2997162342071533, 0.0, -0.00034655486190121886, 0.0, 0.0004321124796254237, 0.0, -0.0017853313181513313, array([[ -5.24837823e-23]])]
[1.1500000000000004, -0.07626468213510512, 1.671252965927124, 1.834930419921875, 0.0, -0.00042038785017319496, 0.0, 0.0005595802630430656, 0.0, -0.001429570277013628, array([[ -7.58608503e-14]])]
[1.2000000000000004, -0.14601594271986051, 1.7251501083374023, 1.5368688106536865, 0.0, -0.0004151654147239231, 0.0, 0.0005356217572384149, 0.0, -0.0013600215001452274, array([[ -3.72843871e-09]])]
[1.2500000000000004, 0.05967514604787955, 1.807579517364502, 0.8876721262931824, 0.0, -0.0004655501336963861, 0.0, 0.0006556790433929942, 0.0, 0.006775135179046357, array([[ -9.62930751e-06]])]
[1.3000000000000005, 0.21218761124372468, 1.8312785625457764, 0.5892592668533325, 0.0, -0.0005173621646822168, 0.0, 0.0006522178700857167, 0.0, 0.0066692456635049704, array([[-1.80280914]])]
[1.3500000000000005, 2.3766858372416335, 1.8529361486434937, 0.160225510597229, 0.0, -0.0004596059535218586, 0.0, 0.0006896207973949844, 0.0, 0.005839886047893092, array([[-14.15272707]])]
[1.4000000000000006, 14.861736134587353, 1.863924503326416, 0.5678651928901672, 0.0, -0.00037205310148479047, 0.0, 0.0006542175271676777, 0.0, 0.005356833509783436, array([[-2.21932443]])]
[1.4500000000000006, 2.7523280830533117, 1.9399659633636475, 1.6252033710479736, 0.0, -0.0003668999442041413, 0.0, 0.0004720736585826347, 0.0, 0.003398721069211664, array([[-0.00303679]])]
[1.5000000000000007, 0.2005166049854669, 2.0001440048217773, 2.101919412612915, 0.0, -0.0003931351762870549, 0.0, 0.0004586089897836394, 0.0, 0.0029519606817576716, array([[ -1.19339888e-19]])]
[1.5500000000000007, -0.3737966776605248, 2.1576662063598633, 2.1996653079986572, 0.0, -0.00015866708451991099, 0.0, 0.0005031460374748764, 0.0, 0.0012561048247557859, array([[ -3.79444397e-22]])]
[1.6000000000000008, -0.6091948205823451, 2.224055051803589, 1.9216266870498657, 0.0, -0.00015530769919026063, 0.0, 0.00048532389323797053, 0.0, 0.0008317725513322993, array([[ -9.92345448e-17]])]
[1.6500000000000008, -0.43943764617106307, 2.3337631225585938, 1.2752043008804321, 0.0, -0.00029222581963693765, 0.0, 0.0005753364353369535, 0.0, -0.0007080668377532958, array([[ -1.19292711e-10]])]
[1.7000000000000008, -0.09178978107014897, 2.3700995445251465, 0.9684389233589172, 0.0, -0.0003520842348013842, 0.0, 0.0006138403626444563, 0.0, -0.0010246137560060095, array([[-0.00027015]])]
[1.7500000000000009, 0.26313321023286, 2.4148616790771484, 0.31891146302223206, 0.0, -0.0005515180635542086, 0.0, 0.0007389942191748283, 0.0, -0.0022453671084857493, array([[-0.27826767]])]
[1.800000000000001, 0.735253754427307, 2.4215211868286133, 0.07369519770145416, 0.0, -0.0006086612078947531, 0.0, 0.0007219315995162891, 0.0, -0.0025607258498659556, array([[-0.27208123]])]
[1.850000000000001, 0.8945076301023162, 2.4240870475769043, 0.1700190156698227, 0.0, -0.0006866265584833824, 0.0, 0.0007190273258840006, 0.0, -0.0029632558503808097, array([[-0.31764157]])]
[1.900000000000001, 0.7443518900062007, 2.4345736503601074, 0.5004167556762695, 0.0, -0.0006840991144684429, 0.0, 0.0006386662479992218, 0.0, -0.0029280768948336516, array([[-0.08930235]])]
[1.950000000000001, 0.29663535686173204, 2.4899845123291016, 1.0245014429092407, 0.0, -0.0006263997301771483, 0.0, 0.0005342962280282318, 0.0, -0.0023668821043134913, array([[ -3.56587841e-05]])]
[2.000000000000001, -0.1228124276499371, 2.5214827060699463, 0.9270200729370117, 0.0, -0.0005070287815499046, 0.0, 0.0005431844303101788, 0.0, -0.002159321317428057, array([[-0.00018195]])]
[2.0500000000000007, -0.21343470870788647, 2.567707061767578, 0.39005452394485474, 0.0, -0.0002402185944475408, 0.0, 0.0006755988856268604, 0.0, -0.001473788044031122, array([[-0.06171456]])]
[2.1000000000000005, -0.05263458927670132, 2.575211763381958, 0.08645118027925491, 0.0, -0.00021005793686229104, 0.0, 0.000666443316306573, 0.0, -0.001228987930081349, array([[-0.08125376]])]
[2.1500000000000004, 0.32571515953525604, 2.559004783630371, -0.5642472505569458, 0.0, -4.7506498692445014e-05, 0.0, 0.000801432257876341, 0.0, -0.000680269214338557, array([[-0.01764123]])]
[2.2, 0.5228093855530621, 2.537125825881958, -0.79622483253479, 0.0, -2.608092519416704e-05, 0.0, 0.0008415462119548936, 0.0, -0.0006114774953045028, array([[ -1.45488870e-06]])]
[2.25, 0.8545286739959125, 2.4753170013427734, -0.9333584308624268, 0.0, -9.423280142840598e-05, 0.0, 0.0007961437549109593, 0.0, -0.00024499499794305936, array([[ -9.17127382e-08]])]
[2.3, 0.8693872495023857, 2.4498085975646973, -0.6687173247337341, 0.0, -7.712281619740502e-05, 0.0, 0.0007318967788690529, 0.0, -0.00024009667504542966, array([[ -4.52511736e-05]])]
[2.3499999999999996, 0.6821447505070111, 2.4285805225372314, 0.030523482710123062, 0.0, -0.00022590676717328267, 0.0, 0.0005672425308003969, 0.0, -0.00014049737337629403, array([[-0.22765589]])]
[2.3999999999999995, 0.6542275523075263, 2.4336745738983154, 0.2472459226846695, 0.0, -0.00021320318545005573, 0.0, 0.0005694619574844509, 0.0, -0.00015516111041735255, array([[-0.28279315]])]
[2.4499999999999993, 0.37210144025699177, 2.4599502086639404, 0.46984267234802246, 0.0, -0.00015002566764569912, 0.0, 0.00044884212559765437, 0.0, -0.00020722757900479153, array([[-0.09301868]])]
[2.499999999999999, -0.020671241054302222, 2.4745519161224365, 0.398038387298584, 0.0, -0.00014118552830245728, 0.0, 0.00038275712720125133, 0.0, -0.00020266907029914898, array([[-0.12580776]])]
[2.549999999999999, -0.09319018816639951, 2.4880974292755127, -0.10302507132291794, 0.0, -0.0002932295497739534, 0.0, 0.000140664666518689, 0.0, -0.00010387045993357473, array([[-0.19099843]])]
[2.5999999999999988, -0.07736429075487966, 2.4803991317749023, -0.40607213973999023, 0.0, -0.0004192546467634732, 0.0, 0.0001589254307128918, 0.0, -9.157627158191802e-05, array([[-0.00289018]])]
[2.6499999999999986, -0.03937819490801846, 2.431753158569336, -1.0574501752853394, 0.0, -0.0007097643995888997, 0.0, 0.0002819748314135488, 0.0, -8.338224188812807e-05, array([[ -3.63863608e-05]])]
[2.6999999999999984, 0.04410985306966458, 2.393390655517578, -1.3647618293762207, 0.0, -0.0007918832906962318, 0.0, 0.0003309245580704388, 0.0, -0.00011561339359008986, array([[ -1.17308096e-12]])]
[2.7499999999999982, 0.3161957751455116, 2.351954221725464, -1.6317875385284424, 0.0, -0.0009332136142054012, 0.0, 0.0003992438445501911, 0.0, -0.00018495809199519828, array([[ -1.68715461e-16]])]
[2.799999999999998, 0.37863855128020063, 2.2138328552246094, -2.1956043243408203, 0.0, -0.0010542651898283568, 0.0, 0.0005286850406195853, 0.0, -0.00033256449945822937, array([[ -1.27389831e-26]])]
[2.849999999999998, 0.5603061786651908, 2.053107976913452, -2.5349977016448975, 0.0, -0.0007791953692120933, 0.0, 0.0004805356419932594, 0.0, -0.0004305908695820913, array([[ -4.70277829e-30]])]
[2.8999999999999977, 0.5125042253726124, 1.9510082006454468, -2.5940208435058594, 0.0, -0.0007194459371538137, 0.0, 0.0004218663804803343, 0.0, -0.0004772541195109361, array([[ -5.34516594e-35]])]
[2.9499999999999975, 0.5411625074864626, 1.7931541204452515, -2.7079787254333496, 0.0, -0.0004483818634576424, 0.0, 0.0004327223064213457, 0.0, -0.0006964472566451682, array([[ -1.32582985e-35]])]
[2.9999999999999973, 0.4418208206989467, 1.6843326091766357, -2.7822883129119873, 0.0, -0.00035341763546702516, 0.0, 0.0004611646947285727, 0.0, -0.0007217198435222289, array([[ -5.03507107e-39]])]
[3.049999999999997, 0.4692404994916767, 1.513479232788086, -2.9884719848632812, 0.0, -0.0002629935930105646, 0.0, 0.0004646024150938844, 0.0, -0.0008258864454591129, array([[ -2.11973731e-44]])]
[3.099999999999997, 0.43333007344186303, 1.4169151782989502, -3.1020243167877197, 0.0, -0.0002741489152934118, 0.0, 0.00039438385785622724, 0.0, -0.0008778043227040537, array([[ -1.33896156e-47]])]
[3.149999999999997, 0.5468313879844695, 1.198936104774475, -3.3701562881469727, 0.0, -0.00040972870052137663, 0.0, 0.0004699620462573175, 0.0, -0.000944607218974138, array([[ -1.17697328e-50]])]
[3.1999999999999966, 0.5888480114021449, 1.0905624628067017, -3.445375680923462, 0.0, -0.00038995778958854566, 0.0, 0.0004194947206876408, 0.0, -0.0009444241457404701, array([[ -4.56192902e-58]])]
[3.2499999999999964, 0.7066917721130102, 0.8550745844841003, -3.505260705947876, 0.0, -0.0003064239189302372, 0.0, 0.00044701634666652833, 0.0, -0.0008705694940130267, array([[ -3.46840040e-59]])]
[3.2999999999999963, 0.7069789560708104, 0.7443888783454895, -3.4400835037231445, 0.0, -0.0002808089453494785, 0.0, 0.0004242918819743795, 0.0, -0.0008351572298306812, array([[ -4.97713529e-57]])]
[3.349999999999996, 0.6903490926090479, 0.6495072841644287, -3.368217706680298, 0.0, -0.00020249534298988955, 0.0, 0.0003397683469136981, 0.0, -0.0008401896793398036, array([[ -2.59030204e-54]])]
[3.399999999999996, 0.6131146966257095, 0.389354944229126, -3.171329975128174, 0.0, -0.00030984335801896503, 0.0, 0.00030086825155747427, 0.0, -0.0008810000338225785, array([[ -2.61265727e-47]])]
[3.4499999999999957, 0.5368981720236539, 0.2022176831960678, -3.1300456523895264, 0.0, -0.0003040862844795955, 0.0, 0.0003487612540772963, 0.0, -0.0007007022197312611, array([[ -1.04039890e-45]])]
[3.4999999999999956, 0.5124644189243838, 0.10216960310935974, -3.165147304534912, 0.0, -0.00025742630076861964, 0.0, 0.00035859715796255113, 0.0, -0.0006973236603934436, array([[ -9.71707971e-47]])]
[3.5499999999999954, 0.5547518763232007, 0.013309146277606487, -3.2190887928009033, 0.0, -0.00024332761611457472, 0.0, 0.00042149677600868634, 0.0, -0.0006565305809682586, array([[ -2.18769309e-48]])]
[3.599999999999995, 0.8962905602682883, -0.03563223406672478, 0.0278853140771389, 0.0, -0.022490732852329907, 0.0, 0.018046929163425676, 0.0, -0.0009268636203011112, array([[-6252.19523745]])]
[3.649999999999995, 6252.41932081378, -0.016718778759241104, 0.656843364238739, 0.0, -0.01843758687088735, 0.0, 0.010942969594875852, 0.0, -0.0006982243104330517, array([[-130.71564786]])]
[3.699999999999995, 130.94575563903135, 0.01164836622774601, 1.1115938425064087, 0.0, -0.013424637177479305, 0.0, 0.008435077772665353, 0.0, -0.0004115077104821207, array([[-0.03386553]])]
[3.7499999999999947, 0.008910415645604457, 0.1211683601140976, 2.0904057025909424, 0.0, -0.008202988470100467, 0.0, 0.004246612797960729, 0.0, 0.0003203508664603156, array([[ -4.88589687e-17]])]
[3.7999999999999945, 0.03610365759974351, 0.20403939485549927, 1.953391671180725, 0.0, -0.004818465129385753, 0.0, 0.0030402171494842683, 0.0, 0.00047938916464302506, array([[ -2.63814892e-14]])]
[3.8499999999999943, -0.009440578512385181, 0.30604496598243713, 1.4102550745010376, 0.0, 0.0038783263963484927, 0.0, -0.0006678473485178138, 0.0, 0.0007189116581818659, array([[ -1.88268208e-05]])]
[3.899999999999994, 0.14115649019479382, 0.355333149433136, 1.0289092063903809, 0.0, 0.0058576150467366545, 0.0, -0.0014762003554429682, 0.0, 0.0007250731714734692, array([[-0.33730078]])]
[3.949999999999994, 0.6748193238528757, 0.4020080864429474, 0.5351538062095642, 0.0, 0.011926620718829887, 0.0, -0.004187839077964501, 0.0, 0.0007759167032445756, array([[-12.32068025]])]
[3.999999999999994, 12.587138226493623, 0.419705867767334, 0.5613860487937927, 0.0, 0.011460708154609445, 0.0, -0.004109598729577657, 0.0, 0.0007292912315574562, array([[-628.98374042]])]
[4.049999999999994, 629.2600270234324, 0.4811606705188751, 1.3492696285247803, 0.0, 0.006704235621842449, 0.0, -0.0023223183938284203, 0.0, 0.0002688689247798822, array([[-0.00015454]])]
[4.099999999999993, 0.051363629881606414, 0.5328651070594788, 1.8313019275665283, 0.0, 0.006051269651204136, 0.0, -0.00202445376072009, 0.0, 3.399957115388067e-06, array([[ -7.36888193e-12]])]
[4.149999999999993, -0.40866700874576134, 0.6610895395278931, 1.6548938751220703, 0.0, 0.002541195622013366, 0.0, -0.0009898363720878514, 0.0, -0.0007527366996196719, array([[ -6.81536665e-09]])]
[4.199999999999993, -0.3213238984319357, 0.7097193002700806, 1.358581304550171, 0.0, 0.0015402973802326435, 0.0, -0.0006015407912848551, 0.0, -0.0009547525258363767, array([[-0.000102]])]
[4.249999999999993, 0.011337327214045696, 0.7812181115150452, 0.7089343667030334, 0.0, -0.001744230778480828, 0.0, 0.0006701614137032602, 0.0, -0.0015427384709725957, array([[-0.10325285]])]
[4.299999999999993, 0.392429919003225, 0.7994043231010437, 0.4029999375343323, 0.0, -0.002364419655264282, 0.0, 0.0009123488526230646, 0.0, -0.0016614130749918032, array([[-2497.13376852]])]
[4.3499999999999925, 2497.70881865167, 0.8111368417739868, -0.018568098545074463, 0.0, -0.003331635379199764, 0.0, 0.0013474682312998058, 0.0, -0.0019985757593755146, array([[-6833.19017567]])]
[4.399999999999992, 6833.894093053344, 0.8149305582046509, 0.29108771681785583, 0.0, -0.0026853676976154885, 0.0, 0.0010864380460683706, 0.0, -0.0021101525004918594, array([[-9163.46404764]])]
[4.449999999999992, 9163.965673185157, 0.8721387386322021, 1.3538811206817627, 0.0, -0.0012772053247476986, 0.0, 0.00060819928420013, 0.0, -0.0020129012112854307, array([[-274.89886378]])]
[4.499999999999992, 275.0785691687722, 0.9238657355308533, 1.8387305736541748, 0.0, -0.0009906064470894772, 0.0, 0.0005419513003058829, 0.0, -0.0019432387150729055, array([[ -1.85515572e-11]])]
[4.549999999999992, -0.305897302061331, 1.0835211277008057, 2.7235827445983887, 0.0, -0.00020214594405247314, 0.0, 0.00022075886403514854, 0.0, -0.0016509988725376863, array([[ -1.46003924e-31]])]
[4.599999999999992, -0.43800912371360884, 1.1895090341567993, 2.478541612625122, 0.0, -0.00017764701651007644, 0.0, 0.0001856765735213197, 0.0, -0.0015791747106489813, array([[ -2.72493947e-25]])]
[4.6499999999999915, -0.5067180926924012, 1.238163709640503, 2.2958037853240967, 0.0, -9.236087873942391e-05, 0.0, 0.0001579573955868535, 0.0, -0.0015029640353155412, array([[ -5.44459940e-21]])]
[4.699999999999991, -0.36585603481390316, 1.3818589448928833, 1.6105834245681763, 0.0, 4.7710691843843915e-05, 0.0, 0.00022750925465155438, 0.0, -0.0013583032498972086, array([[ -3.74275510e-08]])]
[4.749999999999991, -0.07133051506155272, 1.471414566040039, 0.9576733708381653, 0.0, 0.00015549582633641055, 0.0, 0.00034689537748772305, 0.0, -0.001215403871819407, array([[-1.39231549]])]
[4.799999999999991, 1.4706138576093495, 1.4980014562606812, 0.6509315967559814, 0.0, 0.00021040704567278288, 0.0, 0.00041815236077010805, 0.0, -0.0011194606428324158, array([[-131.61738056]])]
[4.849999999999991, 131.93412757846437, 1.5143907070159912, 0.5549310445785522, 0.0, 0.0003084784254143807, 0.0, 0.0004925213945797863, 0.0, -0.001022322342774105, array([[-343.69783307]])]
[4.899999999999991, 343.91379786737997, 1.59037446975708, 1.572980523109436, 0.0, 0.00041425783194738367, 0.0, 0.0003481783969936596, 0.0, -0.0009517723336141371, array([[ -6.27096437e-08]])]
[4.94999999999999, -0.23037842544388473, 1.732404112815857, 2.4123761653900146, 0.0, 0.000537220035970309, 0.0, 0.00033788278202137654, 0.0, -0.0008266618584340591, array([[ -1.52547502e-24]])]
[4.99999999999999, -0.3617458484706841, 1.8075220584869385, 2.207106590270996, 0.0, 0.0005548224066715271, 0.0, 0.00027046435826585507, 0.0, -0.0008148764705000712, array([[ -5.11306347e-20]])]
[5.04999999999999, -0.43235374911622326, 1.940181851387024, 1.5737446546554565, 0.0, 0.0005723319582856416, 0.0, 2.503983890982711e-05, 0.0, -0.0008070207277744434, array([[ -1.07323614e-08]])]
[5.09999999999999, -0.2684394730065341, 1.9869203567504883, 1.267124891281128, 0.0, 0.0005890514688005627, 0.0, -1.2770837914341053e-05, 0.0, -0.0008109091644871493, array([[ -9.23540703e-05]])]
[5.14999999999999, 0.01466193006431188, 2.0540294647216797, 0.6141355633735657, 0.0, 0.0006799875507276582, 0.0, -0.00010744192714916711, 0.0, -0.0007063334294279717, array([[-11.70746486]])]
[5.1999999999999895, 11.889690320251148, 2.070080518722534, 0.3089788556098938, 0.0, 0.0006912099989176798, 0.0, -0.00010894743347495065, 0.0, -0.0007204958927563132, array([[-79.92458908]])]
[5.249999999999989, 80.34264891268138, 2.093256950378418, 0.6606764197349548, 0.0, 0.0006752238483502981, 0.0, -5.037188509559523e-05, 0.0, -0.0006618068365328362, array([[-93.87067751]])]
[5.299999999999989, 94.21718532451591, 2.123211622238159, 1.1599597930908203, 0.0, 0.0005748751819912775, 0.0, -1.7654177952554884e-05, 0.0, -0.0006583388911981677, array([[-0.0006011]])]
[5.349999999999989, -0.13305416158457334, 2.1625916957855225, 1.5893855094909668, 0.0, 0.000640214108869108, 0.0, -1.4779021072546296e-05, 0.0, -0.0006322075015865015, array([[ -1.57905314e-09]])]
[5.399999999999989, -0.395350033289623, 2.303666830062866, 1.9136497974395752, 0.0, 0.0006054917372488993, 0.0, 0.00028844324202641637, 0.0, -0.0007597361004476855, array([[ -1.98813669e-15]])]
[5.449999999999989, -0.49594034664409403, 2.4141504764556885, 1.282728672027588, 0.0, 0.00027930698514441667, 0.0, 0.0009090668588880387, 0.0, -0.0009652045682228688, array([[ -3.41624666e-06]])]
[5.4999999999999885, -0.26309168793788834, 2.450839042663574, 0.9764540195465088, 0.0, 0.00020655623932518014, 0.0, 0.0011286203924135332, 0.0, -0.0009660579791621724, array([[-0.0031088]])]
[5.549999999999988, 0.13853747157080476, 2.475072145462036, 0.7075008749961853, 0.0, -4.60552936576746e-05, 0.0, 0.0015311448203529062, 0.0, -0.0011267051880190413, array([[-0.200438]])]
[5.599999999999988, 0.606670809696916, 2.5033133029937744, 0.0491301529109478, 0.0, -0.0003361237529032079, 0.0, 0.0020448952497900985, 0.0, -0.001178938819339665, array([[-3.23784]])]
[5.649999999999988, 3.8671813991864687, 2.5006344318389893, -0.04357621446251869, 0.0, -0.0001654002318175336, 0.0, 0.0017143900520151978, 0.0, -0.0013119207911374891, array([[-1.65879872]])]
[5.699999999999988, 2.1978905108777185, 2.5059356689453125, 0.3697410225868225, 0.0, -7.52611836723955e-05, 0.0, 0.001412679662902373, 0.0, -0.0012683365116105323, array([[-2.74420986]])]
[5.749999999999988, 3.019619080098861, 2.569237470626831, 1.4317033290863037, 0.0, 0.0001227316013655879, 0.0, 0.0008371077623021702, 0.0, -0.0012839103935180498, array([[-0.03175263]])]
[5.799999999999987, -0.020323757670722038, 2.623509168624878, 1.9107719659805298, 0.0, 0.00016549453868758754, 0.0, 0.0007493256494492072, 0.0, -0.0012234611337594951, array([[ -1.82381547e-16]])]
[5.849999999999987, -0.5768895501388123, 2.6834027767181396, 2.1634557247161865, 0.0, 0.00026744931554198355, 0.0, 0.0004421560056761347, 0.0, -0.0011518142806380685, array([[ -1.01974972e-21]])]
[5.899999999999987, -0.7978685450344271, 2.8242454528808594, 1.5922070741653442, 0.0, 0.0004072854128856456, 0.0, 0.0001583567624794796, 0.0, -0.0010126722439660948, array([[ -7.11410355e-12]])]
[5.949999999999987, -0.5102189369448621, 2.9130935668945312, 0.9420709013938904, 0.0, 0.0003730827750569842, 0.0, 2.627545824580029e-06, 0.0, -0.0006960969023418251, array([[-0.0001082]])]
[5.999999999999987, -0.23778285065863006, 2.939373254776001, 0.6346802115440369, 0.0, 0.0003383003903662958, 0.0, 5.890338309465655e-06, 0.0, -0.0006361635513166848, array([[-0.00757529]])]
[6.0499999999999865, 0.08226111012581046, 2.9542453289031982, 0.3655361831188202, 0.0, 0.0003084579573057969, 0.0, 1.0488884973161357e-05, 0.0, -0.00042618731529521183, array([[-0.05164785]])]
[6.099999999999986, 0.2536250826399768, 2.9551210403442383, -0.3852461576461792, 0.0, 0.0001317766123021303, 0.0, 7.24926213614782e-05, 0.0, -0.00025068468150444087, array([[-0.00117977]])]
[6.149999999999986, 0.41405565138501693, 2.9461891651153564, -0.5450440049171448, 0.0, 6.486021191752316e-06, 0.0, 0.0001077517022084844, 0.0, -5.192456442563297e-05, array([[-0.00010546]])]
[6.199999999999986, 0.3200516737673686, 2.8917953968048096, -0.9638558030128479, 0.0, 8.904727478453013e-06, 0.0, 0.00019894364091103126, 0.0, 0.00016791391856180372, array([[ -1.50655246e-08]])]
[6.249999999999986, 0.4001741215519866, 2.864795207977295, -1.0951889753341675, 0.0, 0.0002145893801952277, 0.0, 0.00014465517568332283, 0.0, 0.0003012811967653698, array([[ -5.45955805e-10]])]
[6.299999999999986, 0.29770740888119446, 2.77545166015625, -1.4773229360580444, 0.0, 0.0004003610347310719, 0.0, 9.84745739515125e-05, 0.0, 0.00030693305345564313, array([[ -4.88402686e-15]])]
[6.349999999999985, 0.35801907288856544, 2.6660804748535156, -1.8615392446517944, 0.0, 0.0003602002398024963, 0.0, 0.00014469052415791138, 0.0, 0.00022787191514161598, array([[ -4.93284627e-21]])]
[6.399999999999985, 0.2862148123468756, 2.604980707168579, -2.0419387817382812, 0.0, 0.0004048355021118831, 0.0, 0.00015460535905283322, 0.0, 0.0001997230574517072, array([[ -2.30326691e-24]])]
[6.449999999999985, 0.3932544229352847, 2.455660104751587, -2.4570255279541016, 0.0, 0.0003958403674278837, 0.0, 0.0002198968478784621, 0.0, 6.0650688648156746e-05, array([[ -7.10181773e-33]])]
[6.499999999999985, 0.35791670370042317, 2.3756651878356934, -2.627638578414917, 0.0, 0.00032065360344028207, 0.0, 0.00026780080291992375, 0.0, 4.1936902011728385e-05, array([[ -6.04999729e-37]])]
[6.549999999999985, 0.4885767349790334, 2.1878297328948975, -2.9944803714752197, 0.0, 0.00030135772320976023, 0.0, 0.00028521506079440083, 0.0, -2.634095062474988e-05, array([[ -1.68601418e-40]])]
[6.5999999999999845, 0.46139759040398887, 2.0912768840789795, -3.110865354537964, 0.0, 0.000256986967057845, 0.0, 0.0002661304602344813, 0.0, -5.854992191681693e-05, array([[ -1.22043317e-49]])]
[6.649999999999984, 0.5516395331932827, 1.8758444786071777, -3.347586154937744, 0.0, 0.000202894324677001, 0.0, 0.00023110521425247262, 0.0, -0.00024265810149150097, array([[ -2.36340647e-53]])]
[6.699999999999984, 0.5664571859797909, 1.7419548034667969, -3.434072971343994, 0.0, 0.00015622710268468564, 0.0, 0.00023711526404749126, 0.0, -0.00023448654613803424, array([[ -5.73006813e-59]])]
[6.749999999999984, 0.6277184733868986, 1.6739217042922974, -3.4653191566467285, 0.0, 6.781949245294887e-05, 0.0, 0.000318676149881883, 0.0, -0.0002997375832676759, array([[ -1.05648234e-59]])]
[6.799999999999984, 0.5869752062675133, 1.4256577491760254, -3.500262498855591, 0.0, 0.00016947618442632816, 0.0, 0.00026447950921966223, 0.0, -0.0004422665985025879, array([[ -3.53228885e-60]])]
[6.849999999999984, 0.596875446369186, 1.1904799938201904, -3.5275685787200928, 0.0, -6.43879367291404e-05, 0.0, 0.00024983204225472377, 0.0, -0.0004315074606429471, array([[ -2.58580484e-60]])]
[6.8999999999999835, 0.5662006850443034, 1.050728678703308, -3.5511183738708496, 0.0, 5.5378395729569337e-05, 0.0, 0.00025145514381426956, 0.0, -0.0004193541634486549, array([[ -6.87202714e-61]])]
[6.949999999999983, 0.6007130290648713, 0.8386808037757874, -3.6102817058563232, 0.0, 1.8918189197922087e-05, 0.0, 0.00032604618327399643, 0.0, -0.00048578147012135164, array([[ -3.88505302e-61]])]
[6.999999999999983, 0.6008250607139914, 0.7240520715713501, -3.6308720111846924, 0.0, -4.3491737120545985e-05, 0.0, 0.00031116025562345567, 0.0, -0.000439935553099154, array([[ -4.80353501e-63]])]
[7.049999999999983, 0.6530563397375047, 0.6239822506904602, -3.645784616470337, 0.0, -5.388450743131884e-05, 0.0, 0.000234631629429904, 0.0, -0.00042442506901453115, array([[ -2.75514870e-63]])]
[7.099999999999983, 0.6683976238505094, 0.36432814598083496, -3.644397735595703, 0.0, 9.568233106531727e-05, 0.0, 0.00024817447766427796, 0.0, -0.00045256096729995944, array([[ -6.65106508e-63]])]
[7.149999999999983, 0.6935256881195008, 0.12200850248336792, -3.559532880783081, 0.0, 0.000134038735997777, 0.0, 0.0002798855086060964, 0.0, -0.00031245796674519055, array([[ -1.51158908e-61]])]
[7.199999999999982, 0.6795072158231585, 0.010162267833948135, -3.495501756668091, 0.0, 0.0001486907038181795, 0.0, 0.0002633201079213886, 0.0, -0.00028177424359908035, array([[ -4.86911365e-57]])]
[7.249999999999982, 0.6463510570686682, -0.11223134398460388, 0.04080047085881233, 0.0, 0.00015598570692447927, 0.0, -0.0016474481546854577, 0.0, -0.0006449754775455222, array([[-20588.11417461]])]
[7.299999999999982, 20587.88195479128, -0.10829219967126846, 0.13609552383422852, 0.0, 0.00014972824806003263, 0.0, -0.0030021468222946757, 0.0, -0.0010377128127060887, array([[-26952.53840426]])]
[7.349999999999982, 26952.245885824017, -0.07537563890218735, 0.9349240064620972, 0.0, 0.0001364999045614897, 0.0, -0.0024479836622928286, 0.0, -0.002035440209340534, array([[-11.62005246]])]
[7.399999999999982, 11.797963487154608, -0.03665672987699509, 1.4279160499572754, 0.0, 0.00014252402683446493, 0.0, -0.002319266939996392, 0.0, -0.002059040476335978, array([[ -5.99946574e-05]])]
[7.4499999999999815, -0.12308323205305875, 0.011344769969582558, 1.847926139831543, 0.0, 0.00025381263370833105, 0.0, -0.0019763738636877854, 0.0, -0.001957130296748544, array([[ -1.88959078e-11]])]
[7.499999999999981, -0.05206146753197042, 0.1736813336610794, 2.1608941555023193, 0.0, 0.0004025755313086904, 0.0, -0.0011786581305745496, 0.0, -0.0015723994246054705, array([[ -1.75879642e-17]])]
[7.549999999999981, -0.05565600085634737, 0.23243410885334015, 1.9101479053497314, 0.0, 0.0005358684615701306, 0.0, -0.0007237303950471496, 0.0, -0.001311214003385736, array([[ -1.99618425e-12]])]
[7.599999999999981, 0.08727519133037272, 0.3484596908092499, 1.223228931427002, 0.0, 0.0008181447619137152, 0.0, 0.0001435063959151168, 0.0, -0.0007683626776576191, array([[-0.03562184]])]
[7.649999999999981, 0.30091222657911043, 0.41273587942123413, 0.611761748790741, 0.0, 0.0009643164193093086, 0.0, 0.0010242249871335568, 0.0, 2.603483458307945e-05, array([[-14.34845068]])]
[7.699999999999981, 14.563043144324523, 0.42989662289619446, 0.3962327241897583, 0.0, 0.0010045597314480904, 0.0, 0.001076342464389192, 0.0, 0.00022147445458086943, array([[-20220.59261477]])]
[7.7499999999999805, 20220.934458715667, 0.4409274160861969, 0.4027751684188843, 0.0, 0.000995192016100658, 0.0, 0.0009172723591306044, 0.0, 0.0005418749572403725, array([[-23837.83553771]])]
[7.79999999999998, 23838.019081006405, 0.5093090534210205, 1.4591301679611206, 0.0, 0.0008393408785931679, 0.0, 0.00031164957084141965, 0.0, 0.0009411857289788862, array([[ -6.37159163e-05]])]
[7.84999999999998, -0.2842795942271279, 0.6466895937919617, 2.457537889480591, 0.0, 0.0006171812290292279, 0.0, -0.00015447524038028285, 0.0, 0.001078405985830442, array([[ -5.56863180e-24]])]
[7.89999999999998, -0.38549914002491537, 0.7285500168800354, 2.450669288635254, 0.0, 0.0005583056040476718, 0.0, -0.00024225418244892553, 0.0, 0.0010940646554379182, array([[ -7.84407848e-24]])]
[7.94999999999998, -0.48102439833392197, 0.879112720489502, 1.8406139612197876, 0.0, 0.00027281974937367676, 0.0, -0.0004054449595670198, 0.0, 0.0012600511842354, array([[ -2.03882797e-18]])]
[7.99999999999998, -0.1436156022976339, 0.9347385764122009, 1.5342843532562256, 0.0, 0.00022409843434498906, 0.0, -0.00047275073636802106, 0.0, 0.0012915794628394926, array([[ -4.32244403e-06]])]
[8.04999999999998, 0.20544259034971682, 1.0203852653503418, 0.8861791491508484, 0.0, -3.731035803425222e-05, 0.0, -0.0007017422542054014, 0.0, 0.0014281170489365501, array([[-0.0136158]])]
[8.09999999999998, 0.2973187342408661, 1.0459606647491455, 0.6245160102844238, 0.0, -9.235287976879976e-05, 0.0, -0.000714219492231828, 0.0, 0.0014424668629061544, array([[-1993.29786027]])]
[8.14999999999998, 1993.7409289539341, 1.0619522333145142, 0.4218563139438629, 0.0, -8.343532440690305e-05, 0.0, -0.0007594491337672785, 0.0, 0.0014502205833996015, array([[-11604.35410128]])]
[8.199999999999982, 11604.723584126414, 1.0902352333068848, 0.6195603609085083, 0.0, 6.630171511717109e-05, 0.0, -0.0006779176985370444, 0.0, 0.0015756797706996002, array([[-2016.11028398]])]
[8.249999999999982, 2016.3141925440586, 1.174824833869934, 1.6676561832427979, 0.0, 0.0002071812586502851, 0.0, -0.00048222309687381463, 0.0, 0.0016793335014750172, array([[-1.74689008]])]
[8.299999999999983, 1.625804320514714, 1.2383421659469604, 2.140334367752075, 0.0, 0.000233138742059566, 0.0, -0.0003621714571014577, 0.0, 0.0016889507148162878, array([[ -3.97225199e-17]])]
[8.349999999999984, -0.5780322493268996, 1.4221820831298828, 3.0019469261169434, 0.0, 1.755951343716405e-05, 0.0, -0.00020844635999642486, 0.0, 0.0016889911028075645, array([[ -1.59600072e-26]])]
[8.399999999999984, -0.603072420275554, 1.5182040929794312, 2.822427272796631, 0.0, 3.064259624230496e-05, 0.0, -0.0001598797347631244, 0.0, 0.0016531656062696038, array([[ -1.90824196e-34]])]
[8.449999999999985, -0.5906005106662363, 1.6936469078063965, 2.1899783611297607, 0.0, -2.918606345096026e-05, 0.0, 4.038397237199024e-06, 0.0, 0.0016263627491233921, array([[ -6.11739753e-19]])]
[8.499999999999986, -0.3265678194355368, 1.760776162147522, 1.8827637434005737, 0.0, -2.4240633337649627e-05, 0.0, 4.009322070865768e-05, 0.0, 0.0016076489914623856, array([[ -5.82459553e-13]])]
[8.549999999999986, -0.05717453706930447, 1.871150255203247, 1.2282538414001465, 0.0, 0.00013409733032033257, 0.0, 0.00022442339350509487, 0.0, 0.001588698516811894, array([[-0.00143294]])]
[8.599999999999987, 0.009330739865909762, 1.9074058532714844, 0.9204020500183105, 0.0, 0.0001787588393026875, 0.0, 0.0002662943908329089, 0.0, 0.0015847454014669147, array([[-0.98394032]])]
[8.649999999999988, 1.1672453595852392, 1.9552606344223022, 0.32955700159072876, 0.0, 0.00017443180416635835, 0.0, 0.0005786780302872265, 0.0, 0.001496348073646661, array([[-445.0914001]])]
[8.699999999999989, 445.34739769722785, 1.9994810819625854, 0.6609891653060913, 0.0, 0.00015552799792476531, 0.0, 0.0003061850299119562, 0.0, 0.0014359670193812833, array([[-31.94203089]])]
[8.74999999999999, 32.03767925183798, 2.0581910610198975, 1.6988496780395508, 0.0, 7.761480960061727e-06, 0.0, 0.0002530901749506293, 0.0, 0.0015031263102948979, array([[ -1.66244784e-10]])]
[8.79999999999999, -0.035406424580104665, 2.1222565174102783, 2.1702849864959717, 0.0, 0.0001273352071488188, 0.0, 0.00017346715257132516, 0.0, 0.0015135044302028028, array([[ -1.44272094e-19]])]
[8.84999999999999, -0.42599231891138845, 2.284437894821167, 2.1402182579040527, 0.0, 0.00029077948043832797, 0.0, -1.8267102060135716e-05, 0.0, 0.0014742098802693103, array([[ -2.31410239e-25]])]
[8.899999999999991, -0.4765823150686621, 2.350207567214966, 1.842879056930542, 0.0, 0.00031017808798765187, 0.0, -3.224691988646708e-05, 0.0, 0.0015171973062057184, array([[ -7.83390041e-14]])]
[8.949999999999992, -0.2506629439746103, 2.400036573410034, 1.5752487182617188, 0.0, 0.0002721560486645638, 0.0, -0.00013883065553201894, 0.0, 0.001553766997800779, array([[ -1.32537341e-09]])]
[8.999999999999993, -0.08738798394275749, 2.5009801387786865, 0.8060518503189087, 0.0, 0.00030844100234659564, 0.0, -0.0002332365379722535, 0.0, 0.0014632183890623148, array([[-0.11387907]])]
[9.049999999999994, 0.2916926786699193, 2.5383458137512207, 0.23105403780937195, 0.0, 0.00025199386249683957, 0.0, -0.00021172546643450954, 0.0, 0.0014067509213656214, array([[-8.89059081]])]
[9.099999999999994, 9.01457302400721, 2.5445899963378906, -0.011458689346909523, 0.0, 0.00022228016875212015, 0.0, -0.00016238311955742445, 0.0, 0.0014000160568733017, array([[-5.17501543]])]
[9.149999999999995, 5.489471652016518, 2.5528366565704346, 0.3958474397659302, 0.0, 7.006765914604516e-05, 0.0, -0.0001736421751368576, 0.0, 0.0012857256847749272, array([[-2.64227862]])]
[9.199999999999996, 3.0331967186687114, 2.576371192932129, 0.9055989384651184, 0.0, 8.063366363248093e-05, 0.0, -0.00012236371225525083, 0.0, 0.0013277051959474924, array([[-0.01195953]])]
[9.249999999999996, 0.04319166817639662, 2.6790385246276855, 1.8987112045288086, 0.0, 2.9470202992008626e-05, 0.0, -1.145409487877732e-05, 0.0, 0.0011755598128124318, array([[ -3.84882592e-07]])]
[9.299999999999997, -0.17887072276958021, 2.741089344024658, 1.7844305038452148, 0.0, 3.4692743409476894e-05, 0.0, 8.816692177494542e-05, 0.0, 0.0011426026322233084, array([[ -3.37463582e-14]])]
[9.349999999999998, -0.4051501944641282, 2.847421884536743, 1.1700397729873657, 0.0, -8.282753257345392e-05, 0.0, 0.00026818171381190405, 0.0, 0.0011639162486930081, array([[ -4.27979356e-06]])]
[9.399999999999999, -0.25551985405398625, 2.882047414779663, 0.8633680939674377, 0.0, -0.00010402993181478542, 0.0, 0.0003174337456211523, 0.0, 0.001197965589960441, array([[-0.00160785]])]
[9.45, 0.01694108054433086, 2.9249274730682373, 0.21178443729877472, 0.0, -0.0002484878401054512, 0.0, 0.0006465081830950816, 0.0, 0.0011318155282414829, array([[-0.11433704]])]
[9.5, 0.24532544623741076, 2.929497241973877, -0.09309239685535431, 0.0, -0.0002712320988740274, 0.0, 0.0007522163690601019, 0.0, 0.001164246958096017, array([[-0.09594894]])]
[9.55, 0.3668075087003948, 2.909315347671509, -0.6338735222816467, 0.0, -0.0003574771131331736, 0.0, 0.0008170380179633294, 0.0, 0.0012200053548172515, array([[-0.00789588]])]
[9.600000000000001, 0.2995804148065671, 2.8887460231781006, -0.806774914264679, 0.0, -0.0003440923348096748, 0.0, 0.0007733346332050093, 0.0, 0.001276663696983528, array([[ -2.52255120e-06]])]
[9.650000000000002, 0.470733277891228, 2.826639175415039, -1.1893094778060913, 0.0, -0.00016098636578438686, 0.0, 0.00024139955576750935, 0.0, 0.0012902641955112848, array([[ -7.96980881e-08]])]
[9.700000000000003, 0.44099463123854105, 2.7890233993530273, -1.3009287118911743, 0.0, -0.00011800910650675781, 0.0, 0.00013165722045474854, 0.0, 0.0012622903581229257, array([[ -6.88197162e-12]])]
[9.750000000000004, 0.5660778942292904, 2.6986401081085205, -1.5131593942642212, 0.0, -0.00011873480089580834, 0.0, -4.148105944739357e-05, 0.0, 0.0011962143461401497, array([[ -1.41310424e-14]])]
[9.800000000000004, 0.6380238300316773, 2.6519227027893066, -1.5431127548217773, 0.0, -8.11734031300842e-05, 0.0, -8.66003401616243e-05, 0.0, 0.0011255772939014299, array([[ -7.12392520e-15]])]
[9.850000000000005, 0.7472960297112535, 2.61179256439209, -1.539129614830017, 0.0, -2.116685992265529e-05, 0.0, -0.0001341607696572955, 0.0, 0.001094723710927899, array([[ -1.45484954e-14]])]
[9.900000000000006, 0.7237241342679407, 2.514514923095703, -1.3178415298461914, 0.0, -0.00010532505020569179, 0.0, -4.849749782696072e-05, 0.0, 0.0011889651811110688, array([[ -7.48344912e-11]])]
[9.950000000000006, 0.573299403627605, 2.443925619125366, -1.1734403371810913, 0.0, -7.213318066878117e-05, 0.0, 9.231913184977205e-05, 0.0, 0.001085193729370946, array([[ -9.69020408e-09]])]
[10.000000000000007, 0.3962278424396304, 2.4169278144836426, -0.9003340601921082, 0.0, -1.7707142969278375e-05, 0.0, 7.472345151367646e-05, 0.0, 0.0011001164252367503, array([[ -2.52569738e-05]])]
[10.050000000000008, 0.23784384709023998, 2.3840062618255615, -0.9618027806282043, 0.0, -4.4866092404487376e-05, 0.0, 9.981704367649284e-05, 0.0, 0.0010433009039747354, array([[ -7.95243024e-06]])]
[10.100000000000009, 0.20986849682905623, 2.323505401611328, -1.2550002336502075, 0.0, -0.00013313336959399878, 0.0, 0.0001973380594593811, 0.0, 0.0010094038598047702, array([[ -3.57847329e-09]])]
[10.15000000000001, 0.34151851937233324, 2.288130044937134, -1.4525867700576782, 0.0, -0.00020614865153277648, 0.0, 0.0001253556929332003, 0.0, 0.0010143774448908218, array([[ -9.42355013e-12]])]
[10.20000000000001, 0.41389871227780584, 2.1702733039855957, -1.9456664323806763, 0.0, -0.00020423818389816629, 0.0, 1.2981443634705662e-05, 0.0, 0.0009387775647653011, array([[ -1.04054158e-19]])]
[10.25000000000001, 0.5847891735609323, 2.1179351806640625, -2.0910873413085938, 0.0, -0.00023956032774293781, 0.0, 1.536164581180704e-05, 0.0, 0.0008969673830053095, array([[ -2.46654023e-22]])]
[10.300000000000011, 0.5301707304239869, 1.9668254852294922, -2.2877249717712402, 0.0, -0.0002789903273992015, 0.0, 0.00013849939420051247, 0.0, 0.0008260588779784957, array([[ -4.85039670e-26]])]
[10.350000000000012, 0.513400611995697, 1.906029462814331, -2.309089422225952, 0.0, -0.0004199629770793345, 0.0, 0.00023130878989050189, 0.0, 0.0008958248723130882, array([[ -3.28535882e-26]])]
[10.400000000000013, 0.41862501426182686, 1.743324875831604, -2.4333255290985107, 0.0, -0.0003134529620797435, 0.0, 0.00033353307164005197, 0.0, 0.000834371034387129, array([[ -1.41783392e-28]])]
[10.450000000000014, 0.40545969149579103, 1.5778021812438965, -2.669095993041992, 0.0, -0.00016666431985062712, 0.0, 0.00024056710078473797, 0.0, 0.0008484803423829871, array([[ -4.00427243e-30]])]
[10.500000000000014, 0.33965604582193487, 1.4928193092346191, -2.815464735031128, 0.0, -0.00011913155869127449, 0.0, 0.00025232008322702125, 0.0, 0.0007926828692078011, array([[ -9.64747844e-38]])]
[10.550000000000015, 0.4417675169914215, 1.2947651147842407, -3.1848959922790527, 0.0, -0.00012112535453405735, 0.0, 0.00022772948164053377, 0.0, 0.0006884971099511353, array([[ -1.31209087e-41]])]
[10.600000000000016, 0.474575316280365, 1.1926676034927368, -3.3261003494262695, 0.0, -0.00015383704105003727, 0.0, 0.00019031593703319348, 0.0, 0.0006679286029779837, array([[ -1.03749253e-52]])]
[10.650000000000016, 0.6341582559387684, 0.964644193649292, -3.5629923343658447, 0.0, -0.0003230062692731534, 0.0, 0.0002066964822960176, 0.0, 0.0006561087431761793, array([[ -1.30003423e-57]])]
[10.700000000000017, 0.6909064852192848, 0.8254990577697754, -3.565551519393921, 0.0, -0.00032769301202343893, 0.0, 0.00023580079575304713, 0.0, 0.0006581265387141218, array([[ -3.42122775e-60]])]
[10.750000000000018, 0.7280970104052572, 0.6196093559265137, -3.453796148300171, 0.0, -0.0003374641234168012, 0.0, 0.00028649749339230176, 0.0, 0.0006872825068435501, array([[ -4.69576265e-59]])]
[10.800000000000018, 0.665779439065948, 0.5133228302001953, -3.3517069816589355, 0.0, -0.00029963262946939364, 0.0, 0.0003194764703144637, 0.0, 0.000677167741877707, array([[ -5.37030050e-52]])]
[10.85000000000002, 0.5804804109864681, 0.42330414056777954, -3.2643256187438965, 0.0, -0.00029165892289199815, 0.0, 0.00031168826162305863, 0.0, 0.0006771701513338771, array([[ -7.96230072e-49]])]
[10.90000000000002, 0.5015000617159158, 0.19792485237121582, -3.1945126056671143, 0.0, -0.0004395930512761734, 0.0, 0.000214817135395076, 0.0, 0.0006433665892389737, array([[ -2.75013361e-46]])]
[10.95000000000002, 0.4921346069739758, -0.017479153349995613, -3.3259918689727783, 0.0, -0.000201696264783844, 0.0, 0.00025170474786893, 0.0, 0.0006721325422947078, array([[ -2.30367819e-50]])]
[11.000000000000021, 0.5424571129620988, -0.12324398756027222, -3.418532133102417, 0.0, -0.0002049400828545512, 0.0, 0.00019953888127594523, 0.0, 0.0006918622026377936, array([[ -1.50689605e-53]])]
[11.050000000000022, 0.666770580285251, -0.21692019701004028, -3.494657278060913, 0.0, -0.0001481024425863422, 0.0, 0.0002065844875658196, 0.0, 0.0006630389099951421, array([[ -4.09049141e-56]])]
[11.100000000000023, 1.1389179890065788, -0.2596583962440491, -0.06918341666460037, 0.0, -0.0002777035010613366, 0.0, 0.000181835620753785, 0.0, 0.0007532232056684123, array([[-46654.33362959]])]
[11.150000000000023, 46654.18005774787, -0.23495982587337494, 0.7534624934196472, 0.0, -0.00028895918647315726, 0.0, -9.61913851922635e-06, 0.0, 0.0009681988163114258, array([[-31481.19100671]])]
[11.200000000000024, 31481.000917470355, -0.19999776780605316, 1.253731369972229, 0.0, -0.0002680777063565023, 0.0, 0.0001014714670736701, 0.0, 0.000963631966383835, array([[-0.01388216]])]
[11.250000000000025, -0.4222244980300195, -0.07294732332229614, 2.171473503112793, 0.0, -0.0003037427551416922, 0.0, 0.00017039674291384986, 0.0, 0.0009186068603099181, array([[ -1.53310939e-17]])]
[11.300000000000026, -0.36776008634763957, -0.0024095261469483376, 1.9977610111236572, 0.0, -0.00020966583263758566, 0.0, 0.00021437572337103, 0.0, 0.0008680340518174312, array([[ -6.35604435e-14]])]
[11.350000000000026, -0.3692119822179281, 0.11932957172393799, 1.3676859140396118, 0.0, 0.00024217801193480266, 0.0, 0.0005001901848247059, 0.0, 0.0008365069238819335, array([[-0.0011905]])]
[11.400000000000027, -0.11903983833531526, 0.16114674508571625, 1.0609498023986816, 0.0, 0.00033838551314654524, 0.0, 0.0005528170686139786, 0.0, 0.0008110832636656584, array([[-3.16553031]])]
[11.450000000000028, 3.3469943784607663, 0.22017240524291992, 0.4685896635055542, 0.0, 0.0005457569288155623, 0.0, 0.000883441398962086, 0.0, 0.0007110898912513348, array([[-508.53335045]])]
[11.500000000000028, 508.85832233762443, 0.2428225874900818, 0.79326331615448, 0.0, 0.0005247775930578166, 0.0, 0.0008950689472229726, 0.0, 0.0007331686240949528, array([[-507.39765533]])]
[11.55000000000003, 507.72522984603455, 0.3396236300468445, 1.8207048177719116, 0.0, -2.1157302537356787e-05, 0.0, 0.0006377259089673174, 0.0, 0.0005985628138715521, array([[-0.00055536]])]
[11.60000000000003, -0.04120012919391745, 0.4284957945346832, 2.4011385440826416, 0.0, 2.7601066673608917e-05, 0.0, 0.0005379539989478, 0.0, 0.0005933507751432151, array([[ -1.85433375e-22]])]
[11.65000000000003, -0.5292201928595006, 0.5771207213401794, 2.1621432304382324, 0.0, -0.00041746088048468595, 0.0, 0.0005040599939211627, 0.0, 0.0006901758857407295, array([[ -4.78766008e-17]])]
[11.700000000000031, -0.6130747210611254, 0.6445676684379578, 1.8631800413131714, 0.0, -0.00048399695184372037, 0.0, 0.000510528370644657, 0.0, 0.0007437683389040379, array([[ -3.49734494e-11]])]
[11.750000000000032, -0.37756311904549555, 0.7560655474662781, 1.2118467092514038, 0.0, -0.0009608814982787034, 0.0, 0.00039810763448182507, 0.0, 0.0008878429749553282, array([[-0.09798808]])]
[11.800000000000033, -0.027154145083235548, 0.7927692532539368, 0.9043633937835693, 0.0, -0.001065233002986721, 0.0, 0.0003936968266369829, 0.0, 0.0009604857205129375, array([[-70.92097727]])]
[11.850000000000033, 71.19366893815217, 0.817956805229187, 0.6357690691947937, 0.0, -0.0014151504266325735, 0.0, 0.00047087649370934886, 0.0, 0.0010216438752208424, array([[-3602.26877914]])]
[11.900000000000034, 3602.7985650410037, 0.8609675765037537, 0.7376019954681396, 0.0, -0.0016599019832889016, 0.0, 0.0005211569778679024, 0.0, 0.001034525925947078, array([[-908.45683696]])]
[11.950000000000035, 908.9852781878628, 0.8908007740974426, 1.1677669286727905, 0.0, -0.001159127149647726, 0.0, 0.0005517443524326456, 0.0, 0.0010329526412655643, array([[-0.24702094]])]
[12.000000000000036, 0.5252638358840993, 1.0214697122573853, 2.2400410175323486, 0.0, -0.0011887499952082058, 0.0, 0.00035185647411182543, 0.0, 0.0009437118693012283, array([[ -5.63455783e-19]])]
[12.050000000000036, -0.21951306893891093, 1.0907586812973022, 2.4317173957824707, 0.0, -0.0009658697362552688, 0.0, 0.00037171819319028765, 0.0, 0.0009391896284672868, array([[ -1.77063675e-23]])]
[12.100000000000037, -0.45187875280545653, 1.2686721086502075, 2.147675037384033, 0.0, -0.0003079065035665931, 0.0, 0.0004283697261465291, 0.0, 0.0008532391448288844, array([[ -2.97550502e-17]])]
[12.150000000000038, -0.4475559062201827, 1.3283652067184448, 1.8876967430114746, 0.0, -3.620874024837008e-05, 0.0, 0.00045820378208859394, 0.0, 0.0008650136571279796, array([[ -3.40519057e-12]])]
[12.200000000000038, -0.40236026054611024, 1.44670569896698, 1.1984790563583374, 0.0, 0.0004598271246150948, 0.0, 0.0004272173873815434, 0.0, 0.0007341277782187186, array([[-0.02506831]])]
[12.250000000000039, -0.08465972463870024, 1.5173112154006958, 0.5468193888664246, 0.0, 0.001065870350424943, 0.0, 0.0005224894206095412, 0.0, 0.0005924417922211297, array([[-1233.31423417]])]
[12.30000000000004, 1233.4619856278223, 1.5344890356063843, 0.2397761046886444, 0.0, 0.0011914197685571207, 0.0, 0.0005863340388627684, 0.0, 0.0005404191117793072, array([[-5654.85270738]])]
[12.35000000000004, 5655.343510550908, 1.5474869012832642, 0.19696958363056183, 0.0, 0.001451691116518745, 0.0, 0.0007344832055994001, 0.0, 0.0004138252411107838, array([[-3864.25568858]])]
[12.400000000000041, 3864.8950570631555, 1.5657649040222168, 0.6947950124740601, 0.0, 0.0009635148197266784, 0.0, 0.0006884754358294939, 0.0, 0.0004014854345159408, array([[-201.63111851]])]
[12.450000000000042, 201.9789255509423, 1.658401608467102, 1.7429068088531494, 0.0, 0.0006012071778915112, 0.0, 0.0004969970137612653, 0.0, 0.0003866360180311102, array([[ -3.24006987e-10]])]
[12.500000000000043, 0.030544380261864373, 1.7256217002868652, 2.212045192718506, 0.0, 0.0004904886874485878, 0.0, 0.0004891620520780452, 0.0, 0.00041256904235400404, array([[ -2.02667708e-19]])]
[12.550000000000043, -0.48633993247696755, 1.8910160064697266, 2.1052050590515137, 0.0, -7.31718132455495e-05, 0.0, 0.0004039684775914044, 0.0, 0.0004507035995093651, array([[ -1.00524964e-23]])]
[12.600000000000044, -0.629642744483307, 1.9575252532958984, 1.8082369565963745, 0.0, -0.00020081751924622148, 0.0, 0.00036176790613166914, 0.0, 0.00041578450139166635, array([[ -5.05423766e-12]])]
[12.650000000000045, -0.40087092897110893, 2.0712356567382812, 1.1597864627838135, 0.0, -0.0007022139317217734, 0.0, 0.00046622400018194945, 0.0, 0.0004178487677122179, array([[-0.00287923]])]
[12.700000000000045, -0.13848399572883974, 2.108598232269287, 0.8530493974685669, 0.0, -0.0008534479702497887, 0.0, 0.0004989745396625624, 0.0, 0.0004132477129344927, array([[-1.09292329]])]
[12.750000000000046, 1.3408808579656502, 2.1560065746307373, 0.26290664076805115, 0.0, -0.0013541152276029316, 0.0, 0.0006565716485872222, 0.0, 0.00048205270574648546, array([[-31.64164001]])]
[12.800000000000047, 32.11826857847037, 2.1732282638549805, 0.5936063528060913, 0.0, -0.001336769390985617, 0.0, 0.0006842770097983498, 0.0, 0.0004889519669110537, array([[-21.8079187]])]
[12.850000000000048, 22.259438637646753, 2.259326457977295, 1.6353645324707031, 0.0, -0.0008585578493735416, 0.0, 0.0005174544477248648, 0.0, 0.0005141380477393132, array([[ -5.32815157e-10]])]
[12.900000000000048, 0.13905270285604326, 2.3923165798187256, 2.4985806941986084, 0.0, -0.0006426319856012162, 0.0, 0.00038712515496260686, 0.0, 0.0004989786097731941, array([[ -8.59586548e-19]])]
[12.950000000000049, -0.3789228374889046, 2.4981095790863037, 2.4177513122558594, 0.0, -0.00048783162181934855, 0.0, 0.00035633316920340413, 0.0, 0.00046715306648378337, array([[ -6.38945484e-28]])]
[13.00000000000005, -0.6911897313085942, 2.5756335258483887, 2.1616413593292236, 0.0, -0.0004751726091680446, 0.0, 0.0003619522964183428, 0.0, 0.0004472606742333329, array([[ -9.05311344e-21]])]
[13.05000000000005, -0.6684151837480365, 2.7155017852783203, 1.523007869720459, 0.0, -0.0005310889318826971, 0.0, 0.00039531717011544984, 0.0, 0.0003573846121566905, array([[ -7.59555065e-16]])]
[13.100000000000051, -0.5734304074575595, 2.764899253845215, 1.2171984910964966, 0.0, -0.000543164938317517, 0.0, 0.0004566701681452315, 0.0, 0.000335786375762505, array([[ -3.29766359e-06]])]
[13.150000000000052, -0.16244743395406563, 2.800544023513794, 0.9493783712387085, 0.0, -0.0005396056752999376, 0.0, 0.0005327963630809333, 0.0, 0.00035414267589444203, array([[-0.00090633]])]
[13.200000000000053, 0.1788388162514838, 2.855407953262329, 0.2597104609012604, 0.0, -0.0005266107153051288, 0.0, 0.0006471275331508605, 0.0, 0.0003686145499887606, array([[-0.59726798]])]
[13.250000000000053, 1.085016587297433, 2.863542079925537, -0.31239083409309387, 0.0, -0.0005142345122208855, 0.0, 0.0006906285096017852, 0.0, 0.0003879106430542402, array([[-0.39420727]])]
[13.300000000000054, 0.8515869728138432, 2.8603885173797607, -0.06162499263882637, 0.0, -0.0004705042214299514, 0.0, 0.0006329423846502604, 0.0, 0.0003916482374368128, array([[-0.27243916]])]
[13.350000000000055, 0.6723065322400097, 2.8685126304626465, 0.3139208257198334, 0.0, -0.00029376046544818765, 0.0, 0.00046704755785655484, 0.0, 0.0003264851848934131, array([[-0.47644929]])]
[13.400000000000055, 0.5759012440299963, 2.9260406494140625, 0.9087559580802917, 0.0, -0.00041607353174499584, 0.0, 0.0003712252612217883, 0.0, 0.00034974161655494863, array([[-0.00056679]])]
[13.450000000000056, -0.2244322732643358, 3.0053436756134033, 0.9681438207626343, 0.0, -0.0003822312103186148, 0.0, 0.00034697632551382166, 0.0, 0.000354557258185139, array([[-0.00010728]])]
[13.500000000000057, -0.3857716650556143, 3.037769317626953, 0.7228379249572754, 0.0, -0.00041866650488498993, 0.0, 0.0003610350323797539, 0.0, 0.0003233593279170314, array([[-0.00328561]])]
[13.550000000000058, -0.2787468634197632, 3.076359748840332, 0.08468981832265854, 0.0, -0.0004869981065073022, 0.0, 0.00039515645652253215, 0.0, 0.0002902955811819814, array([[-0.0347779]])]
[13.600000000000058, -0.06409105014475766, 3.0785369873046875, -0.22106797993183136, 0.0, -0.00045952628392074816, 0.0, 0.0004205584489640014, 0.0, 0.0002815286277440014, array([[-0.00829496]])]
[13.650000000000059, 0.23608656316094853, 3.072847843170166, -0.48907676339149475, 0.0, -0.00045869437184346037, 0.0, 0.00048544379629360046, 0.0, 0.0002161020096587086, array([[-0.00025806]])]
[13.70000000000006, 0.3531738260560311, 3.0231196880340576, -1.1081513166427612, 0.0, -0.0004530868389063422, 0.0, 0.0005741734094205631, 0.0, 0.0001779825166778404, array([[ -2.46609209e-10]])]
[13.75000000000006, 0.5509779736878225, 2.941335678100586, -1.5067434310913086, 0.0, -0.00039340067499958376, 0.0, 0.0004457062278449137, 0.0, 0.00011413028591305816, array([[ -1.49848926e-15]])]
[13.800000000000061, 0.5929686055842354, 2.8956732749938965, -1.561134934425354, 0.0, -0.00036774400053631766, 0.0, 0.00041069464527829257, 0.0, 0.00012425768458661847, array([[ -2.94996017e-16]])]
[13.850000000000062, 0.5329045611772392, 2.7990987300872803, -1.5848742723464966, 0.0, -0.00035000620617685937, 0.0, 0.00040591363204099136, 0.0, 0.00016885353517398372, array([[ -3.26546155e-16]])]
[13.900000000000063, 0.41527913196623356, 2.752012014389038, -1.616685390472412, 0.0, -0.00041988579090468863, 0.0, 0.00040735550481377556, 0.0, 0.0001298953614523284, array([[ -2.03442833e-16]])]
[13.950000000000063, 0.3620534624070825, 2.7099640369415283, -1.6727802753448486, 0.0, -0.0004260960868343352, 0.0, 0.0004374309513150079, 0.0, 9.920478289817937e-05, array([[ -4.67425685e-17]])]
[14.000000000000064, 0.27654521812988825, 2.5880818367004395, -1.9774692058563232, 0.0, -0.0005299755204689247, 0.0, 0.00034746273328038264, 0.0, 0.00014944494742252407, array([[ -4.18418384e-22]])]
[14.050000000000065, 0.3475007466291785, 2.4477994441986084, -2.3976991176605225, 0.0, -0.0003665827635750302, 0.0, 0.00032364200156875203, 0.0, 9.687843236718766e-05, array([[ -5.70735569e-25]])]
[14.100000000000065, 0.33192546647067367, 2.3712642192840576, -2.590785026550293, 0.0, -0.00037845634849761867, 0.0, 0.0003164651697049285, 0.0, 0.00013261839706068664, array([[ -5.05210288e-35]])]
[14.150000000000066, 0.4752919759890437, 2.18915057182312, -2.9821884632110596, 0.0, -0.00013600652948383849, 0.0, 0.00033495777943408535, 0.0, 0.00010939044227460966, array([[ -4.82815101e-39]])]
[14.200000000000067, 0.4686682442012726, 2.095003128051758, -3.0993645191192627, 0.0, -0.00015864228810072008, 0.0, 0.0003200795080283796, 0.0, 9.202332182582308e-05, array([[ -2.37689967e-48]])]
[14.250000000000068, 0.5729138346108644, 1.887722373008728, -3.325709342956543, 0.0, -0.00025375204172592604, 0.0, 0.00022034017106677999, 0.0, 0.00017277411097143982, array([[ -9.20796021e-55]])]
[14.300000000000068, 0.5343619830939174, 1.785272240638733, -3.3721060752868652, 0.0, -0.00022958372613938926, 0.0, 0.00026992364404407207, 0.0, 0.0001736140333619862, array([[ -4.87266923e-56]])]
[14.350000000000069, 0.5851306426671892, 1.563262939453125, -3.4770445823669434, 0.0, -0.0002728807900535013, 0.0, 0.0004701720335481517, 0.0, 0.0002593918519582297, array([[ -6.64821076e-57]])]
[14.40000000000007, 0.545721942366302, 1.456034541130066, -3.507446765899658, 0.0, -0.00034821340196366103, 0.0, 0.00043948980389619814, 0.0, 0.00024875847846107075, array([[ -1.35374128e-59]])]
[14.45000000000007, 0.5863105182898044, 1.361807942390442, -3.5376124382019043, 0.0, -0.00035816763915760537, 0.0, 0.0004320258880555152, 0.0, 0.0002529723125915161, array([[ -2.85806323e-60]])]
[14.500000000000071, 0.5787176742217689, 1.11326003074646, -3.6302545070648193, 0.0, -0.00023845723606152438, 0.0, 0.0003200212589734988, 0.0, 0.00026582416769769076, array([[ -4.94765174e-63]])]
[14.550000000000072, 0.6343366998186111, 1.0155277252197266, -3.656003475189209, 0.0, -0.00011534461374944242, 0.0, 0.0004212687776830418, 0.0, 0.00026718672699952323, array([[ -1.25583281e-63]])]
[14.600000000000072, 0.6439725111931414, 0.759847104549408, -3.6911046504974365, 0.0, -0.0001250860051371163, 0.0, 0.000429144232459937, 0.0, 0.00023228659195365613, array([[ -1.91583063e-64]])]
[14.650000000000073, 0.6711149644030034, 0.5219568014144897, -3.6474075317382812, 0.0, -0.00032126354652622035, 0.0, 0.00042224999078276754, 0.0, 0.00025938817565142645, array([[ -3.18069865e-62]])]
[14.700000000000074, 0.6663636980856954, 0.4106801152229309, -3.603426694869995, 0.0, -0.00031541287052229216, 0.0, 0.00040423142211636873, 0.0, 0.00021269354422342042, array([[ -1.63975185e-60]])]
[14.750000000000075, 0.6545210653174222, 0.31499698758125305, -3.561609983444214, 0.0, -0.000298847303547286, 0.0, 0.0004303147597284284, 0.0, 0.00017762681669101178, array([[ -9.95229856e-59]])]
[14.800000000000075, 0.633007399827376, 0.07211913913488388, -3.4650719165802, 0.0, -0.0003113884267501373, 0.0, 0.00044144401205859103, 0.0, 0.00015705472333433167, array([[ -4.48635401e-55]])]
[14.850000000000076, 0.6168053794609606, -0.15276050567626953, -3.414548635482788, 0.0, -0.000327724805065751, 0.0, 0.00046114367194182397, 0.0, 0.000255671515634963, array([[ -6.01475355e-54]])]
[14.900000000000077, 0.6193953792909495, -0.2584618628025055, -3.4067938327789307, 0.0, -0.0002747866465220279, 0.0, 0.00046586839194057324, 0.0, 0.00022500016674159736, array([[ -8.42068822e-53]])]
[14.950000000000077, 0.6413992500980645, -0.3374270498752594, -0.15078452229499817, 0.0, -0.00013273817439243726, 0.0, 0.0004518967689494944, 0.0, 0.00017361502642368028, array([[-52084.92535626]])]
[15.000000000000078, 52084.76684948188, -0.3348684012889862, 0.00018104072660207748, 0.0, -0.00015121932463174698, 0.0, -0.0009738852330221538, 0.0, 0.00027436535134394286, array([[-78921.93350745]])]
[15.050000000000079, 78921.7389172927, -0.305359423160553, 0.785905659198761, 0.0, -5.664136787269155e-05, 0.0, -0.0006795018431334861, 0.0, 0.0003838927420506056, array([[-245.68560885]])]
[15.10000000000008, 245.93503676244575, -0.26784399151802063, 1.2842509746551514, 0.0, -0.00013662488209383522, 0.0, -0.000499235614329949, 0.0, 0.0003714321351692579, array([[-0.00589185]])]
[15.15000000000008, -0.05352848295056926, -0.13584651052951813, 2.2810251712799072, 0.0, -0.0002345473777350992, 0.0, -0.00018796588646459602, 0.0, 0.00021615106725610792, array([[ -5.93713090e-20]])]
[15.200000000000081, -0.012391214325964461, -0.058698903769254684, 2.2025492191314697, 0.0, -0.00015223858075824877, 0.0, 3.340834755877241e-06, 0.0, 0.0001481880673271216, array([[ -3.81796907e-18]])]
[15.250000000000082, -0.1400749445039928, 0.0037759672850370407, 1.9617390632629395, 0.0, -1.3903538919543473e-05, 0.0, 0.0003352059626331309, 0.0, 5.495715647739675e-05, array([[ -3.80003751e-13]])]
[15.300000000000082, -0.08355341460351273, 0.12989841401576996, 1.2789134979248047, 0.0, 0.00021850104873482915, 0.0, 0.000754261485253489, 0.0, -0.00010157579679366133, array([[-0.01659039]])]
[15.350000000000083, 0.10407346247887007, 0.20317216217517853, 0.630882740020752, 0.0, 0.0005412705081339975, 0.0, 0.0013311241213575544, 0.0, -0.0001913236690177005, array([[-11.3801294]])]
[15.400000000000084, 11.416476621531205, 0.22210313379764557, 0.34262585639953613, 0.0, 0.0005923544220219619, 0.0, 0.0015100418954134339, 0.0, -0.00022040230483270665, array([[-66294.78714382]])]
