time, uz, alt, vel_alt, uthe, roll, uphi, pitch, upsi, yaw, F
[0.0, 0.0, 0.005578150972723961, 0.03102908283472061, 0.0, -0.005244519948008027, 0.0, 0.02399622603552147, 0.0, -0.07710289121434888]
[0.05, 2.162429918839596, 0.005578150972723961, 0.03102908283472061, 0.0, -0.005244519948008027, 0.0, 0.02399622603552147, 0.0, -0.07710289121434888]
[0.1, 2.162429918839596, 0.00662937480956316, 0.03119364008307457, 0.0, -0.005233577099487656, 0.0, 0.023979931027755894, 0.0, -0.07709756254645775]
[0.15000000000000002, 2.162097120313067, 0.012053396552801132, 0.3660550117492676, 0.0, -0.005049146497029809, 0.0, 0.02078199142304267, 0.0, -0.07561767559765065]
[0.2, 2.0872312785800546, 0.058606356382369995, 1.2247436046600342, 0.0, -0.0044185262554601945, 0.0, 0.011974224298051006, 0.0, -0.06728461263342003]
[0.25, 1.8860365761727096, 0.11840543150901794, 1.8215439319610596, 0.0, -0.0033939985379794753, 0.0, 0.00958253209668428, 0.0, -0.05916264456847089]
[0.3, 1.7384560255855321, 0.252396821975708, 2.6755974292755127, 0.0, -0.0016782994277189395, 0.0, 0.004698939400919504, 0.0, -0.04678958732766327]
[0.35, 1.5135925401449204, 0.36931702494621277, 3.213603973388672, 0.0, -0.0007090639500128451, 0.0, 0.003515490734799089, 0.0, -0.040989376374545174]
[0.39999999999999997, 1.362762533685565, 0.5844245553016663, 3.9855263233184814, 0.0, -0.00025211579307527935, 0.0, 0.0020002890602785674, 0.0, -0.03319116874496417]
[0.44999999999999996, 1.1329866832315922, 0.753135085105896, 4.476807117462158, 0.0, 3.145104794274693e-05, 0.0, 0.0014456198671530952, 0.0, -0.029003258676793337]
[0.49999999999999994, 0.9777692067503932, 1.0426944494247437, 5.180107116699219, 0.0, 0.00020497635411855837, 0.0, 0.0009649003750816765, 0.0, -0.023669787393839507]
[0.5499999999999999, 0.742003898370266, 1.2585210800170898, 5.6128458976745605, 0.0, 0.00024620245343467246, 0.0, 0.0007656856255495232, 0.0, -0.02068839246915577]
[0.6, 0.586306247520447, 1.609837532043457, 6.025103569030762, 0.0, 0.0003889993448017582, 0.0, 0.000548824164867069, 0.0, -0.01690089653789739]
[0.65, 0.3968451830863955, 1.8509489297866821, 6.08411979675293, 0.0, 0.00030542057992877556, 0.0, 0.00043825319654785676, 0.0, -0.014626959193456085]
[0.7000000000000001, 0.31585488163232833, 2.2810537815093994, 5.857643127441406, 0.0, 0.00017936611369930047, 0.0, 0.0003523213704838918, 0.0, -0.011608539940599178]
[0.7500000000000001, 0.24403467257022848, 2.442115306854248, 5.686558246612549, 0.0, 0.000216741723404877, 0.0, 0.00033773820159167865, 0.0, -0.009669583977123199]
[0.8000000000000002, 0.23603459286689787, 2.7700304985046387, 5.259230613708496, 0.0, 0.00023694963404038635, 0.0, 0.00021663406810403378, 0.0, -0.015326994849899665]
[0.8500000000000002, 0.23704888586998019, 2.9738364219665527, 4.951871395111084, 0.0, 0.0003142789393576444, 0.0, 0.00018873614976204405, 0.0, -0.013751414998240454]
[0.9000000000000002, 0.24682614254951518, 3.2563908100128174, 4.4868059158325195, 0.0, 0.00025816789151550347, 0.0, 0.00014162331159652607, 0.0, -0.011244314102458608]
[0.9500000000000003, 0.26891037876605983, 3.429104804992676, 4.17932653427124, 0.0, 0.00021352254817832997, 0.0, 0.00018400891472771303, 0.0, -0.00965198334868371]
[1.0000000000000002, 0.28749120254516636, 3.665706157684326, 3.731214761734009, 0.0, 0.00023914129162488714, 0.0, 0.00019570978157374736, 0.0, -0.007549253858030229]
[1.0500000000000003, 0.31883511886596694, 3.8083345890045166, 3.4444053173065186, 0.0, 0.0002484167788187756, 0.0, 0.00025736676182571945, 0.0, -0.006317032233090904]
[1.1000000000000003, 0.3413823810338975, 4.0017852783203125, 3.041356325149536, 0.0, 0.0001659505340632135, 0.0, 0.00024635190526593466, 0.0, -0.004657463227696066]
[1.1500000000000004, 0.37503898072242753, 4.117672920227051, 2.7895636558532715, 0.0, 0.0001818644234651657, 0.0, 0.00019685135750907413, 0.0, -0.0036752735507132256]
[1.2000000000000004, 0.3974664939880371, 4.2738776206970215, 2.448892593383789, 0.0, 0.00020509033916369626, 0.0, 0.00027524746782492073, 0.0, -0.0024871422463281986]
[1.2500000000000004, 0.427976869726181, 4.367117881774902, 2.2458348274230957, 0.0, 0.00018999550950667184, 0.0, 0.0003066199896422214, 0.0, -0.0019142809861418548]
[1.3000000000000005, 0.4461247947692872, 4.492765426635742, 1.9793431758880615, 0.0, 0.00026981181671708975, 0.0, 0.00036687167853582546, 0.0, -0.001304648516532417]
[1.3500000000000005, 0.4690161645412446, 4.568382263183594, 1.8196375370025635, 0.0, 0.0001939783046470146, 0.0, 0.00042519481470843835, 0.0, -0.00110724085728301]
[1.4000000000000006, 0.48264506649971006, 4.670715808868408, 1.6151537895202637, 0.0, 0.00014569874073626463, 0.0, 0.0004121946835794738, 0.0, -0.0009314153510804623]
[1.4500000000000006, 0.49853824725151075, 4.733374118804932, 1.4963730573654175, 0.0, 0.00016224910540713004, 0.0, 0.000324439671096841, 0.0, -0.0008598536812708629]
[1.5000000000000007, 0.5068627866983415, 4.81954288482666, 1.3430906534194946, 0.0, 0.0001219208139964789, 0.0, 0.00034295234368414656, 0.0, -0.0008085242732628413]
[1.5500000000000007, 0.5161061905145645, 4.872170925140381, 1.2554134130477905, 0.0, 6.186414338629304e-05, 0.0, 0.0003390464396651341, 0.0, -0.0007050219773433352]
[1.6000000000000008, 0.5204506103754044, 4.9448442459106445, 1.1382631063461304, 0.0, 2.0378327213551753e-05, 0.0, 0.00039082064643334024, 0.0, -0.0007781954684124785]
[1.6500000000000008, 0.5255908490896225, 4.989634990692139, 1.0686885118484497, 0.0, -1.3386757348419492e-05, 0.0, 0.00039380376569848234, 0.0, -0.0007992755095406492]
[1.7000000000000008, 0.5281832580327989, 5.051629543304443, 0.9745199084281921, 0.0, 4.2521592539558504e-05, 0.0, 0.00042143745308775057, 0.0, -0.0007901601948029816]
[1.7500000000000009, 0.5313051199793816, 5.089821815490723, 0.9160604476928711, 0.0, -4.548666343818108e-05, 0.0, 0.0004100728866780214, 0.0, -0.0007915271804010166]
[1.800000000000001, 0.5333260634422303, 5.142749309539795, 0.8350390195846558, 0.0, -0.00010371941504365321, 0.0, 0.0003684172217661975, 0.0, -0.0008389100146441096]
[1.850000000000001, 0.5361283246278763, 5.1751790046691895, 0.7847139835357666, 0.0, -4.1318151843265954e-05, 0.0, 0.0004034214289463942, 0.0, -0.0009057441769171248]
[1.900000000000001, 0.537994604587555, 5.2200236320495605, 0.7142978310585022, 0.0, -5.9536351138431585e-06, 0.0, 0.00040021018561788057, 0.0, -0.0008640959498026844]
[1.950000000000001, 0.5407561036705971, 5.247616767883301, 0.6700073480606079, 0.0, -2.4878279566530595e-05, 0.0, 0.00034950288792752536, 0.0, -0.0008383051649829507]
[2.000000000000001, 0.5426661772012711, 5.285798072814941, 0.6096329092979431, 0.0, -0.00010042124799594105, 0.0, 0.00032215594717277665, 0.0, -0.0006176361106980534]
[2.0500000000000007, 0.5451095969080926, 5.309229373931885, 0.5717674493789673, 0.0, -9.072449217985931e-05, 0.0, 0.00023809018261663616, 0.0, -0.0005336741701261255]
[2.1000000000000005, 0.5467874763250351, 5.341628551483154, 0.5194222927093506, 0.0, -0.00011622616401069868, 0.0, 0.00035344943879097576, 0.0, -0.0004324472064205873]
[2.1500000000000004, 0.5491047778129579, 5.3614373207092285, 0.4870164394378662, 0.0, -9.09675949426642e-05, 0.0, 0.0003577908952691519, 0.0, -0.0002791970011898198]
[2.2, 0.5506096441268921, 5.388672351837158, 0.4427696764469147, 0.0, -0.00012766208930223882, 0.0, 0.0004951748410737227, 0.0, -0.0001360816366399744]
[2.25, 0.552611235934496, 5.403937339782715, 0.4150505065917969, 0.0, -7.576784275906716e-05, 0.0, 0.00029682374963469995, 0.0, -4.569842940747491e-05]
[2.3, 0.554372428035736, 5.425148963928223, 0.37729132175445557, 0.0, -4.04270513029235e-05, 0.0, 0.00028208854441122124, 0.0, -2.4619459879842455e-05]
[2.3499999999999996, 0.556653648018837, 5.438074588775635, 0.35453474521636963, 0.0, -9.404653746545662e-05, 0.0, 0.00029251433423482256, 0.0, -2.46275149307042e-05]
[2.3999999999999995, 0.5579884343862533, 5.455997943878174, 0.3229885399341583, 0.0, -4.998578423261099e-05, 0.0, 0.0003458837105011363, 0.0, -3.13659004606779e-05]
[2.4499999999999993, 0.5598372901976109, 5.46718168258667, 0.30425024032592773, 0.0, -7.312854501109797e-05, 0.0, 0.000305270744557338, 0.0, 2.0725087818549486e-05]
[2.499999999999999, 0.560783808374405, 5.482790946960449, 0.27980324625968933, 0.0, -3.910112202617527e-05, 0.0, 0.0002647287154441503, 0.0, -2.2933061576319864e-05]
[2.549999999999999, 0.5617312047421932, 5.492551803588867, 0.2650683522224426, 0.0, -5.3145417673195435e-05, 0.0, 0.000326688720091906, 0.0, 5.891877390617975e-06]
[2.5999999999999988, 0.5622026567101478, 5.505956172943115, 0.24515891075134277, 0.0, -7.328579322717894e-05, 0.0, 0.0003212389351445531, 0.0, 9.59770968950899e-06]
[2.6499999999999986, 0.5627787709236146, 5.51406717300415, 0.2325301319360733, 0.0, -4.596011134473856e-05, 0.0, 0.000316415195852685, 0.0, 8.90068667773607e-05]
[2.6999999999999984, 0.5632547381669283, 5.525623321533203, 0.21454642713069916, 0.0, -7.618443447752422e-05, 0.0, 0.000248255215460622, 0.0, 9.659111363038938e-05]
[2.7499999999999982, 0.5639308687895537, 5.5327863693237305, 0.2035505175590515, 0.0, 1.091792039938505e-05, 0.0, 0.0002300800851748927, 0.0, 8.429494730699526e-05]
[2.799999999999998, 0.5643168445944786, 5.542870044708252, 0.18801648914813995, 0.0, -3.538237071117237e-05, 0.0, 0.00036197339531550605, 0.0, -6.4037387229286716e-09]
[2.849999999999998, 0.5648721752554179, 5.549379825592041, 0.1789105087518692, 0.0, -9.183615280617997e-05, 0.0, 0.00036556941829320297, 0.0, 2.2405337545759752e-05]
[2.8999999999999977, 0.5650286738187075, 5.558633804321289, 0.16541849076747894, 0.0, -2.7128786612532874e-05, 0.0, 0.00026310046611609337, 0.0, 5.896989596714158e-06]
[2.9499999999999975, 0.5653710275620222, 5.56431245803833, 0.15634047985076904, 0.0, -4.7494710557017376e-05, 0.0, 0.00027309452066599435, 0.0, 5.725485739570151e-06]
[2.9999999999999973, 0.565756028008461, 5.572444438934326, 0.14383037388324738, 0.0, -7.60984232639572e-05, 0.0, 0.0002932417980026083, 0.0, 6.590650899939564e-05]
[3.049999999999997, 0.5662000830084085, 5.577421188354492, 0.1362491399049759, 0.0, -6.451727558010663e-05, 0.0, 0.0003132806108587373, 0.0, 6.927930826340685e-05]
[3.099999999999997, 0.5664554368883371, 5.584383487701416, 0.12550610303878784, 0.0, -6.477214428796109e-05, 0.0, 0.00039624468627134983, 0.0, 3.336746896582063e-05]
[3.149999999999997, 0.5668427048563957, 5.588508129119873, 0.11931329220533371, 0.0, -8.95802104313703e-05, 0.0, 0.00036887935555369474, 0.0, -4.7558168070472986e-05]
[3.1999999999999966, 0.5670345441564918, 5.594076633453369, 0.10990341007709503, 0.0, -5.7442533580649415e-05, 0.0, 0.0002650101872683754, 0.0, -9.458514103498977e-05]
[3.2499999999999964, 0.5675233195692301, 5.597527503967285, 0.10325195640325546, 0.0, -0.0001631771850190679, 0.0, 0.00029790490164427594, 0.0, -5.076911210661528e-05]
[3.2999999999999963, 0.5680058071777225, 5.60189151763916, 0.09327759593725204, 0.0, -5.2107997554454806e-05, 0.0, 0.000172405936273479, 0.0, -0.0001716264470498458]
[3.349999999999996, 0.5689582310602068, 5.604256629943848, 0.08797713369131088, 0.0, -3.066799834483731e-05, 0.0, 0.00031704227567355215, 0.0, -0.000125939646865644]
[3.399999999999996, 0.5694513610884547, 5.607377529144287, 0.08081308007240295, 0.0, 4.3428483659603536e-05, 0.0, 0.0002255933822824699, 0.0, -0.000250010209754046]
[3.4499999999999957, 0.5701392589867115, 5.608989715576172, 0.07723066210746765, 0.0, -0.00010874178964894495, 0.0, 0.00019618273019055677, 0.0, -0.0002493514043787851]
[3.4999999999999956, 0.5704686882913114, 5.611274719238281, 0.07218429446220398, 0.0, -0.00013946222620061968, 0.0, 0.00020645093669465384, 0.0, -0.0002500295043970164]
[3.5499999999999954, 0.5709287862718105, 5.612606525421143, 0.06957028061151505, 0.0, -8.573304803816534e-05, 0.0, 0.0003186703163107343, 0.0, -0.00029672747670687855]
[3.599999999999995, 0.5711252864196896, 5.614546298980713, 0.06683392077684402, 0.0, -0.00018308181484598783, 0.0, 0.00023333092436520625, 0.0, -0.000384063444808568]
[3.649999999999995, 0.571176951147616, 5.6159281730651855, 0.06470568478107452, 0.0, -0.00023776258760007578, 0.0, 0.0002441468868520071, 0.0, -0.0003658636717536071]
[3.699999999999995, 0.5712529317766428, 5.61793327331543, 0.06127723306417465, 0.0, -0.00016047891988772104, 0.0, 0.0002525027253066816, 0.0, -0.0002053597094204515]
[3.7499999999999947, 0.5714377229019999, 5.619181156158447, 0.05977858230471611, 0.0, -5.833740882555589e-05, 0.0, 0.00013731178045453998, 0.0, -0.00023703788417895333]
[3.7999999999999945, 0.5714136500917376, 5.621397495269775, 0.057215701788663864, 0.0, -5.661197000546797e-05, 0.0, 0.0002527786799268472, 0.0, -0.0002559228222909325]
[3.8499999999999943, 0.571349248393625, 5.622976303100586, 0.05561152473092079, 0.0, -2.868539332369704e-05, 0.0, 0.0002730087953903884, 0.0, -0.00027918464318338045]
[3.899999999999994, 0.5712548657186328, 5.6248626708984375, 0.05287827551364899, 0.0, -9.236001294796513e-05, 0.0, 0.00023323891559335884, 0.0, -0.00020349575836592728]
[3.949999999999994, 0.5713209256678821, 5.626017093658447, 0.05165562406182289, 0.0, -7.565431551174362e-05, 0.0, 0.00031710743602107863, 0.0, -0.0002464867683353402]
[3.999999999999994, 0.5712627927906812, 5.627625942230225, 0.049685340374708176, 0.0, -0.00011189812645867702, 0.0, 0.0002389946601630333, 0.0, -0.00023603572613220664]
[4.049999999999994, 0.5712401069663465, 5.628530025482178, 0.04748264700174332, 0.0, -0.00015380880070105796, 0.0, 0.0002804513586315391, 0.0, -0.0002368868595215036]
[4.099999999999993, 0.5714672741129995, 5.629668712615967, 0.04417451471090317, 0.0, -0.00010213570119017675, 0.0, 0.0002593366944212453, 0.0, -0.00035590123492825816]
[4.149999999999993, 0.5718703037068248, 5.630128860473633, 0.042081113904714584, 0.0, -0.00016870235537704066, 0.0, 0.00018644877053844354, 0.0, -0.0003852379243920746]
[4.199999999999993, 0.5721988587431609, 5.630784034729004, 0.039650484919548035, 0.0, -0.00014189751137162003, 0.0, 0.00023262580025531297, 0.0, -0.00035725319480435253]
[4.249999999999993, 0.5725462107986211, 5.631306171417236, 0.03895244002342224, 0.0, -7.287973760228652e-05, 0.0, 0.0002924161032165353, 0.0, -0.0003978769071083609]
[4.299999999999993, 0.5725516834437847, 5.63236665725708, 0.03762999176979065, 0.0, -1.783784123148217e-05, 0.0, 0.00022471810793508069, 0.0, -0.00045350209420943913]
[4.3499999999999925, 0.5725419244587422, 5.633105754852295, 0.036877091974020004, 0.0, -0.00015711763918899873, 0.0, 0.00018748222317441896, 0.0, -0.00039990402856875785]
[4.399999999999992, 0.5724981622628867, 5.6343092918396, 0.03552738204598427, 0.0, -0.00024739224817921885, 0.0, 0.000153875335977816, 0.0, -0.0004359860353356986]
[4.449999999999992, 0.5724539902456104, 5.6349592208862305, 0.03528352081775665, 0.0, -0.00015236260125553848, 0.0, 0.00021448810759713073, 0.0, -0.00043615192892481594]
[4.499999999999992, 0.5723239208847284, 5.635293483734131, 0.03296136111021042, 0.0, -0.0001836662842316431, 0.0, 0.0001613917126990692, 0.0, -0.00038304538224775666]
[4.549999999999992, 0.5727381114587188, 5.6354451179504395, 0.03172140568494797, 0.0, -0.00016765883431349608, 0.0, 0.00021444713921777992, 0.0, -0.0003098816100547893]
[4.599999999999992, 0.5729668553575874, 5.635802745819092, 0.030419552698731422, 0.0, -0.00013282429959142217, 0.0, 0.0001814441963942045, 0.0, -0.00036121052886905797]
[4.6499999999999915, 0.5731510028142482, 5.635554313659668, 0.029007090255618095, 0.0, -0.00016708129182522652, 0.0, 0.00020389665894058988, 0.0, -0.0003846491587989848]
[4.699999999999991, 0.5735304644878955, 5.634942531585693, 0.027415821328759193, 0.0, -6.400220680609258e-05, 0.0, 0.00012507828527833908, 0.0, -0.0003942456086389802]
[4.749999999999991, 0.5740516584623605, 5.634740829467773, 0.0258136335760355, 0.0, -0.00015500915635349984, 0.0, 2.873791832134881e-06, 0.0, -0.00035260074489462884]
[4.799999999999991, 0.5744594780880957, 5.634354591369629, 0.025917550548911095, 0.0, -0.00016672458920812962, 0.0, 0.00013362827095980757, 0.0, -0.00036517143724967426]
[4.849999999999991, 0.5745457552861423, 5.6344451904296875, 0.025914020836353302, 0.0, -0.00021315134426629792, 0.0, 0.00017194508591763608, 0.0, -0.00031308511870330115]
[4.899999999999991, 0.5745209521785379, 5.634883880615234, 0.026861609891057014, 0.0, -0.0001346094393901447, 0.0, 0.00011666606959675608, 0.0, -0.0001884042597475912]
[4.94999999999999, 0.5741895879361778, 5.635340690612793, 0.028050890192389488, 0.0, -0.00019850453226023744, 0.0, 0.00020622249642662988, 0.0, -4.039714790766317e-05]
[4.99999999999999, 0.5738001780878753, 5.636101722717285, 0.02928530052304268, 0.0, 2.36729267243302e-06, 0.0, 0.0002798894854687389, 0.0, 3.397069033602716e-05]
[5.04999999999999, 0.573315002862364, 5.636492729187012, 0.029106182977557182, 0.0, -7.94977728666095e-06, 0.0, 0.000267264066182756, 0.0, 1.576185860315596e-05]
[5.09999999999999, 0.5732438484784216, 5.636748790740967, 0.027741502970457077, 0.0, -4.4227138799724774e-05, 0.0, 0.0001505599062494321, 0.0, 4.295649023470432e-06]
[5.14999999999999, 0.573470427223295, 5.636814117431641, 0.026646681129932404, 0.0, -8.879171499598075e-05, 0.0, 0.00023220975942907956, 0.0, 6.986067526033319e-06]
[5.1999999999999895, 0.5736917514815927, 5.637082099914551, 0.02556324191391468, 0.0, -0.00010330005847291473, 0.0, 0.0001637810743510152, 0.0, 5.587826041449139e-05]
[5.249999999999989, 0.573853373214975, 5.637269973754883, 0.025296516716480255, 0.0, -0.00017597304104945223, 0.0, 0.00017464859809438322, 0.0, -1.1111847565111997e-06]
[5.299999999999989, 0.5738587492480874, 5.637606620788574, 0.02453908510506153, 0.0, -0.00018441112005356886, 0.0, 0.00021320288657120172, 0.0, -0.00010226791033052532]
[5.349999999999989, 0.5739295913133771, 5.637657165527344, 0.0234343484044075, 0.0, -0.0001497025843109274, 0.0, 0.0001840898999487143, 0.0, -0.00018014940490635064]
[5.399999999999989, 0.5741572598710657, 5.637702465057373, 0.02314356341958046, 0.0, -0.00011050803096745623, 0.0, 0.00018586500581173587, 0.0, -0.00016733325379739288]
[5.449999999999989, 0.5742081537254154, 5.637903213500977, 0.022697297856211662, 0.0, -6.203625312913637e-05, 0.0, 0.0001340700076335902, 0.0, -0.0002389767825379804]
[5.4999999999999885, 0.574249214598164, 5.638289451599121, 0.022227849811315536, 0.0, -0.00015802126301082836, 0.0, 0.00022425932095979716, 0.0, -0.0002260091139672432]
[5.549999999999988, 0.57424298870489, 5.6383867263793945, 0.022753899917006493, 0.0, -9.880428789088478e-05, 0.0, 0.00018411142381341545, 0.0, -0.0002590436185146031]
[5.599999999999988, 0.5741003230612726, 5.638484477996826, 0.022474104538559914, 0.0, -0.00010234230581834262, 0.0, 0.0001546182181527806, 0.0, -0.00024184652151573504]
[5.649999999999988, 0.5741340029675515, 5.638642311096191, 0.022139018401503563, 0.0, -0.00016861319552963978, 0.0, 9.372836522039563e-05, 0.0, -0.0002621613026426431]
[5.699999999999988, 0.574162830547616, 5.638603687286377, 0.021089423447847366, 0.0, -2.4215705628548157e-05, 0.0, 0.00018861561787448752, 0.0, -0.0002146140391968505]
[5.749999999999988, 0.5744035953439772, 5.638453006744385, 0.020640918985009193, 0.0, -7.415876847790199e-05, 0.0, 0.00026544607573082696, 0.0, -0.00031847143268424886]
[5.799999999999987, 0.5745443549383432, 5.638145446777344, 0.020341569557785988, 0.0, 3.257742641684024e-05, 0.0, 0.00019472236459273858, 0.0, -0.00027361417173170816]
[5.849999999999987, 0.5746967366416007, 5.637683868408203, 0.019725266844034195, 0.0, 3.0949029506027055e-05, 0.0, 0.00017810609898697146, 0.0, -0.0002543113200727025]
[5.899999999999987, 0.5749620105095208, 5.636775016784668, 0.018619103357195854, 0.0, -5.4771453202822846e-05, 0.0, 0.00010194014618507217, 0.0, -9.466461102031872e-05]
[5.949999999999987, 0.5754608291264623, 5.636067867279053, 0.01862328127026558, 0.0, -4.75709839181469e-05, 0.0, 4.944942307569663e-05, 0.0, -1.121223760219347e-05]
[5.999999999999987, 0.5756595424689352, 5.6351542472839355, 0.01953047327697277, 0.0, -0.00013745461777328472, 0.0, 0.00020483465928951394, 0.0, 8.689272166408935e-05]
[6.0499999999999865, 0.575718782344088, 5.634723663330078, 0.020084012299776077, 0.0, -0.00013738576241666584, 0.0, 0.0002316247645589951, 0.0, 5.7219507856782604e-05]
[6.099999999999986, 0.575719111148268, 5.633947849273682, 0.022328054532408714, 0.0, -4.782066219527409e-05, 0.0, 5.0968044303493813e-05, 0.0, 2.958586824882225e-05]
[6.149999999999986, 0.5754466782074422, 5.633450031280518, 0.02302277460694313, 0.0, -0.00011386342924809291, 0.0, 6.657812582486112e-06, 0.0, 1.5088192348118538e-05]
[6.199999999999986, 0.5754350685305893, 5.6327056884765625, 0.024742158129811287, 0.0, -0.00010561915244492449, 0.0, 0.0001610773822718414, 0.0, 7.459141353374557e-05]
[6.249999999999986, 0.5752686515126378, 5.632448196411133, 0.02539476938545704, 0.0, -0.0001653864837485434, 0.0, 0.00011901283705745568, 0.0, 9.802372554621234e-05]
[6.299999999999986, 0.5751984196577221, 5.632443904876709, 0.026870684698224068, 0.0, -0.00010893669674787469, 0.0, -3.4132293897673116e-05, 0.0, 0.000164121682754222]
[6.349999999999985, 0.574876405704394, 5.63275146484375, 0.02773418091237545, 0.0, -4.734950426713769e-05, 0.0, 2.9948906948597026e-05, 0.0, 0.00015046353610041982]
[6.399999999999985, 0.5746004758547992, 5.633463382720947, 0.02806440368294716, 0.0, -4.159707229932956e-05, 0.0, 4.669298236084315e-05, 0.0, 9.828547289954957e-05]
[6.449999999999985, 0.5743271826513112, 5.633969306945801, 0.028551381081342697, 0.0, -8.116397264813664e-05, 0.0, -2.791173048124424e-05, 0.0, 0.0001446491190260007]
[6.499999999999985, 0.5740777121923865, 5.63447904586792, 0.027712401002645493, 0.0, -6.808426722979022e-05, 0.0, 9.448602704219822e-05, 0.0, 0.0001082298830932856]
[6.549999999999985, 0.5741175495319069, 5.634832382202148, 0.026499129831790924, 0.0, -5.526053699417036e-05, 0.0, 5.517504515028264e-05, 0.0, 2.545517028748316e-05]
[6.5999999999999845, 0.5742835090711713, 5.635365962982178, 0.02436654269695282, 0.0, -2.415275014318891e-05, 0.0, 2.0618598375959657e-05, 0.0, 0.00010991873368886329]
[6.649999999999984, 0.5745999157994987, 5.63507080078125, 0.023551059886813164, 0.0, -7.268031048388822e-05, 0.0, 4.0186065678077395e-05, 0.0, 0.00010098238179417938]
[6.699999999999984, 0.5748618308242411, 5.634742259979248, 0.02211553230881691, 0.0, -5.2496289232226535e-05, 0.0, 3.4944761114543337e-06, 0.0, 0.0001542573631573194]
[6.749999999999984, 0.5752689584322274, 5.634552001953125, 0.021165454760193825, 0.0, -7.17108298884208e-05, 0.0, 6.103547232962871e-05, 0.0, 0.00015543537810071742]
[6.799999999999984, 0.5755307352561504, 5.634461879730225, 0.02064155973494053, 0.0, -8.693817559546059e-05, 0.0, 3.516375554075567e-06, 0.0, 0.00010148946001020381]
[6.849999999999984, 0.5756709097702056, 5.634383678436279, 0.02094229869544506, 0.0, -4.9405171557859016e-05, 0.0, 8.861864132365943e-05, 0.0, 0.00012374096007813345]
[6.8999999999999835, 0.5756271241631359, 5.634117126464844, 0.021928757429122925, 0.0, -8.052434730262998e-05, 0.0, 1.0567160026864666e-05, 0.0, 8.328174155758928e-05]
[6.949999999999983, 0.5754863373219967, 5.6339545249938965, 0.022641854360699654, 0.0, -7.715554331251843e-05, 0.0, 0.00013957809804369907, 0.0, 1.0109859203495121e-05]
[6.999999999999983, 0.5753760714892299, 5.634100437164307, 0.02327023632824421, 0.0, 2.8850204749299716e-05, 0.0, 0.00010333972106922829, 0.0, 7.148254092782787e-05]
[7.049999999999983, 0.5751972648326307, 5.6343536376953125, 0.0236770398914814, 0.0, -0.00012472809750225822, 0.0, 9.567824668400971e-05, 0.0, 5.74823306080412e-05]
[7.099999999999983, 0.5750366963423789, 5.635045528411865, 0.02398262545466423, 0.0, -0.0001765581274391317, 0.0, 0.00013435368751629737, 0.0, 8.040432089531505e-05]
[7.149999999999983, 0.574774452354759, 5.635222911834717, 0.023884566500782967, 0.0, -0.00015349073872232238, 0.0, 0.00012781670993478657, 0.0, 7.652886237577418e-05]
[7.199999999999982, 0.5747458519253881, 5.635773658752441, 0.024469157680869102, 0.0, -0.00016214660301123725, 0.0, 7.407385315863596e-05, 0.0, 3.1351247771040994e-05]
[7.249999999999982, 0.5744623506020754, 5.6360015869140625, 0.0239820908755064, 0.0, -0.00018676007803856593, 0.0, 5.33887148648158e-05, 0.0, -9.508826922167716e-05]
[7.299999999999982, 0.5745046741124242, 5.636354446411133, 0.02265356108546257, 0.0, -0.0001393505770074265, 0.0, 5.306321602883413e-05, 0.0, -2.6134741514786467e-05]
[7.349999999999982, 0.5746960099004209, 5.636573791503906, 0.02127903327345848, 0.0, -0.0001627958734116794, 0.0, 6.525666463164728e-05, 0.0, 2.5114208265540132e-05]
[7.399999999999982, 0.5749351103715599, 5.63691520690918, 0.02025282382965088, 0.0, -6.15001959271172e-05, 0.0, 8.521892516542269e-05, 0.0, -1.8547232588891357e-05]
[7.4499999999999815, 0.575063468670845, 5.637197494506836, 0.019765224307775497, 0.0, -4.772688229101035e-05, 0.0, 0.00012183815248740635, 0.0, -9.862652628788233e-05]
[7.499999999999981, 0.5750905631773174, 5.637564659118652, 0.018849745392799377, 0.0, -0.0001437808601280409, 0.0, 2.5919463777995222e-05, 0.0, -7.890075843266158e-05]
[7.549999999999981, 0.5751874024897814, 5.637975692749023, 0.019030045717954636, 0.0, -0.0001977237274538928, 0.0, 9.977740966037652e-05, 0.0, -5.024890845511485e-05]
[7.599999999999981, 0.5750318819247185, 5.6385369300842285, 0.01840471848845482, 0.0, -0.00015601249301411076, 0.0, -1.8428662972117048e-05, 0.0, -3.2198752545663886e-05]
[7.649999999999981, 0.5750103912882507, 5.63897705078125, 0.018615448847413063, 0.0, -0.00013041753887883153, 0.0, -2.1523839015972807e-05, 0.0, 6.744898851471346e-06]
[7.699999999999981, 0.5748399952668697, 5.63969087600708, 0.018130622804164886, 0.0, -0.00019564501648359253, 0.0, 6.025473079812363e-05, 0.0, -2.0236380194546954e-05]
[7.7499999999999805, 0.5747446593090892, 5.640250205993652, 0.01818237081170082, 0.0, -0.00020317130874854166, 0.0, 0.0001364893845201728, 0.0, 4.9550825145372926e-05]
[7.79999999999998, 0.5745754276402295, 5.641158103942871, 0.01757814921438694, 0.0, -9.886661363812165e-05, 0.0, 6.848199473196829e-05, 0.0, 0.00016386355034368343]
[7.84999999999998, 0.5744514525789768, 5.641170978546143, 0.01660546287894249, 0.0, -7.51153167307204e-05, 0.0, 0.00013056600996204972, 0.0, 0.00019049883814139875]
[7.89999999999998, 0.5746608363859356, 5.6409101486206055, 0.015118534676730633, 0.0, -5.600159311031582e-05, 0.0, -3.6533407744656036e-05, 0.0, 0.00027817022610326025]
[7.94999999999998, 0.5750601059501991, 5.640154838562012, 0.013263814151287079, 0.0, -9.97131103005011e-05, 0.0, 2.4343664895676843e-05, 0.0, 0.0002769878776918015]
[7.99999999999998, 0.5756795137748122, 5.639731407165527, 0.013123568147420883, 0.0, -0.00011428286417442154, 0.0, -4.493497255646641e-05, 0.0, 0.00028086916908562305]
[8.04999999999998, 0.5758297623328864, 5.63936185836792, 0.012946284376084805, 0.0, -0.00010329763411787932, 0.0, -6.975185688969279e-05, 0.0, 0.00026856332429427815]
[8.09999999999998, 0.5759729111043737, 5.639159679412842, 0.013461103662848473, 0.0, -0.00020961716515550754, 0.0, -3.494338039770958e-05, 0.0, 0.000248164288453333]
[8.14999999999998, 0.575917240799591, 5.63906717300415, 0.014297272078692913, 0.0, -0.00010614179743582129, 0.0, -2.199532681458232e-05, 0.0, 0.0002469817025568602]
[8.199999999999982, 0.5757602344756946, 5.639148712158203, 0.01546483114361763, 0.0, -3.686505452788947e-05, 0.0, 1.614585576348521e-05, 0.0, 0.0002786746677106935]
[8.249999999999982, 0.575481520537287, 5.639239311218262, 0.015616036020219326, 0.0, -0.00016439442663694325, 0.0, -9.597299922795825e-06, 0.0, 0.0002391420001959015]
[8.299999999999983, 0.5754228305546567, 5.639256000518799, 0.015621066093444824, 0.0, -0.00010932075326192833, 0.0, -5.375315431531697e-05, 0.0, 0.00016715733478823945]
[8.349999999999984, 0.5754170175790787, 5.639162063598633, 0.01551295630633831, 0.0, -0.00015942764938039927, 0.0, 4.99623073114891e-05, 0.0, 0.00016984781215200866]
[8.399999999999984, 0.5754672120150178, 5.6389336585998535, 0.014871605671942234, 0.0, -0.00014354523453403796, 0.0, 6.668073619110813e-07, 0.0, 0.00019311680658398584]
[8.449999999999985, 0.575672146535106, 5.638833045959473, 0.015458150766789913, 0.0, -0.00011017491112614123, 0.0, -1.4307879244586449e-05, 0.0, 0.00022093456164951357]
[8.499999999999986, 0.5755720961077139, 5.638904571533203, 0.014804401434957981, 0.0, -0.00020258333592360905, 0.0, -1.5151860636613367e-05, 0.0, 0.0002345908866205236]
[8.549999999999986, 0.575695075541921, 5.639105796813965, 0.014981145039200783, 0.0, -0.00021139619464318726, 0.0, -9.315345521799372e-05, 0.0, 0.00025499827186921896]
[8.599999999999987, 0.5755995627958328, 5.639316082000732, 0.015504484996199608, 0.0, -0.00016629152699660185, 0.0, -0.00014404786852880913, 0.0, 0.00020206396298593168]
[8.649999999999988, 0.5754255878370256, 5.638779640197754, 0.015505144372582436, 0.0, -5.8101698115266575e-05, 0.0, -3.782539221729852e-05, 0.0, 0.0002099766921130917]
[8.699999999999989, 0.5755768809545785, 5.63792085647583, 0.015072248876094818, 0.0, -7.417503813794071e-05, 0.0, -3.996879222167596e-05, 0.0, 0.00030042422141091514]
[8.74999999999999, 0.5759141197130084, 5.637443542480469, 0.014637216925621033, 0.0, -0.0001804462459372461, 0.0, 5.129154013085664e-05, 0.0, 0.000291651566936344]
[8.79999999999999, 0.5761441374510526, 5.636903762817383, 0.0149077158421278, 0.0, -0.00023562498585635264, 0.0, 1.1896251604139844e-05, 0.0, 0.0003250350968898597]
[8.84999999999999, 0.5762372779872269, 5.636829376220703, 0.015715239569544792, 0.0, -0.00024489429587995146, 0.0, -7.814081568687386e-05, 0.0, 0.00026570330411665243]
[8.899999999999991, 0.5760814296271652, 5.636756420135498, 0.016664685681462288, 0.0, -7.531368867523598e-05, 0.0, 4.364423683635942e-05, 0.0, 0.00019151362267786]
[8.949999999999992, 0.5758940964315088, 5.63694429397583, 0.017079880461096764, 0.0, -9.048802545905464e-05, 0.0, -2.657838546300445e-05, 0.0, 0.00019168505607618797]
[8.999999999999993, 0.575750131989643, 5.637094497680664, 0.017697155475616455, 0.0, -0.0001246788483202361, 0.0, 6.280720630270237e-06, 0.0, 0.00010806412068040131]
[9.049999999999994, 0.5755725462555885, 5.63798189163208, 0.017671605572104454, 0.0, -0.0001985673052934407, 0.0, -1.3820207554446364e-05, 0.0, 0.00011396644271448027]
[9.099999999999994, 0.5753276303719729, 5.6396684646606445, 0.017256949096918106, 0.0, -6.0597981360609505e-05, 0.0, -4.65887128597142e-05, 0.0, 9.238729725455612e-05]
[9.149999999999995, 0.574942320574075, 5.640738010406494, 0.016408072784543037, 0.0, -6.737224525374776e-05, 0.0, -4.546110011933358e-05, 0.0, 2.1243541629694464e-05]
[9.199999999999996, 0.5748262917224318, 5.642279148101807, 0.01611251011490822, 0.0, -1.333242371140749e-06, 0.0, -4.3723218036327974e-05, 0.0, -9.002563316403775e-05]
[9.249999999999996, 0.5744559567756952, 5.642938137054443, 0.015290189534425735, 0.0, -0.00012018065028413881, 0.0, -7.210660869864649e-05, 0.0, -0.00012727914087077205]
[9.299999999999997, 0.5744500124014914, 5.6436262130737305, 0.013430267572402954, 0.0, -0.00017749020244915546, 0.0, -6.588030586278897e-05, 0.0, -9.828059749124557e-05]
[9.349999999999998, 0.5746630914509296, 5.643955707550049, 0.011999597772955894, 0.0, -0.0001084610881795644, 0.0, -3.432133212759505e-05, 0.0, -0.00011851506864775937]
[9.399999999999999, 0.5748833918463438, 5.644145488739014, 0.009667811915278435, 0.0, -7.845379282211647e-05, 0.0, -1.58465746727276e-05, 0.0, -5.116565118847692e-05]
[9.45, 0.5753404777195305, 5.644106864929199, 0.008656102232635021, 0.0, -7.126386611210522e-05, 0.0, -6.706663595797821e-05, 0.0, -2.9753284587984493e-05]
[9.5, 0.57557294564154, 5.643738746643066, 0.00794766191393137, 0.0, -4.967250559195517e-05, 0.0, -9.627699730879193e-05, 0.0, -4.98151825228363e-05]
[9.55, 0.5758320138635113, 5.643695831298828, 0.007986379787325859, 0.0, -0.00013799814941774515, 0.0, -5.6123969792462337e-05, 0.0, -2.705440356322624e-05]
[9.600000000000001, 0.5758356496509164, 5.64393949508667, 0.0073590874671936035, 0.0, -0.00014068274400257886, 0.0, -5.415291266738892e-06, 0.0, -0.00010865419171534605]
[9.650000000000002, 0.5759042403817177, 5.643857955932617, 0.006949954200536013, 0.0, -0.00016246439441714515, 0.0, -0.000129131258740795, 0.0, -0.00013174055534053125]
[9.700000000000003, 0.5760168590703049, 5.644050598144531, 0.0067421989515423775, 0.0, -0.000308133826234909, 0.0, -0.00012240324350501567, 0.0, -0.00011908813247952958]
[9.750000000000004, 0.5760079745734111, 5.64408540725708, 0.007282897364348173, 0.0, -0.00014550383556861493, 0.0, -8.333363907544291e-05, 0.0, -7.526820683868106e-05]
[9.800000000000004, 0.5758797350085341, 5.64403772354126, 0.008185439743101597, 0.0, -7.832111236389453e-06, 0.0, -1.866107560633515e-05, 0.0, -6.060709354540597e-05]
[9.850000000000005, 0.5756955393405632, 5.6443986892700195, 0.008105778135359287, 0.0, -7.579964943771343e-05, 0.0, -7.082812641088977e-05, 0.0, -2.2672319556875935e-05]
[9.900000000000006, 0.5756110846074298, 5.644288539886475, 0.008141865022480488, 0.0, -0.0001521567903670693, 0.0, -0.00011658904949389644, 0.0, -3.3961489138496426e-05]
[9.950000000000006, 0.575634276750125, 5.644001007080078, 0.007614173460751772, 0.0, -0.0001603914323323008, 0.0, -2.185837996537592e-05, 0.0, 4.232214227791526e-07]
[10.000000000000007, 0.5758310117133892, 5.643547534942627, 0.007722539361566305, 0.0, -0.00015133461269556742, 0.0, -0.00012521489338100392, 0.0, 5.488467004735089e-05]
[10.050000000000008, 0.5759352947655134, 5.643333435058594, 0.007684431970119476, 0.0, -6.932442533631389e-06, 0.0, -9.278231894397844e-05, 0.0, 9.61794274240255e-05]
[10.100000000000009, 0.5760040806815028, 5.642604827880859, 0.007918745279312134, 0.0, -0.00011746691293157199, 0.0, -0.00015158150014058313, 0.0, 0.00022077408898243738]
[10.15000000000001, 0.576158451873064, 5.641818523406982, 0.007776316720992327, 0.0, -0.00010282114535745219, 0.0, -0.00015759484788787224, 0.0, 0.00025651381425110614]
[10.20000000000001, 0.5764116174803116, 5.640738487243652, 0.009380461648106575, 0.0, -0.0001778016770738723, 0.0, 4.25551798373783e-06, 0.0, 0.0002731954851904475]
[10.25000000000001, 0.5763652039501816, 5.638768196105957, 0.009074835106730461, 0.0, -0.0001451673798714955, 0.0, -1.6268776833508064e-05, 0.0, 0.00025026915973428067]
[10.300000000000011, 0.5769883493509144, 5.636111259460449, 0.009001676924526691, 0.0, -0.00013986664263940712, 0.0, -5.659873627652575e-05, 0.0, 0.00015940333487795183]
[10.350000000000012, 0.5777544242078438, 5.634354591369629, 0.009741930291056633, 0.0, -0.00012982272781378215, 0.0, -7.214470773529782e-05, 0.0, 0.00017019365262722327]
[10.400000000000013, 0.5780882161226123, 5.6318159103393555, 0.010858017951250076, 0.0, -0.00021363400602069125, 0.0, -0.00010007913907870125, 0.0, 0.0002047600743788092]
[10.450000000000014, 0.5785604625798761, 5.630204200744629, 0.012606059201061726, 0.0, -0.0001951026897123801, 0.0, -6.162719636520068e-05, 0.0, 0.0002497682285408719]
[10.500000000000014, 0.5786326271647587, 5.628259181976318, 0.015878072008490562, 0.0, -0.00015966595997394219, 0.0, -3.5946790158750494e-05, 0.0, 0.00026628665039176347]
[10.550000000000015, 0.578465135158226, 5.627068519592285, 0.018868185579776764, 0.0, -9.807336949137941e-05, 0.0, 3.802545425943138e-05, 0.0, 0.0002322272637956673]
[10.600000000000016, 0.5781464242771267, 5.6259050369262695, 0.02344615012407303, 0.0, -8.836005195159475e-05, 0.0, -5.6147811949642825e-05, 0.0, 0.00022978710161452605]
[10.650000000000016, 0.5774723011985421, 5.624682426452637, 0.02549665793776512, 0.0, -8.726828425766926e-05, 0.0, -0.00016613723311976997, 0.0, 0.0001684260583892372]
[10.700000000000017, 0.57736838292405, 5.623211860656738, 0.02824864536523819, 0.0, -0.0001131382505943813, 0.0, -0.00013612821033097937, 0.0, 0.00023215254518197466]
[10.750000000000018, 0.5771808384016156, 5.622550010681152, 0.02992907539010048, 0.0, -7.372350267107134e-05, 0.0, -9.527137400740162e-05, 0.0, 0.0001829208370272409]
[10.800000000000018, 0.5769996644742788, 5.621890544891357, 0.03186699002981186, 0.0, -0.00020414541695370426, 0.0, -2.848258695200055e-05, 0.0, 6.710068559113648e-05]
[10.85000000000002, 0.5767614283606409, 5.6218438148498535, 0.0324290469288826, 0.0, -0.00023144161677020916, 0.0, -0.0001405592560238766, 0.0, 9.661683585287294e-05]
[10.90000000000002, 0.5766515297904611, 5.622172832489014, 0.03461826965212822, 0.0, -0.000138644529460635, 0.0, -0.00015077789439514141, 0.0, 0.0001306656846989313]
[10.95000000000002, 0.5760792083345353, 5.622363567352295, 0.03580300882458687, 0.0, -3.15024411877406e-05, 0.0, -5.606940311938517e-05, 0.0, 0.00011986651213033415]
[11.000000000000021, 0.5757659060038626, 5.62255334854126, 0.03534884378314018, 0.0, -7.717117654605535e-05, 0.0, -2.350527938983833e-05, 0.0, 7.67081660640374e-05]
[11.050000000000022, 0.5758117929182947, 5.6219892501831055, 0.03539229929447174, 0.0, -9.058977140243926e-05, 0.0, -0.0001074031417114762, 0.0, 7.60377807911301e-05]
[11.100000000000023, 0.5759615211278201, 5.621024131774902, 0.034679606556892395, 0.0, -0.00011569012985010136, 0.0, -0.0001692376096465893, 0.0, 0.00014600646273491948]
[11.150000000000023, 0.5763900537639857, 5.620419979095459, 0.03388861566781998, 0.0, -8.271842132546063e-05, 0.0, -8.371054286346766e-05, 0.0, 0.0001835951369415786]
[11.200000000000024, 0.5767338330700993, 5.619584560394287, 0.0338619202375412, 0.0, -0.00019149737739202136, 0.0, -8.974376389836066e-05, 0.0, 0.00020888837688296552]
[11.250000000000025, 0.5769755180686713, 5.619311809539795, 0.0340949147939682, 0.0, -0.00015112741201193995, 0.0, -7.180857104987496e-05, 0.0, 0.00021124543368797137]
[11.300000000000026, 0.5770014898270369, 5.619536399841309, 0.035150472074747086, 0.0, -0.00010694093560496765, 0.0, -4.8741104009964276e-05, 0.0, 0.00021031537423889392]
[11.350000000000026, 0.576706920940429, 5.619917392730713, 0.03686215355992317, 0.0, -0.00013494172603537822, 0.0, -9.866360740876969e-05, 0.0, 0.00017525324819150177]
[11.400000000000027, 0.5762245084024966, 5.620892524719238, 0.03925175592303276, 0.0, -7.280398825514245e-05, 0.0, -0.0001429862300702947, 0.0, 0.00024707002351330264]
[11.450000000000028, 0.5754259057246148, 5.622280120849609, 0.04006356745958328, 0.0, -9.144278845767198e-05, 0.0, -0.00011299250625110375, 0.0, 0.00024698570142002966]
[11.500000000000028, 0.5748564006105066, 5.6254048347473145, 0.04155087471008301, 0.0, -0.00018943064367193114, 0.0, -7.842784311854213e-05, 0.0, 0.0003572441186112766]
[11.55000000000003, 0.5736485735893249, 5.626420974731445, 0.04166305810213089, 0.0, -9.896115717789748e-05, 0.0, -0.00016921152501642815, 0.0, 0.00031223222925977725]
[11.60000000000003, 0.5733371491089464, 5.6286301612854, 0.039610713720321655, 0.0, -0.00015172077846797424, 0.0, -4.833334103853394e-05, 0.0, 0.00021090649936217416]
[11.65000000000003, 0.573162959164381, 5.63021993637085, 0.03769771009683609, 0.0, -0.00014630808271704764, 0.0, -0.00010770659089800703, 0.0, 0.00019523206773967332]
[11.700000000000031, 0.573133113451302, 5.6321635246276855, 0.03377654030919075, 0.0, -0.00016299826838814653, 0.0, -0.000132030033010629, 0.0, 0.00010689516087481031]
[11.750000000000032, 0.5734431746698916, 5.633346080780029, 0.03086402453482151, 0.0, -0.00011809613666642601, 0.0, -8.43529363572291e-05, 0.0, 0.00010655220665487315]
[11.800000000000033, 0.5737471800226718, 5.635190010070801, 0.027345677837729454, 0.0, -0.00010574323590702724, 0.0, -5.6188745727114206e-05, 0.0, 0.00011986859975869763]
[11.850000000000033, 0.5739971567105502, 5.636664390563965, 0.025141270831227303, 0.0, -3.7097057471530946e-05, 0.0, -8.025880152496747e-05, 0.0, 0.00011750689430183682]
[11.900000000000034, 0.5740637042317539, 5.638749122619629, 0.022193774580955505, 0.0, -0.00014491973793459489, 0.0, -0.00010012729370858709, 0.0, 8.716693202041396e-05]
[11.950000000000035, 0.5741206860512494, 5.639947891235352, 0.020422717556357384, 0.0, -0.00019673952466698082, 0.0, -0.0001400182501054701, 0.0, 1.3332176796458094e-05]
[12.000000000000036, 0.574170135159418, 5.641748428344727, 0.018114369362592697, 0.0, -0.00014441780296702144, 0.0, -3.453760548022133e-05, 0.0, 1.939004293444659e-05]
[12.050000000000036, 0.5741673717878759, 5.642917633056641, 0.016390806064009666, 0.0, -0.00015764873832524744, 0.0, -8.312150964569479e-05, 0.0, 4.383927150013542e-05]
[12.100000000000037, 0.5742147656600922, 5.6445231437683105, 0.014327493496239185, 0.0, -0.00015494216477105513, 0.0, -1.5824782531159924e-06, 0.0, 0.00015425757747713708]
[12.150000000000038, 0.5742133954385296, 5.645310401916504, 0.01312966924160719, 0.0, -0.00014692021211639913, 0.0, -8.411030790944055e-05, 0.0, 7.755637476339037e-05]
[12.200000000000038, 0.574253475975059, 5.64643669128418, 0.011076544411480427, 0.0, -0.00012992103744867572, 0.0, -9.855881136218507e-05, 0.0, 7.165604005591023e-05]
[12.250000000000039, 0.5743851588243618, 5.64700984954834, 0.009843090549111366, 0.0, -0.00016520911440721518, 0.0, -2.71241272360999e-05, 0.0, 2.6807634426845002e-05]
[12.30000000000004, 0.5744934826422482, 5.647121906280518, 0.008454722352325916, 0.0, -0.00012136013566510146, 0.0, -0.00011553765154341564, 0.0, -2.7978494697028376e-05]
[12.35000000000004, 0.5747659016618505, 5.646841526031494, 0.006889358162879944, 0.0, -0.00018216474160413648, 0.0, -0.0001314304371158752, 0.0, 1.5016248057372742e-05]
[12.400000000000041, 0.5751878677636385, 5.6462883949279785, 0.004206327721476555, 0.0, -0.00013869342681907155, 0.0, -0.00016191522661634485, 0.0, 6.576030752492417e-05]
[12.450000000000042, 0.5759316003408284, 5.646039009094238, 0.0031957917381078005, 0.0, -0.00014607679532219978, 0.0, -0.0001173883927870931, 0.0, 0.00014431937321619293]
[12.500000000000043, 0.576223309342051, 5.645832538604736, 0.002148371422663331, 0.0, -0.00017198678817964826, 0.0, -0.00013109132544697813, 0.0, 0.00016994735435860197]
[12.550000000000043, 0.5765109810103196, 5.645466327667236, 0.0030647204257547855, 0.0, -0.00017678225791580823, 0.0, -0.00010075361311157417, 0.0, 0.00025440728631911203]
[12.600000000000044, 0.5764136819262989, 5.645183563232422, 0.004264217335730791, 0.0, -4.239090329579544e-05, 0.0, 4.072350028615934e-06, 0.0, 0.00028221521427035395]
[12.650000000000045, 0.5762308165029623, 5.645108699798584, 0.004731607157737017, 0.0, -5.669725976359792e-05, 0.0, -0.00013186336414993093, 0.0, 0.0003100359586143575]
[12.700000000000045, 0.5761495920793154, 5.644732475280762, 0.006024541798979044, 0.0, -0.00013434180525514873, 0.0, -0.00020915855380834955, 0.0, 0.00033280556783488256]
[12.750000000000046, 0.5759726475742646, 5.644717693328857, 0.007015005685389042, 0.0, -9.478645130229569e-05, 0.0, -0.00024122920717589398, 0.0, 0.0002918362146428353]
[12.800000000000047, 0.5757599089281633, 5.644617557525635, 0.0079665407538414, 0.0, -0.0001058855744681101, 0.0, -0.0002609204898976885, 0.0, 0.000282734876624316]
[12.850000000000048, 0.5755797910854221, 5.64459228515625, 0.008254780434072018, 0.0, -0.00020532443722673567, 0.0, -0.000184392327619536, 0.0, 0.00029909297004799293]
[12.900000000000048, 0.5755238009853288, 5.645229816436768, 0.009300277568399906, 0.0, -0.00023643636409794792, 0.0, -0.00017584541121328366, 0.0, 0.00023975206540953446]
[12.950000000000049, 0.5751148620324209, 5.646056652069092, 0.009717746637761593, 0.0, -0.00015659962915669096, 0.0, -0.00016998419842566704, 0.0, 0.00021749105091212857]
[13.00000000000005, 0.5747900206072255, 5.647189140319824, 0.009863704442977905, 0.0, -0.00020530701246842736, 0.0, -0.00011512026465237873, 0.0, 0.00016539605350904553]
[13.05000000000005, 0.5744383544147015, 5.647374629974365, 0.009533691219985485, 0.0, -0.00016676443870557194, 0.0, -7.124299891335037e-05, 0.0, 0.00021495487065594375]
[13.100000000000051, 0.5744582635810599, 5.6478705406188965, 0.008732146583497524, 0.0, -0.00015263181203621523, 0.0, -7.209206345503287e-05, 0.0, 0.0002707568595846698]
[13.150000000000052, 0.5744938062814995, 5.648044586181641, 0.007377923466265202, 0.0, -0.0002629743899685721, 0.0, -0.00013524148333202997, 0.0, 0.00022019292202286067]
[13.200000000000053, 0.5747412480818108, 5.648565769195557, 0.005725695285946131, 0.0, -6.28936800648261e-05, 0.0, -0.0001970735788912516, 0.0, 0.0001594898744977769]
[13.250000000000053, 0.5749559560884722, 5.649174213409424, 0.004518053960055113, 0.0, -3.359447224407593e-05, 0.0, -0.00011608133077305528, 0.0, 0.00011885606454014942]
[13.300000000000054, 0.5750486657372675, 5.650010108947754, 0.0028273018542677164, 0.0, -0.0002463958709506231, 0.0, -5.726888670994351e-05, 0.0, 8.767250175529614e-05]
[13.350000000000055, 0.5751829671379646, 5.650423526763916, 0.0018410708289593458, 0.0, -0.00016250553089671558, 0.0, -7.62263895098892e-05, 0.0, 5.715731633069691e-05]
[13.400000000000055, 0.5752822438830044, 5.651129722595215, 0.0009666673140600324, 0.0, -5.108560509951151e-05, 0.0, -1.7076537220443553e-05, 0.0, 8.884598681636047e-05]
[13.450000000000056, 0.5752743791695917, 5.651824474334717, 0.0010813119588419795, 0.0, -0.00021123253486451197, 0.0, -4.034445811118762e-05, 0.0, 0.00012931078339551913]
[13.500000000000057, 0.5750531435763231, 5.652434349060059, 0.0004021562053821981, 0.0, -0.00017040830525621073, 0.0, -0.00012385040182169604, 0.0, 0.00012779978849468778]
[13.550000000000058, 0.5750297110513667, 5.653008937835693, 7.367797661572695e-05, 0.0, -0.00020417908700097408, 0.0, -0.00012001147264847276, 0.0, 0.00014179425249604468]
[13.600000000000058, 0.574939441372105, 5.653544902801514, -0.0010961821535602212, 0.0, -6.951501917396083e-05, 0.0, -4.855468819844e-05, 0.0, 9.120746162696019e-05]
[13.650000000000059, 0.5750443378307624, 5.65368127822876, -0.0012928328942507505, 0.0, -7.194992955844076e-05, 0.0, -7.980700882297314e-05, 0.0, 0.0001276235195985223]
[13.70000000000006, 0.575048905559862, 5.653964519500732, -0.001958186272531748, 0.0, -8.130164138920928e-05, 0.0, -6.697433531610209e-05, 0.0, 6.339157844215353e-05]
[13.75000000000006, 0.5751146589386277, 5.654038906097412, -0.0027090618386864662, 0.0, -6.300159585238614e-05, 0.0, -9.430616631675033e-05, 0.0, 0.00010638161808121304]
[13.800000000000061, 0.5752581013513729, 5.654027938842773, -0.0036171788815408945, 0.0, -8.50966117516332e-05, 0.0, -9.231874846572094e-05, 0.0, 9.795319728695734e-05]
[13.850000000000062, 0.5754600750397425, 5.654070854187012, -0.0039385543204844, 0.0, -0.00020353737997552354, 0.0, -9.522812812331399e-05, 0.0, 0.00016151640353458157]
[13.900000000000063, 0.5755183412591928, 5.654043197631836, -0.00443617906421423, 0.0, -7.742459166049357e-05, 0.0, -0.000170954110897032, 0.0, 0.00021242673735750263]
[13.950000000000063, 0.5756351285235957, 5.653836250305176, -0.004464632365852594, 0.0, -7.798539201378125e-05, 0.0, -0.0001436013331146312, 0.0, 0.00022372105533671332]
[14.000000000000064, 0.5756997810269706, 5.653569221496582, -0.006039044354110956, 0.0, -7.833563840625017e-05, 0.0, -0.00016984729057241898, 0.0, 0.0002045031643098413]
[14.050000000000065, 0.5761199594850651, 5.6532745361328125, -0.006287076510488987, 0.0, -0.00012184870539364642, 0.0, -8.608895705532772e-05, 0.0, 0.00024125380874886354]
[14.100000000000065, 0.5762574682055042, 5.652679920196533, -0.00615316117182374, 0.0, -4.139168798607178e-05, 0.0, -6.626078346495287e-05, 0.0, 0.00014793680562279839]
[14.150000000000066, 0.5763960008251481, 5.651998043060303, -0.004656168166548014, 0.0, -6.122757488749602e-05, 0.0, -0.00010624437294282648, 0.0, 0.0001745754942613702]
[14.200000000000067, 0.5762606532725505, 5.651603698730469, -0.0038490809965878725, 0.0, -8.205665620475113e-05, 0.0, -0.00013951126694890784, 0.0, 0.00016732870792315763]
[14.250000000000068, 0.5761952245866415, 5.651390552520752, -0.0035642615985125303, 0.0, -9.98950828361604e-05, 0.0, -9.465413244776394e-05, 0.0, 0.00014709722509674154]
[14.300000000000068, 0.576193020313466, 5.651355743408203, -0.0027988371439278126, 0.0, -0.00015070259027453024, 0.0, -7.79088808577541e-05, 0.0, 0.00016412569415963458]
