time, uz, alt, vel_alt, uthe, roll, uphi, pitch, upsi, yaw, F
[0.0, 0.0, -0.053771283477544785, -0.034518465399742126, 0.0, -0.0014828511615563218, 0.0, 0.02308714156372604, 0.0, -0.07939456536748747, array([[ 6.93656115]])]
[0.05, -6.937556868798003, -0.053771283477544785, -0.034518465399742126, 0.0, -0.0014828511615563218, 0.0, 0.02308714156372604, 0.0, -0.07939456536748747, array([[ 16.26060462]])]
[0.1, -16.261225298046696, -0.05424981191754341, -0.034511566162109375, 0.0, -0.0014663198647768515, 0.0, 0.023160060051310622, 0.0, -0.07936695466621799, array([[ 36.18177954]])]
[0.15000000000000002, -36.18304712593085, -0.05455261096358299, -0.03410528972744942, 0.0, -0.001491320916282438, 0.0, 0.023160195418449183, 0.0, -0.0793803238184136, array([[-675.28130211]])]
[0.2, 675.4909861323092, -0.055345624685287476, -0.03389403596520424, 0.0, -0.0015367250449567508, 0.0, 0.023169653503427572, 0.0, -0.07943316831195169, array([[-2592.00852247]])]
[0.25, 2592.357615971227, -0.05322345346212387, 0.1979338377714157, 0.0, -0.0017019270037758824, 0.0, 0.022479174108797163, 0.0, -0.07910423432546118, array([[-4515.96790393]])]
[0.3, 4516.589223971846, -0.0410163477063179, 0.5833984017372131, 0.0, -0.002424812586479041, 0.0, 0.016325358614367916, 0.0, -0.0754692032271673, array([[-367.0742998]])]
[0.35, 367.84159285562964, 0.04286368191242218, 1.644435167312622, 0.0, -0.002230863550208679, 0.0, 0.00993498219085662, 0.0, -0.06417800738610864, array([[ -5.05026590e-09]])]
[0.39999999999999997, 0.5795166627668605, 0.19093263149261475, 2.55047869682312, 0.0, -0.0012298356540054558, 0.0, 0.005578741124085369, 0.0, -0.051708240791484346, array([[ -2.64086641e-16]])]
[0.44999999999999996, 0.7301904113590719, 0.27533572912216187, 2.6450164318084717, 0.0, -0.0002739353775404742, 0.0, 0.0036158321658490843, 0.0, -0.04441494335180645, array([[ -5.36572480e-30]])]
[0.49999999999999994, 0.5709247257560491, 0.3504369556903839, 2.6617820262908936, 0.0, 0.0005046687486733689, 0.0, 0.00245952322930201, 0.0, -0.03785307966095639, array([[ -2.42036535e-30]])]
[0.5499999999999999, 0.5379229114949703, 0.5503195524215698, 2.8051657676696777, 0.0, 0.0007665405985057609, 0.0, 0.0014455427203149658, 0.0, -0.02952953714705145, array([[ -2.48652153e-34]])]
[0.6, 0.3318873451650143, 0.6292693018913269, 2.7858145236968994, 0.0, 0.000916630605944485, 0.0, 0.0010113432061856795, 0.0, -0.024934348039513807, array([[ -9.95371378e-34]])]
[0.65, 0.3140047213435173, 0.8252713680267334, 2.5611186027526855, 0.0, 0.0010245205443550549, 0.0, 0.000712760854332603, 0.0, -0.019209118330745217, array([[ -7.78314199e-28]])]
[0.7000000000000001, 0.935346598625183, 0.9874274134635925, 2.248842716217041, 0.0, 0.000953871178755866, 0.0, 0.00041949185605918824, 0.0, -0.014396614388631355, array([[ -4.72031341e-22]])]
[0.7500000000000001, 1.5597119843959808, 1.0642286539077759, 2.5417673587799072, 0.0, 0.0008944484809309152, 0.0, 0.00026489633126809974, 0.0, -0.011679768258781621, array([[ -1.58823941e-27]])]
[0.8000000000000002, 1.7449798253178594, 1.1404081583023071, 2.8761792182922363, 0.0, 0.0008913676315116286, 0.0, 0.00016713676927477644, 0.0, -0.009612731981858058, array([[ -1.19191137e-36]])]
[0.8500000000000002, 1.7485355514287948, 1.3829106092453003, 3.8199758529663086, 0.0, 0.0006599068356703427, 0.0, 0.000299152249462563, 0.0, -0.0077579760699950364, array([[ -2.68587349e-69]])]
[0.9000000000000002, 0.8192983442544937, 1.495405673980713, 4.172934532165527, 0.0, 0.00047355492759262044, 0.0, 0.00010730277956204013, 0.0, -0.006857617149212033, array([[ -5.77922767e-84]])]
[0.9500000000000003, 0.41293399214744564, 1.8262442350387573, 4.8790693283081055, 0.0, 0.00023465090356291395, 0.0, 0.00019230947281531, 0.0, -0.005741987581156179, array([[ -7.25228276e-118]])]
[1.0000000000000002, -0.8629729443788527, 1.9646326303482056, 4.907363414764404, 0.0, 3.0231192934071255e-05, 0.0, 0.0002336988032556257, 0.0, -0.005087295080803666, array([[ -1.40745936e-119]])]
[1.0500000000000003, -1.2462539678812026, 2.3067989349365234, 4.44914436340332, 0.0, 2.0738878377151895e-05, 0.0, 0.00030800266712896577, 0.0, -0.01424372817752329, array([[ -2.43958362e-98]])]
[1.1000000000000003, -1.0572213673591613, 2.428494453430176, 4.183992385864258, 0.0, 7.67053330414192e-05, 0.0, 0.00036009945128250763, 0.0, -0.013475952805687171, array([[ -8.10801093e-87]])]
[1.1500000000000004, -0.7435794675350188, 2.7073848247528076, 3.492124319076538, 0.0, 6.745852761321675e-05, 0.0, 0.0005531956597774852, 0.0, -0.012046635013772612, array([[ -1.46809052e-60]])]
[1.2000000000000004, 0.23840919137001038, 2.802548885345459, 3.222835063934326, 0.0, 0.00015039516259767157, 0.0, 0.0006971835403327644, 0.0, -0.010974114868122165, array([[ -1.23459171e-51]])]
[1.2500000000000004, 0.6856493902206421, 3.013963222503662, 2.6043100357055664, 0.0, 0.00020790057486212208, 0.0, 0.0008281936780396382, 0.0, -0.009319459097824724, array([[ -2.29575024e-34]])]
[1.3000000000000005, 1.0544081020355225, 3.192251205444336, 2.7245006561279297, 0.0, 7.166280613516203e-05, 0.0, 0.0007321026573231344, 0.0, -0.007060850425528273, array([[ -6.08404077e-33]])]
[1.3500000000000005, 0.8200661611557006, 3.286999225616455, 3.132272243499756, 0.0, -6.992730831357423e-06, 0.0, 0.0006969722735082306, 0.0, -0.0056300705218655725, array([[ -6.37657273e-51]])]
[1.4000000000000006, -0.2721613961458206, 3.3809032440185547, 3.4719345569610596, 0.0, 0.00010137816970843316, 0.0, 0.000568589987717478, 0.0, -0.003985969916330406, array([[ -9.30726909e-63]])]
[1.4500000000000006, -0.948057065606117, 3.6445367336273193, 3.5101025104522705, 0.0, -0.00011118686506931588, 0.0, 0.0004870088739643029, 0.0, -0.001961878810173742, array([[ -1.42860255e-65]])]
[1.5000000000000007, -1.4713316345214842, 3.740748882293701, 3.2548301219940186, 0.0, -0.00024471036320362986, 0.0, 0.00044942459014623995, 0.0, -0.000703738814488818, array([[ -3.22716895e-57]])]
[1.5500000000000007, -1.5194093245267866, 3.9538631439208984, 2.5675771236419678, 0.0, -0.00035850862040201964, 0.0, 0.0005458814771428171, 0.0, 0.0009060594212592083, array([[ -2.68634244e-38]])]
[1.6000000000000008, -1.0462714278697967, 4.109479904174805, 1.9133403301239014, 0.0, -0.00042118892662208323, 0.0, 0.000599200621146689, 0.0, 0.0024134558374465753, array([[ -3.95130039e-32]])]
[1.6500000000000008, -0.6691223806142806, 4.180050373077393, 1.5286945104599, 0.0, -0.0004360166324938838, 0.0, 0.0007015042347306311, 0.0, 0.0032653864470693263, array([[ -7.42210390e-19]])]
[1.7000000000000008, 0.20138650953769682, 4.209506988525391, 1.3360267877578735, 0.0, -0.0005121370489935405, 0.0, 0.0006896876984305375, 0.0, 0.004106952438359139, array([[ -2.12673635e-16]])]
[1.7500000000000009, 0.3664821758866312, 4.284202575683594, 0.6948435306549072, 0.0, -0.0005658900414707445, 0.0, 0.0009352823092763538, 0.0, 0.005124629708683941, array([[ -2.82133819e-11]])]
[1.800000000000001, 0.6742793232484664, 4.319766998291016, 0.33656907081604004, 0.0, -0.00031180700507732137, 0.0, 0.0009201289324158007, 0.0, 0.00567451654002982, array([[ -1.55774674e-10]])]
[1.850000000000001, 0.5675584457882324, 4.332205772399902, 0.39323246479034424, 0.0, -6.991352705275556e-05, 0.0, 0.0008044062700630767, 0.0, 0.005556367085952227, array([[ -1.82339888e-10]])]
[1.900000000000001, 0.2946354849969837, 4.3661627769470215, 0.46512681245803833, 0.0, 0.0001495579131998216, 0.0, 0.0006702922669753088, 0.0, 0.004939750301232262, array([[ -1.21879482e-10]])]
[1.950000000000001, -0.07191949413077245, 4.380545616149902, 0.33323588967323303, 0.0, 0.0002760419136600827, 0.0, 0.0005015879105652422, 0.0, 0.004280506444080777, array([[ -1.09800799e-10]])]
[2.000000000000001, -0.2751364608501105, 4.387405872344971, -0.24971839785575867, 0.0, 0.0002632290046923481, 0.0, 0.0005081611778215949, 0.0, 0.003515621582879036, array([[ -1.33965308e-10]])]
[2.0500000000000007, -0.1576000242458245, 4.37578010559082, -0.5554022789001465, 0.0, 0.00020757158872400486, 0.0, 0.0006094264560379206, 0.0, 0.0028464938169367976, array([[ -1.44365466e-13]])]
[2.1000000000000005, 0.8340170750023378, 4.318933010101318, -1.18871009349823, 0.0, 0.0002052135046787211, 0.0, 0.0007497695405113013, 0.0, 0.0020328198837002037, array([[ -7.15747752e-16]])]
[2.1500000000000004, 1.4745376438647513, 4.2826666831970215, -1.0896377563476562, 0.0, 0.0001542799106695035, 0.0, 0.0008830056800905689, 0.0, 0.0015316848331321153, array([[ -1.35897432e-18]])]
[2.2, 1.9567554828524587, 4.256556987762451, -0.8325207829475403, 0.0, 7.47046400509886e-05, 0.0, 0.0007729327241519647, 0.0, 0.0011446531185210183, array([[ -2.76624582e-15]])]
[2.25, 1.582168628275397, 4.239007472991943, 0.3037113547325134, 0.0, 1.4803707557102385e-05, 0.0, 0.0006357376283508158, 0.0, 0.00077618110755685, array([[ -1.01458898e-09]])]
[2.3, 0.0382492856396424, 4.299896717071533, 1.2886312007904053, 0.0, 7.737968572812917e-05, 0.0, 0.0005461361751804733, 0.0, 0.0005278682574514798, array([[ -2.17129101e-11]])]
[2.3499999999999996, -0.7299473232558796, 4.340909957885742, 1.1354042291641235, 0.0, 6.553852894995755e-05, 0.0, 0.0006344881304403537, 0.0, 0.00042797991031914406, array([[ -4.23657115e-15]])]
[2.3999999999999995, -1.4892893911898093, 4.370863437652588, 0.8937063813209534, 0.0, 2.2897818000093094e-05, 0.0, 0.0006610660575822971, 0.0, 0.0003713213216044708, array([[ -4.33014531e-13]])]
[2.4499999999999993, -1.3630839017029246, 4.413139343261719, 0.2101801335811615, 0.0, -0.00013887338601845374, 0.0, 0.000820659413240112, 0.0, 0.00022306844443437414, array([[ -7.93619811e-11]])]
[2.499999999999999, -0.15391780457905094, 4.415940761566162, -0.05801650509238243, 0.0, -0.00019647219671935578, 0.0, 0.0009382938912991484, 0.0, 6.220087143217259e-05, array([[ -4.02894792e-11]])]
[2.549999999999999, 0.6163307054929998, 4.388125419616699, -0.748945951461792, 0.0, -0.0002824105987386223, 0.0, 0.0011458141541034153, 0.0, -0.00026661420800949, array([[ -2.12310528e-15]])]
[2.5999999999999988, 1.6791216672211906, 4.33110237121582, -0.8017511367797852, 0.0, -0.0002809596259914922, 0.0, 0.0013396368179965147, 0.0, -0.0003873492257582808, array([[ -1.75847810e-16]])]
[2.6499999999999986, 1.7780795302242043, 4.312422752380371, -0.3643013834953308, 0.0, -0.00014864469409200717, 0.0, 0.001076061294592552, 0.0, -0.00043899731176383984, array([[ -7.83957292e-12]])]
[2.6999999999999984, 0.8947687415111975, 4.309576511383057, 0.08894071727991104, 0.0, -7.531980691659657e-05, 0.0, 0.0008580108798663558, 0.0, -0.0003640125292411796, array([[ -3.97862942e-10]])]
[2.7499999999999982, 0.13703522226512627, 4.358963489532471, 1.146314024925232, 0.0, -0.00010979736217467893, 0.0, 0.0007792351474245203, 0.0, -0.0002986953630111664, array([[ -2.38943055e-15]])]
[2.799999999999998, -1.3470472861453866, 4.394698619842529, 1.2396743297576904, 0.0, 3.861367157468551e-05, 0.0, 0.0006199203848200103, 0.0, -0.00032561459931357777, array([[ -1.60032947e-16]])]
[2.849999999999998, -1.71483536042273, 4.474019527435303, 0.6004713177680969, 0.0, 0.00014001001524007348, 0.0, 0.0004657166962445028, 0.0, -0.0003981708237828373, array([[ -3.85511721e-12]])]
[2.8999999999999977, -0.9569850629157018, 4.484720706939697, 0.41018521785736084, 0.0, 0.00024123703843351589, 0.0, 0.0003993999295220515, 0.0, -0.0004141710533027757, array([[ -1.65940924e-11]])]
[2.9499999999999975, -0.30386817017773365, 4.491716384887695, -0.27915412187576294, 0.0, 0.0004258487055023573, 0.0, 0.00042987560932511074, 0.0, -0.0005041533625413077, array([[ -1.33840589e-12]])]
[2.9999999999999973, 1.0288395963250074, 4.481074810028076, -0.5476546287536621, 0.0, 0.0005394860736678864, 0.0, 0.000424439485904549, 0.0, -0.0005447600097225888, array([[ -3.38648188e-14]])]
[3.049999999999997, 1.4786908826977354, 4.435975551605225, -0.35007068514823914, 0.0, 0.0005692556923413003, 0.0, 0.0005708821420924871, 0.0, -0.0005401601505939801, array([[ -1.32614085e-12]])]
[3.099999999999997, 1.0455084978802351, 4.452417373657227, 0.7458527684211731, 0.0, 0.0003109402976307969, 0.0, 0.00043538039205806036, 0.0, -0.00048529541757402766, array([[ -1.12957656e-12]])]
[3.149999999999997, 0.2990593216952056, 4.485648155212402, 1.2471212148666382, 0.0, 0.0003186895499468747, 0.0, 0.0005301233541589629, 0.0, -0.0004844356969055133, array([[ -2.55065703e-17]])]
[3.1999999999999966, -1.2735076612979173, 4.527076721191406, 1.5551083087921143, 0.0, 0.0002331771690498006, 0.0, 0.0006469432398791713, 0.0, -0.0003300186939899119, array([[ -1.50345625e-21]])]
[3.2499999999999964, -1.8983699800819158, 4.641026973724365, 1.0748146772384644, 0.0, 9.587366612912332e-05, 0.0, 0.0005324602593219612, 0.0, -0.00024914664691250463, array([[ -1.26952627e-16]])]
[3.2999999999999963, -1.4191882283240553, 4.690576553344727, 0.5038150548934937, 0.0, -8.262631859446195e-05, 0.0, 0.0006031448698698902, 0.0, -0.00017248982445170114, array([[ -4.31405392e-15]])]
[3.349999999999996, -0.7720895508304194, 4.702792167663574, 0.19704583287239075, 0.0, -0.00010626789134115334, 0.0, 0.0006385220103779829, 0.0, -9.444286940520313e-05, array([[ -6.56053290e-13]])]
[3.399999999999996, 0.5351200785121921, 4.705521583557129, -0.07189230620861053, 0.0, -0.0001626997488019146, 0.0, 0.0006998891257603205, 0.0, -1.978166133511364e-05, array([[ -3.04468594e-13]])]
[3.4499999999999957, 1.1299518935944202, 4.683349132537842, -0.46388646960258484, 0.0, -0.00011951778484230358, 0.0, 0.0009182548719054479, 0.0, 5.878213257265835e-05, array([[ -4.10801157e-15]])]
[3.4999999999999956, 1.3145506083127154, 4.674114227294922, -0.23117943108081818, 0.0, -0.00012379746531231088, 0.0, 0.0007814869545077953, 0.0, 0.00012082880058521977, array([[ -1.29623247e-13]])]
[3.5499999999999954, 0.7993605569751366, 4.704039096832275, 0.9039527773857117, 0.0, -0.00014100610595248864, 0.0, 0.0005737470851605704, 0.0, 0.00019189629180223038, array([[ -1.25499387e-15]])]
[3.599999999999995, -0.7506611158512521, 4.753118991851807, 1.3509973287582397, 0.0, -0.0001355590102442772, 0.0, 0.0005166863219740088, 0.0, 0.00016914242454013005, array([[ -2.05698548e-20]])]
[3.649999999999995, -1.5175335285300389, 4.840969085693359, 1.2344552278518677, 0.0, -9.723632636228355e-05, 0.0, 0.0004618135390904076, 0.0, -5.877515786310375e-05, array([[ -9.06715440e-20]])]
[3.699999999999995, -1.5188410552684217, 4.907695770263672, 0.5975961089134216, 0.0, -6.352762511543365e-05, 0.0, 0.0004787472258023129, 0.0, -0.0002131096757493407, array([[ -2.06273026e-17]])]
[3.7499999999999947, -1.0227061033435165, 4.923557758331299, 0.29107731580734253, 0.0, -3.793556315896143e-05, 0.0, 0.0005669121163144811, 0.0, -0.0003392085924343122, array([[ -1.24582250e-14]])]
[3.7999999999999945, 0.29095822809032473, 4.92951774597168, 0.022019196301698685, 0.0, 3.0515838322545363e-05, 0.0, 0.0006982231429538714, 0.0, -0.0005062572887313226, array([[ -1.02132679e-14]])]
[3.8499999999999943, 0.9738284635561387, 4.911447048187256, -0.5700426697731018, 0.0, 0.00018400110497280545, 0.0, 0.0010077352411180887, 0.0, -0.0007059513958309966, array([[ -1.17408204e-17]])]
[3.899999999999994, 1.5263489394867793, 4.897736072540283, -0.44406387209892273, 0.0, 0.00012885044537975994, 0.0, 0.0010158744232835058, 0.0, -0.0007944870459346088, array([[ -1.59475513e-16]])]
[3.949999999999994, 1.1334437843458727, 4.906498432159424, 0.6340177059173584, 0.0, 7.483509493757161e-05, 0.0, 0.0006935631870165368, 0.0, -0.0008788201662705614, array([[ -1.71791904e-15]])]
[3.999999999999994, -0.3482902627019194, 4.931623458862305, 1.0740203857421875, 0.0, 0.0001161384125006702, 0.0, 0.0005348706092003749, 0.0, -0.0008916276989289235, array([[ -9.91506211e-19]])]
[4.049999999999994, -1.1002287335461005, 5.037796974182129, 1.4176474809646606, 0.0, -5.743660317360046e-05, 0.0, 0.0006433087773628298, 0.0, -0.0009457937807309171, array([[ -1.51682340e-23]])]
[4.099999999999993, -1.7839405771857126, 5.088714599609375, 1.0547586679458618, 0.0, -0.0001793446361992618, 0.0, 0.0008284803372657575, 0.0, -0.0009092662140419937, array([[ -8.75293941e-20]])]
[4.149999999999993, -1.3084132680715994, 5.136684894561768, 0.48281145095825195, 0.0, -0.00034790901596667956, 0.0, 0.0012063109600857725, 0.0, -0.0008320202220917893, array([[ -1.01503984e-16]])]
[4.199999999999993, -0.16019499180838453, 5.147315502166748, 0.21396034955978394, 0.0, -0.00044792890110688404, 0.0, 0.0015770350520185608, 0.0, -0.0007369960768621299, array([[ -2.75234946e-16]])]
[4.249999999999993, 0.5986947734840216, 5.1393022537231445, -0.46564194560050964, 0.0, -0.0005721761204793195, 0.0, 0.002175809615555885, 0.0, -0.0006261663847918623, array([[ -1.11705098e-18]])]
[4.299999999999993, 1.5045853414759038, 5.125856399536133, -0.540217936038971, 0.0, -0.0006187630276260934, 0.0, 0.002425223036717282, 0.0, -0.0005007809077833712, array([[ -4.75675956e-19]])]
[4.3499999999999925, 1.3610634517110882, 5.097493648529053, 0.03317876160144806, 0.0, -0.0004023195398283287, 0.0, 0.00176195113107599, 0.0, -0.0004581536757986933, array([[ -4.01093185e-16]])]
[4.399999999999992, 0.4167605922929946, 5.1022629737854, 0.3526358902454376, 0.0, -0.0002513544529056873, 0.0, 0.0012824616283849555, 0.0, -0.000453577068065902, array([[ -4.63629030e-16]])]
[4.449999999999992, -0.20289469201117702, 5.160505771636963, 0.8944739103317261, 0.0, -0.00027935179171217726, 0.0, 0.0007954786637170388, 0.0, -0.0003056757766361932, array([[ -4.10186915e-19]])]
[4.499999999999992, -1.15050139343366, 5.185387134552002, 0.7587601542472839, 0.0, -0.00031885358252559955, 0.0, 0.0006043080074825994, 0.0, -0.00021883849875262005, array([[ -2.62623924e-18]])]
[4.549999999999992, -1.3265354970749468, 5.219361305236816, 0.10106005519628525, 0.0, -0.00019705185727133165, 0.0, 0.0005677293595403016, 0.0, -7.212705125772865e-05, array([[ -5.03454140e-17]])]
[4.599999999999992, -0.5412712688185274, 5.219277858734131, -0.16680915653705597, 0.0, -0.0001148846186002623, 0.0, 0.0006183114421851722, 0.0, -3.491558729790907e-06, array([[ -1.31555621e-17]])]
[4.6499999999999915, 0.19956996027380228, 5.177159309387207, -0.9295614957809448, 0.0, 5.549168699866735e-05, 0.0, 0.0008725987097581362, 0.0, 7.293826320120137e-05, array([[ -1.93998813e-23]])]
[4.699999999999991, 1.3865965251810848, 5.157891750335693, -1.0975373983383179, 0.0, 0.00025142966032362077, 0.0, 0.001011695567209497, 0.0, 0.00017149628092926494, array([[ -2.37410803e-25]])]
[4.749999999999991, 1.527762114703655, 5.075169563293457, -0.9165083765983582, 0.0, 0.00026757415987547573, 0.0, 0.0009800335025449461, 0.0, 0.00025984001028655644, array([[ -1.86663233e-22]])]
[4.799999999999991, 1.0055601979233324, 5.056925296783447, -0.4797506332397461, 0.0, 0.00010878417797613881, 0.0, 0.0005344751509846608, 0.0, 0.0001721568030598473, array([[ -4.66977232e-18]])]
[4.849999999999991, 0.26813352789729833, 5.067315101623535, 0.6682795882225037, 0.0, 0.00018691278756494416, 0.0, 0.0004908370544253575, 0.0, 0.00014486244557078954, array([[ -5.87520756e-17]])]
[4.899999999999991, -1.2985086231678722, 5.1164374351501465, 0.5091420412063599, 0.0, -9.92195445165797e-06, 0.0, 0.0003772227245558808, 0.0, 0.00012070669448586535, array([[ -2.22903398e-17]])]
[4.94999999999999, -1.633266839701682, 5.1297125816345215, 0.22394941747188568, 0.0, -0.00010928889325191838, 0.0, 0.00030563584391356507, 0.0, 6.59009653170062e-05, array([[ -2.87043494e-16]])]
[4.99999999999999, -0.9575181605853136, 5.125934600830078, -0.42409953474998474, 0.0, -0.00015321851363377995, 0.0, 0.0003857550572138783, 0.0, 3.0821941226767636e-05, array([[ -1.61888507e-16]])]
[5.04999999999999, -0.2231821616366504, 5.1085004806518555, -0.7310534119606018, 0.0, -0.0002118200514780504, 0.0, 0.0005501317493055502, 0.0, 1.4103076872258327e-05, array([[ -9.98679257e-21]])]
[5.09999999999999, 1.12286770157516, 5.085853576660156, -1.0000905990600586, 0.0, -0.00029338408886721913, 0.0, 0.0006754449518401798, 0.0, -3.027622645357329e-05, array([[ -1.70622646e-23]])]
[5.14999999999999, 1.6718969974294304, 5.006779193878174, -0.9199147820472717, 0.0, -0.0003237175687173689, 0.0, 0.0009434592383240309, 0.0, -0.00010990311172003743, array([[ -5.77873728e-22]])]
[5.1999999999999895, 1.3808523325063287, 4.984257221221924, 0.15643052756786346, 0.0, -0.00012978012584465777, 0.0, 0.0005873958944020465, 0.0, -0.0002165043329692059, array([[ -1.35960307e-17]])]
[5.249999999999989, 0.6551781968399881, 4.9989423751831055, 0.6688274145126343, 0.0, -0.00019025358245744093, 0.0, 0.0003922216675201767, 0.0, -0.00023757695194526413, array([[ -1.92296859e-16]])]
[5.299999999999989, -0.9155565760470924, 5.0235161781311035, 0.9442561268806458, 0.0, -4.565782527151673e-05, 0.0, 0.0004948398539328003, 0.0, -0.0001458393947412937, array([[ -2.32867094e-18]])]
[5.349999999999989, -1.5026294140145182, 5.099693298339844, 0.8724837303161621, 0.0, 2.2504826388441347e-05, 0.0, 0.0004699368243772328, 0.0, -0.00015172336902163444, array([[ -1.65636389e-18]])]
[5.399999999999989, -1.4846046782284974, 5.140930652618408, 0.23781074583530426, 0.0, -8.257168079159959e-06, 0.0, 0.0003483099799278238, 0.0, -7.620294140204082e-05, array([[ -4.38639027e-17]])]
[5.449999999999989, -0.8849252964369951, 5.144930839538574, -0.06873773783445358, 0.0, 7.112626924395917e-06, 0.0, 0.0004005810658576692, 0.0, -5.9509926506591915e-05, array([[ -8.48310772e-17]])]
[5.4999999999999885, 0.43946063023060566, 5.122570991516113, -0.6929938793182373, 0.0, 5.773705595256946e-05, 0.0, 0.0005965570413026691, 0.0, 4.570440628383307e-05, array([[ -7.79597461e-18]])]
[5.549999999999988, 1.1496274367347359, 5.099693775177002, -0.8401423096656799, 0.0, 3.362073035659782e-05, 0.0, 0.0007375762214040067, 0.0, 9.222970498074751e-05, array([[ -8.04989646e-22]])]
[5.599999999999988, 1.6848819932341574, 5.059724807739258, -0.2018306702375412, 0.0, -2.2897282690415375e-05, 0.0, 0.0006038486239678572, 0.0, 0.00012862527043258992, array([[ -6.79526356e-21]])]
[5.649999999999988, 1.3655407317727803, 5.062925815582275, 0.31128713488578796, 0.0, -1.410702555741085e-05, 0.0, 0.00040593652730488316, 0.0, 0.0001218015257180293, array([[ -7.73615710e-16]])]
[5.699999999999988, -0.1224626368843011, 5.122793197631836, 1.2138311862945557, 0.0, -8.272142460352592e-05, 0.0, 0.00027764170187946516, 0.0, 3.522327952549902e-05, array([[ -1.73138853e-17]])]
[5.749999999999988, -0.8776155624352395, 5.1603312492370605, 1.0134261846542358, 0.0, 2.449564467375728e-05, 0.0, 0.00028670380887419605, 0.0, 4.65336291190269e-05, array([[ -3.73091578e-20]])]
[5.799999999999987, -1.5225770343840122, 5.195582866668701, 0.646812915802002, 0.0, 0.0002116611455402601, 0.0, 0.0004050666705462642, 0.0, 4.825886395062877e-05, array([[ -7.77755044e-18]])]
[5.849999999999987, -1.2582766257040203, 5.219542503356934, 0.07453805208206177, 0.0, 0.0005939076259355244, 0.0, 0.0009265192553031921, 0.0, 6.332682519849261e-05, array([[ -3.98312198e-17]])]
[5.899999999999987, -0.2636423470824956, 5.21978235244751, -0.19384925067424774, 0.0, 0.0007892180169669411, 0.0, 0.001235042772044797, 0.0, 6.202176932430685e-05, array([[ -8.86789871e-18]])]
[5.949999999999987, 0.4976659109443426, 5.186157703399658, -0.8839490413665771, 0.0, 0.0012096146533195225, 0.0, 0.0018410743420286914, 0.0, -6.632150283531778e-05, array([[ -4.85075426e-23]])]
[5.999999999999987, 1.3947097626887262, 5.160604953765869, -1.055590033531189, 0.0, 0.0013908754532875997, 0.0, 0.0022034164260179207, 0.0, -0.00011496163974654934, array([[ -7.36075953e-25]])]
[6.0499999999999865, 1.4402763326466081, 5.096435546875, -0.5580145716667175, 0.0, 0.0009632757539038457, 0.0, 0.001666045687345204, 0.0, -0.00022856082789720353, array([[ -3.98873973e-19]])]
[6.099999999999986, 0.5796952169202267, 5.088853359222412, -0.11193489283323288, 0.0, 0.0005901951603777899, 0.0, 0.0010621184419709552, 0.0, -0.00018327827707062677, array([[ -2.03926990e-16]])]
[6.149999999999986, -0.1715289686806498, 5.117700099945068, 0.5810096263885498, 0.0, 0.000550266673473464, 0.0, 0.0008161056771219147, 0.0, -0.00023900099737023207, array([[ -4.99369945e-17]])]
[6.199999999999986, -1.2543658812344072, 5.148003578186035, 0.10164327174425125, 0.0, 0.0002512824286301294, 0.0, 0.00039179915914317614, 0.0, -0.00032178411183634464, array([[ -1.24746583e-16]])]
[6.249999999999986, -1.309713804274797, 5.148116111755371, -0.2015024870634079, 0.0, -8.106786198742668e-06, 0.0, 0.00024455129351295534, 0.0, -0.0003515057102401553, array([[ -2.40646899e-17]])]
[6.299999999999986, -0.31847690097987646, 5.118165493011475, -0.8531324863433838, 0.0, -0.0002479616365665842, 0.0, 0.00022985373957935018, 0.0, -0.0005039362162125274, array([[ -1.42173788e-19]])]
[6.349999999999985, 0.5507540926057846, 5.088260650634766, -1.160378098487854, 0.0, -0.0004490136557962956, 0.0, 0.00027721528056916624, 0.0, -0.0005811829775847664, array([[ -8.38027770e-26]])]
[6.399999999999985, 1.7731620050221681, 5.055500507354736, -1.31554114818573, 0.0, -0.0005213667457977644, 0.0, 0.0003513916191982503, 0.0, -0.000705208390114174, array([[ -9.17577999e-28]])]
[6.449999999999985, 1.856358028054237, 4.968623638153076, -0.9726433157920837, 0.0, -0.0004523378453342334, 0.0, 0.0003546940518591966, 0.0, -0.0007458265679580695, array([[ -2.33337101e-22]])]
[6.499999999999985, 1.1775985246151683, 4.944570064544678, -0.34945523738861084, 0.0, -0.0003260980759386626, 0.0, 0.00015174338700964937, 0.0, -0.0007499857733091755, array([[ -2.15085513e-16]])]
[6.549999999999985, 0.2503058170154693, 4.956229209899902, 0.610306978225708, 0.0, -0.0002343800724405029, 0.0, 8.635019249434198e-05, 0.0, -0.0006000969660344188, array([[ -6.62475546e-16]])]
[6.5999999999999845, -1.122587582468986, 5.014449119567871, 0.862480640411377, 0.0, -0.00015471539166247284, 0.0, 3.118826881959961e-05, 0.0, -0.0003948340911308965, array([[ -1.86429680e-17]])]
[6.649999999999984, -1.6730813105776905, 5.033997058868408, 0.4137705862522125, 0.0, -0.00022324438556918231, 0.0, 2.805355485888925e-05, 0.0, -0.00019708179777146412, array([[ -7.50758049e-16]])]
[6.699999999999984, -1.1692847002670161, 5.0453267097473145, -0.23195332288742065, 0.0, -0.00024305340141324758, 0.0, 5.781669128932128e-05, 0.0, -9.026451627336548e-06, array([[ -1.38496935e-15]])]
[6.749999999999984, -0.5257615305110799, 5.035195827484131, -0.5392101407051086, 0.0, -0.0001619511216566711, 0.0, 0.00016632286431288388, 0.0, 4.154332349809417e-05, array([[ -1.58462898e-18]])]
[6.799999999999984, 0.8086562594398855, 4.981942176818848, -1.0751811265945435, 0.0, -0.00012461325837736676, 0.0, 0.0005682742407535511, 0.0, 0.00011721712223437101, array([[ -1.06409090e-23]])]
[6.849999999999984, 1.5495279907807706, 4.951876640319824, -0.9021676182746887, 0.0, -3.556799503224867e-05, 0.0, 0.0007135317636073685, 0.0, 0.00019276700646833468, array([[ -2.08953749e-21]])]
[6.8999999999999835, 1.420745156034827, 4.931736469268799, -0.6392084360122681, 0.0, 1.3202871691041026e-05, 0.0, 0.0005787016472640666, 0.0, 0.00015839168602088435, array([[ -1.86798056e-18]])]
[6.949999999999983, 0.8776085449755191, 4.929677963256836, 0.47889313101768494, 0.0, -8.539869917875279e-05, 0.0, 0.00024187987926984, 0.0, -2.1505220315294476e-05, array([[ -3.11762127e-15]])]
[6.999999999999983, -0.6491987753659455, 4.996488094329834, 1.2194976806640625, 0.0, 9.09157365731158e-06, 0.0, 0.00014062963418598132, 0.0, 6.8284285598817914e-06, array([[ -3.21620546e-17]])]
[7.049999999999983, -1.3830690156668424, 5.043765068054199, 0.9578649401664734, 0.0, 7.843750422232014e-05, 0.0, 0.00012094494554915456, 0.0, -2.435613451862174e-05, array([[ -7.90518585e-19]])]
[7.099999999999983, -1.6200653731077908, 5.089591026306152, 0.3954926133155823, 0.0, 8.459359323208471e-05, 0.0, 0.00043831197485225424, 0.0, -0.00015027711855206756, array([[ -3.63214695e-16]])]
[7.149999999999983, -1.1641735409945244, 5.099858283996582, 0.08898856490850449, 0.0, 0.00010002932665072237, 0.0, 0.0007682374990534557, 0.0, -0.0002638851563419366, array([[ -3.22379664e-16]])]
[7.199999999999982, 0.08365959413349659, 5.098934173583984, -0.2946544587612152, 0.0, 0.00012877006581158034, 0.0, 0.001148690372093608, 0.0, -0.00038607551821656145, array([[ -2.42759840e-17]])]
[7.249999999999982, 0.9641875245049595, 5.0690412521362305, -0.847234845161438, 0.0, 0.00022267743001168366, 0.0, 0.0017347035611745593, 0.0, -0.0005317845805393085, array([[ -9.62639759e-22]])]
[7.299999999999982, 1.6500118553638456, 5.032663822174072, -0.1757887750864029, 0.0, 0.0001231561542566682, 0.0, 0.0013832480213815284, 0.0, -0.0004988493602934016, array([[ -3.76012053e-20]])]
[7.349999999999982, 1.2928947607055306, 5.037156105041504, 0.3284851014614105, 0.0, 7.969646357060054e-05, 0.0, 0.0008612997641376789, 0.0, -0.0005677680641888857, array([[ -9.20606257e-16]])]
[7.399999999999982, -0.1534894869476547, 5.054610729217529, 0.7700616121292114, 0.0, -1.8396702146873265e-05, 0.0, 0.0005794428542476815, 0.0, -0.0005411708608534916, array([[ -1.82662123e-17]])]
[7.4499999999999815, -0.9059512754250317, 5.134544849395752, 0.9289349913597107, 0.0, 8.938813859981723e-05, 0.0, 0.0004280051853478439, 0.0, -0.0005082718615033214, array([[ -2.39885058e-19]])]
[7.499999999999981, -1.4652905456721783, 5.167949676513672, 0.55865877866745, 0.0, 0.0001669595829621709, 0.0, 0.0005155771425577956, 0.0, -0.00044367898116309264, array([[ -2.60150500e-17]])]
[7.549999999999981, -1.1886060636490583, 5.189526557922363, -0.0155705027282238, 0.0, 0.0003243270544054876, 0.0, 0.0008083879768777729, 0.0, -0.0002567118175805118, array([[ -3.75243637e-17]])]
[7.599999999999981, -0.1933172627724707, 5.171420574188232, -0.669224202632904, 0.0, 0.0006528353274534753, 0.0, 0.0012967708460392333, 0.0, -0.00011076012260597389, array([[ -4.99214064e-18]])]
[7.649999999999981, 0.5718993281945586, 5.147097587585449, -0.9767858982086182, 0.0, 0.0008503424747566864, 0.0, 0.0016912486578901124, 0.0, -3.965762637550352e-05, array([[ -6.41016182e-24]])]
[7.699999999999981, 1.557365985251963, 5.072946548461914, -1.137331247329712, 0.0, 0.0010234641442038405, 0.0, 0.0021422272315889746, 0.0, 0.00016235019365318836, array([[ -2.64488718e-26]])]
[7.7499999999999805, 1.6258386470749973, 5.045066833496094, -0.7051061987876892, 0.0, 0.0008066299201955007, 0.0, 0.0015762471988598923, 0.0, 0.00019771445706399617, array([[ -4.07716008e-20]])]
[7.79999999999998, 0.795817113481462, 5.033397197723389, -0.26500871777534485, 0.0, 0.00035473371201319404, 0.0, 0.000911690505836418, 0.0, 0.00010932204769532376, array([[ -1.06330163e-16]])]
[7.84999999999998, 0.052974829487502685, 5.0557026863098145, 0.6401435136795044, 0.0, 0.0005569593041599163, 0.0, 0.0007678644111092993, 0.0, -4.151154786244656e-05, array([[ -6.52840555e-17]])]
[7.89999999999998, -1.2649073262140154, 5.083906173706055, 0.5194094181060791, 0.0, 0.00028942500920075556, 0.0, 0.00031674770553404556, 0.0, -8.079181602188385e-05, array([[ -1.63281741e-16]])]
[7.94999999999998, -1.4050915310159322, 5.105081558227539, -0.018708888441324234, 0.0, -0.0001649904635846541, 0.0, -0.00019908012787835173, 0.0, -0.00013814094257922388, array([[ -1.66293950e-16]])]
[7.99999999999998, -0.759657309371978, 5.08772611618042, -0.6690179109573364, 0.0, -0.0005318877759064658, 0.0, -0.0006057242013172326, 0.0, -0.00011119089159193151, array([[ -2.25107793e-17]])]
[8.04999999999998, -0.04076717689633367, 5.056396007537842, -1.0531177520751953, 0.0, -0.000749879803714993, 0.0, -0.0007485538821139214, 0.0, -0.00020497451824763585, array([[ -3.58924896e-24]])]
[8.09999999999998, 1.3845753979310391, 5.020155429840088, -1.3610074520111084, 0.0, -0.0009315161530047477, 0.0, -0.0008491843564991133, 0.0, -0.00015934106392289672, array([[ -2.96976570e-28]])]
[8.14999999999998, 1.9962372022122143, 4.936430931091309, -1.2693684101104736, 0.0, -0.0010208555106070401, 0.0, -0.0007535614731099937, 0.0, -0.00022880995535837212, array([[ -3.02932163e-26]])]
[8.199999999999982, 1.6735677705332634, 4.890393257141113, -0.2189285308122635, 0.0, -0.0006339470162074957, 0.0, -0.000569816513586429, 0.0, -0.000126681404615523, array([[ -1.85924872e-20]])]
[8.249999999999982, 0.9646074945200235, 4.8935394287109375, 0.2909857928752899, 0.0, -0.0005753479418364225, 0.0, -0.00034817790339343707, 0.0, -9.304437893793226e-05, array([[ -1.14201111e-14]])]
[8.299999999999983, -0.5854259635135417, 4.954200744628906, 1.1982156038284302, 0.0, -0.0003877116289506982, 0.0, -0.0003494391752500805, 0.0, -0.00012375969684979765, array([[ -4.13871874e-16]])]
[8.349999999999984, -1.3316723009571427, 4.993155002593994, 1.0224194526672363, 0.0, -0.0002786255677001797, 0.0, -0.00029471843633123673, 0.0, -0.00016542746468793933, array([[ -4.41023862e-19]])]
[8.399999999999984, -1.6932662988081573, 5.0476884841918945, 0.39410561323165894, 0.0, -0.00011758573227671005, 0.0, 7.504139866493779e-05, 0.0, -0.0001535032300318255, array([[ -2.84700719e-17]])]
[8.449999999999985, -1.1713290916755794, 5.05784797668457, 0.08727750927209854, 0.0, -3.899444414773095e-05, 0.0, 0.00045403399217829613, 0.0, -0.0001632014522668322, array([[ -5.54956629e-16]])]
[8.499999999999986, 0.13802748885005767, 5.059072971343994, -0.1809459775686264, 0.0, 0.00011258561607079927, 0.0, 0.0009098435028515835, 0.0, -0.00022787896122495894, array([[ -1.45162993e-16]])]
[8.549999999999986, 0.8551661921665074, 5.027397632598877, -0.8428001403808594, 0.0, 0.00032364712210416845, 0.0, 0.00162146705467032, 0.0, -0.0002888650895727858, array([[ -1.91765736e-21]])]
[8.599999999999987, 1.620162988230586, 5.004367351531982, -0.89424067735672, 0.0, 0.00032241208078695433, 0.0, 0.0017788972729116733, 0.0, -0.00026034945496301675, array([[ -1.02001269e-21]])]
[8.649999999999988, 1.460259307771921, 4.9700822830200195, -0.058775197714567184, 0.0, 0.0001260562191290737, 0.0, 0.0009899742556444728, 0.0, -0.00021876406257513017, array([[ -1.34909770e-15]])]
[8.699999999999989, 0.24087747573852675, 5.009185791015625, 0.8824247717857361, 0.0, 1.3269705351179606e-05, 0.0, 0.0004864885940030294, 0.0, -0.0002658590956106537, array([[ -5.49465150e-16]])]
[8.74999999999999, -0.7084435146301978, 5.039596080780029, 0.7887716293334961, 0.0, -9.43577719600492e-06, 0.0, 0.00017778381313557763, 0.0, -0.00027766427972216677, array([[ -1.08860267e-17]])]
[8.79999999999999, -1.318795308843255, 5.0827741622924805, 0.2234024852514267, 0.0, -4.105913057101215e-05, 0.0, -0.00015395032766938528, 0.0, -0.0003004195785343722, array([[ -1.13745127e-16]])]
[8.84999999999999, -1.2802841886505483, 5.088062763214111, -0.08137942105531693, 0.0, -7.476782485667421e-05, 0.0, -0.0002329559931115444, 0.0, -0.0003629599527964918, array([[ -1.30826586e-16]])]
[8.899999999999991, -0.2280105054378508, 5.08499813079834, -0.3499859869480133, 0.0, -4.9767018226507956e-05, 0.0, -0.0002693960098694284, 0.0, -0.0003344706888705701, array([[ -1.22887310e-17]])]
[8.949999999999992, 0.5295026355236768, 5.041515350341797, -1.0412466526031494, 0.0, -3.801842452395501e-05, 0.0, -0.00019709107398474925, 0.0, -0.0002634140485298773, array([[ -5.93176068e-24]])]
[8.999999999999993, 1.555335590057075, 4.963154315948486, -1.319583535194397, 0.0, 0.00010871230254156885, 0.0, 5.2544028837280895e-05, 0.0, -0.0001942941100692372, array([[ -1.49388155e-26]])]
[9.049999999999994, 1.7302358890697358, 4.928727626800537, -0.9519230723381042, 0.0, 6.360758954084526e-05, 0.0, -8.742257589300877e-06, 0.0, -0.00017221229631620916, array([[ -6.04038534e-22]])]
[9.099999999999994, 1.0845680295675992, 4.9113664627075195, -0.5218594670295715, 0.0, -0.00010619178057817123, 0.0, -5.499941454461275e-05, 0.0, -0.00020103754144464717, array([[ -1.90525179e-17]])]
[9.149999999999995, 0.35460288509726523, 4.92530632019043, 0.6209597587585449, 0.0, 8.816587359177205e-07, 0.0, -0.00024505817240799336, 0.0, -0.00011522958884587597, array([[ -6.48174831e-16]])]
[9.199999999999996, -1.2086067721247664, 4.961921691894531, 0.8250948190689087, 0.0, -0.0002236839025397143, 0.0, -0.00018093931233120525, 0.0, -7.997447982283937e-05, array([[ -3.30144140e-17]])]
[9.249999999999996, -1.7049789928272365, 5.008594989776611, 0.42233777046203613, 0.0, -0.0003316962677949093, 0.0, -5.307473283756188e-05, 0.0, -6.649892291552626e-05, array([[ -7.11063998e-16]])]
[9.299999999999997, -1.2130694116279475, 5.020136833190918, 0.15941359102725983, 0.0, -0.00039133492650545484, 0.0, 0.00018740627318282257, 0.0, -7.952562357059686e-05, array([[ -1.51309920e-15]])]
[9.349999999999998, -0.5293107466399654, 5.014393329620361, -0.5301724672317505, 0.0, -0.0003125182551844305, 0.0, 0.0005846226692621871, 0.0, -4.9487459921773804e-05, array([[ -1.75734538e-18]])]
[9.399999999999999, 0.7986611775681376, 4.998892784118652, -0.7992909550666809, 0.0, -0.0002986759007189677, 0.0, 0.0009410481192023481, 0.0, -2.5428645878531323e-05, array([[ -1.12620676e-20]])]
[9.45, 1.3853172312304376, 4.930473327636719, -1.037075161933899, 0.0, -0.00016024069605480754, 0.0, 0.0015155863396989877, 0.0, 7.237116965094537e-05, array([[ -4.84185944e-23]])]
[9.5, 1.6077014502882956, 4.908108234405518, -0.7657042145729065, 0.0, -0.0001400009986929862, 0.0, 0.0011355936476710998, 0.0, -1.2554961606940695e-05, array([[ -1.27922917e-19]])]
[9.55, 1.0599893905222415, 4.901076316833496, 0.3539380133152008, 0.0, -0.00012043326916336537, 0.0, 0.0005592002951612859, 0.0, 1.1093095036303617e-05, array([[ -6.24994264e-15]])]
[9.600000000000001, -0.46410257652401293, 4.920414447784424, 0.7924777865409851, 0.0, -0.00014256887557815217, 0.0, 0.0003033473659937255, 0.0, -5.4164201937576915e-06, array([[ -1.06160038e-16]])]
[9.650000000000002, -1.2168903448060155, 5.010940074920654, 1.1383461952209473, 0.0, -8.572095883248846e-05, 0.0, -4.092069127493114e-05, 0.0, 2.343540007713598e-05, array([[ -1.87983182e-20]])]
[9.700000000000003, -1.8062827543914315, 5.042374134063721, 0.8878650665283203, 0.0, 0.00012108774666933082, 0.0, 7.044170665267004e-05, 0.0, 1.4334192344445449e-05, array([[ -2.54151128e-18]])]
[9.750000000000004, -1.2952203533798456, 5.088210582733154, 0.20048364996910095, 0.0, 0.0004205867104020496, 0.0, 0.0005379700603353511, 0.0, 3.450496050318864e-05, array([[ -2.78204240e-16]])]
[9.800000000000004, 0.014432803541422169, 5.085841178894043, -0.4537961483001709, 0.0, 0.0007969277755352208, 0.0, 0.0011756985034411796, 0.0, 6.419452023605567e-05, array([[ -6.24613860e-17]])]
[9.850000000000005, 0.8925756473839284, 5.0689849853515625, -0.7595646381378174, 0.0, 0.0010011388211051703, 0.0, 0.0015895926780791136, 0.0, 0.00010987179338069546, array([[ -5.22892559e-21]])]
[9.900000000000006, 1.6186388323456047, 5.0476460456848145, -0.9368283152580261, 0.0, 0.00111104531765735, 0.0, 0.0018453954034122683, 0.0, 0.0001239254337219599, array([[ -1.22327747e-22]])]
[9.950000000000006, 1.5788241137191652, 5.011942386627197, -0.11180255562067032, 0.0, 0.00047818518926704047, 0.0, 0.0009301744399415106, 0.0, 0.00010617958117681479, array([[ -3.27747669e-16]])]
[10.000000000000007, 0.3732610162347558, 5.046979904174805, 0.7971481084823608, 0.0, 0.0003756443365343851, 0.0, 0.00032323941030788436, 0.0, 6.454538811299216e-05, array([[ -6.70883351e-16]])]
[10.050000000000008, -0.37676941758487303, 5.075284481048584, 0.7526352405548096, 0.0, 0.00019814409370353086, 0.0, 3.209612062928617e-05, 0.0, 0.0001002283829943929, array([[ -6.99607664e-18]])]
[10.100000000000009, -1.201262422353029, 5.097782611846924, 0.6080722212791443, 0.0, -0.00011751288053270278, 0.0, -0.0003350737177115668, 0.0, 8.25432150105699e-05, array([[ -3.98478910e-17]])]
[10.15000000000001, -1.2912302013486623, 5.125683307647705, -0.12451541423797607, 0.0, -0.0004942802832001113, 0.0, -0.0006208073721457711, 0.0, 9.060056863234127e-05, array([[ -3.49449762e-17]])]
[10.20000000000001, -0.24100732203572983, 5.123136520385742, -0.31603288650512695, 0.0, -0.0007791466107854577, 0.0, -0.0006245471216449314, 0.0, 0.00011715867147115897, array([[ -7.65250294e-18]])]
[10.25000000000001, 0.43485692121088504, 5.081800937652588, -1.0082457065582275, 0.0, -0.0010251436442960677, 0.0, -0.0005566238035033115, 0.0, 5.6003451424933546e-05, array([[ -5.82366309e-24]])]
[10.300000000000011, 1.4616528994217515, 5.007549285888672, -1.2563036680221558, 0.0, -0.0011795165214231176, 0.0, -0.0003386093083702912, 0.0, 6.839330831530716e-05, array([[ -3.49452724e-26]])]
[10.350000000000012, 1.5810911645740269, 4.976787567138672, -0.8433104753494263, 0.0, -0.0009374060713028537, 0.0, -0.0003126450388985773, 0.0, 0.00010188903593755816, array([[ -3.41280658e-21]])]
[10.400000000000013, 0.9119343524426221, 4.95982551574707, -0.2175358235836029, 0.0, -0.0007782259777317804, 0.0, -0.0003960868284644499, 0.0, -2.7578505422497456e-05, array([[ -4.48900415e-16]])]
[10.450000000000014, -0.02088162492960646, 4.979015827178955, 0.6125810146331787, 0.0, -0.00044684628959572976, 0.0, -0.00036283804777914613, 0.0, 2.0901609062305194e-05, array([[ -1.93865727e-16]])]
[10.500000000000014, -1.261640149876475, 5.001409530639648, 0.6827003955841064, 0.0, -0.0004266529664048856, 0.0, -0.0003142916520885273, 0.0, 5.561659166681751e-05, array([[ -9.27354872e-17]])]
[10.550000000000015, -1.5883480043709277, 5.036289215087891, 0.05884268879890442, 0.0, -0.00029332607335781044, 0.0, -5.080595663196051e-05, 0.0, 6.145755492704666e-05, array([[ -4.55353147e-16]])]
[10.600000000000016, -0.7979359367862339, 5.024964809417725, -0.5929228067398071, 0.0, -0.00012058706869546848, 0.0, 0.0004790983731959436, 0.0, 0.00010137642835687117, array([[ -1.16291636e-16]])]
[10.650000000000016, -0.07227276060730206, 5.003824234008789, -0.9010075330734253, 0.0, -9.644942963915843e-06, 0.0, 0.0009849290306488145, 0.0, 4.424944375901727e-05, array([[ -4.41289539e-22]])]
[10.700000000000017, 1.270973835326731, 4.978688716888428, -1.1701656579971313, 0.0, 8.30671319713355e-05, 0.0, 0.0015292583314693111, 0.0, 0.00010770659108328329, array([[ -3.64759922e-25]])]
[10.750000000000018, 1.864279912225902, 4.885486602783203, -0.9848356246948242, 0.0, 0.00021440829655360285, 0.0, 0.002149678734444925, 0.0, 0.0001651933124726891, array([[ -3.88885840e-22]])]
[10.800000000000018, 1.4693246155232191, 4.861552715301514, -0.0433066189289093, 0.0, -6.646218768029817e-05, 0.0, 0.0008708745329598711, 0.0, 0.0001278446056704675, array([[ -1.42224571e-18]])]
[10.85000000000002, 0.874147124812007, 4.87169885635376, 0.46274900436401367, 0.0, -8.863627949921962e-05, 0.0, 0.0007615996531979148, 0.0, 0.00012632250647381571, array([[ -4.06635949e-15]])]
[10.90000000000002, -0.6772093271091538, 4.893925189971924, 0.863000214099884, 0.0, -0.00011762068621817425, 0.0, 0.0003860624567151405, 0.0, 6.0078699987909145e-05, array([[ -4.35364176e-17]])]
[10.95000000000002, -1.392497818470001, 4.9877028465271, 0.8880043029785156, 0.0, -0.00011237090666573408, 0.0, -0.00021982571100621353, 0.0, 2.9936612698502085e-05, array([[ -3.15366572e-18]])]
[11.000000000000021, -1.493927172012627, 5.0144429206848145, 0.5892990231513977, 0.0, -7.221795490025486e-05, 0.0, -0.00025492921408094724, 0.0, -4.2053348521660695e-05, array([[ -1.83046643e-16]])]
[11.050000000000022, -0.8909414285421369, 5.038407802581787, 0.014283708296716213, 0.0, -3.010339186795567e-05, 0.0, -3.250002779473711e-05, 0.0, -7.392508122349631e-05, array([[ -3.11272289e-16]])]
[11.100000000000023, 0.31055318810977073, 5.038494110107422, -0.25499770045280457, 0.0, 4.718892034813491e-05, 0.0, 0.00016764512659736712, 0.0, -7.004410494681553e-05, array([[ -6.29865388e-17]])]
[11.150000000000023, 1.0164140982180834, 5.005204677581787, -0.8394954204559326, 0.0, 0.00017757107155913423, 0.0, 0.0004780890841628631, 0.0, 2.5583436953021704e-05, array([[ -1.82744538e-21]])]
[11.200000000000024, 1.6789812067896126, 4.985873699188232, -0.7003415822982788, 0.0, 0.00015150309162645638, 0.0, 0.0004932320875960626, 0.0, -1.1848048890459703e-05, array([[ -1.03382468e-19]])]
[11.250000000000025, 1.2850788266956805, 4.981245517730713, 0.39758285880088806, 0.0, -4.1812563746535394e-05, 0.0, -5.721947710496872e-05, 0.0, -0.0002087942852913085, array([[ -7.34295193e-16]])]
[11.300000000000026, -0.21387754203751608, 5.001743793487549, 0.8336058259010315, 0.0, -4.431302890137119e-05, 0.0, -0.00011855717917469655, 0.0, -0.0001066288971484708, array([[ -9.39977595e-18]])]
[11.350000000000026, -0.9608895713090896, 5.105283260345459, 1.1052898168563843, 0.0, -0.0001542853444802912, 0.0, -0.0002218879748896169, 0.0, -1.3722755239074128e-05, array([[ -4.17991276e-21]])]
[11.400000000000027, -1.598274582400918, 5.1276421546936035, 0.9230035543441772, 0.0, -0.0001968080359540539, 0.0, -8.057741357447303e-05, 0.0, 6.432401833658108e-05, array([[ -2.01877309e-19]])]
[11.450000000000028, -1.3862035731971263, 5.176405429840088, 0.2357754409313202, 0.0, -0.000178503997535235, 0.0, 0.0003220774019685337, 0.0, 0.00010087080667140108, array([[ -3.05856103e-17]])]
[11.500000000000028, -0.21344756714999671, 5.179240703582764, -0.417258620262146, 0.0, -0.00016894880403155597, 0.0, 0.000940489412946664, 0.0, 0.0001178474416983099, array([[ -2.56339996e-17]])]
[11.55000000000003, 0.5436066449247301, 5.164766788482666, -0.7245581150054932, 0.0, -7.753665567910911e-05, 0.0, 0.0014379752415607122, 0.0, 0.00020519945038915263, array([[ -1.20930428e-21]])]
[11.60000000000003, 1.450674400180578, 5.144735813140869, -0.9331305623054504, 0.0, 2.4375112108663088e-05, 0.0, 0.0019160134843042495, 0.0, 0.0002595637679705356, array([[ -1.64618747e-23]])]
[11.65000000000003, 1.4938113201782106, 5.09405517578125, -0.41315725445747375, 0.0, -5.281939201438132e-05, 0.0, 0.0014858187816270468, 0.0, 0.00024854292784666504, array([[ -1.41272167e-18]])]
[11.700000000000031, 0.6093798933550716, 5.109489917755127, 0.588157057762146, 0.0, -6.259081513510711e-05, 0.0, 0.0007059541026758763, 0.0, 0.00018399105786164597, array([[ -1.80483960e-16]])]
[11.750000000000032, -0.13707296473905425, 5.134129047393799, 0.7325227856636047, 0.0, -0.00014451729728391652, 0.0, 0.0004805562088558298, 0.0, 0.00018617004717875948, array([[ -1.66856663e-18]])]
[11.800000000000033, -1.2506578516960143, 5.1851091384887695, 0.3883734345436096, 0.0, -0.00023751380474836692, 0.0, 2.0311052971631556e-05, 0.0, 0.0002025553361023163, array([[ -2.58412962e-18]])]
[11.850000000000033, -1.4998514528200029, 5.196147441864014, 0.08628382533788681, 0.0, -0.00016619311971140274, 0.0, -0.00017070421279872147, 0.0, 0.00023106320165784254, array([[ -1.54039212e-17]])]
[11.900000000000034, -0.7564133677631616, 5.199369430541992, -0.18112759292125702, 0.0, -0.0001290814634475074, 0.0, -0.00029544661202784837, 0.0, 0.00030288631184313084, array([[ -5.60306150e-18]])]
[11.950000000000035, -0.02944311838597058, 5.172506332397461, -0.8709811568260193, 0.0, -0.00010751169990398795, 0.0, -0.00026513347035051073, 0.0, 0.0002944521266743238, array([[ -2.75856163e-23]])]
[12.000000000000036, 1.2537454771623016, 5.148773670196533, -1.1397416591644287, 0.0, -5.2063811830005e-05, 0.0, -0.00017098226589853935, 0.0, 0.00032225924385266726, array([[ -3.16792759e-26]])]
[12.050000000000036, 1.6540179161727426, 5.065657615661621, -1.065940260887146, 0.0, -4.444385680575789e-05, 0.0, 9.26658156067327e-05, 0.0, 0.00031137886039841507, array([[ -9.58461383e-25]])]
[12.100000000000037, 1.3053871771693228, 5.045843601226807, -0.639490008354187, 0.0, -7.476009708212845e-05, 0.0, -0.00018412657565393227, 0.0, 0.00033836178506827517, array([[ -1.01962669e-19]])]
[12.150000000000038, 0.5834252763539552, 5.050268173217773, 0.5002982020378113, 0.0, -7.972204245195794e-05, 0.0, -0.0002520084082611336, 0.0, 0.00030734486749458884, array([[ -7.08024603e-17]])]
[12.200000000000038, -0.9723958572372792, 5.073890209197998, 0.8601042628288269, 0.0, -0.00010874869091063831, 0.0, -0.00030975024103371205, 0.0, 0.0002861096531034246, array([[ -1.30040295e-18]])]
[12.250000000000039, -1.6490285271033644, 5.146382808685303, 0.6767517328262329, 0.0, -0.00020895137028355645, 0.0, -0.00037039685143931174, 0.0, 0.0002598318746713876, array([[ -2.01657386e-18]])]
[12.30000000000004, -1.4352142556384206, 5.172662258148193, 0.3038410544395447, 0.0, -0.00024032636140986863, 0.0, -0.00022535223275311169, 0.0, 0.0001822700546167494, array([[ -4.19471475e-17]])]
[12.35000000000004, -0.6388819925114512, 5.1838812828063965, -0.2699914574623108, 0.0, -0.00020778733441776076, 0.0, 0.00011183020696286464, 0.0, 0.00016638414193422547, array([[ -1.19741791e-18]])]
[12.400000000000041, 0.5449650068581104, 5.177511215209961, -0.5381102561950684, 0.0, -0.00019420055226149815, 0.0, 0.0003884124626708322, 0.0, 0.0001004403735268689, array([[ -5.61538038e-20]])]
[12.450000000000042, 1.0439405342563985, 5.128961086273193, -0.994194746017456, 0.0, -0.00011092689258580627, 0.0, 0.0009477203758262175, 0.0, -1.9070253649261077e-06, array([[ -1.98114787e-24]])]
[12.500000000000043, 1.3897913376614452, 5.101099967956543, -0.6018661260604858, 0.0, -0.00015395345199811599, 0.0, 0.0008144862091405368, 0.0, -4.119802133038739e-05, array([[ -6.96704638e-20]])]
[12.550000000000043, 0.7175372230983339, 5.102029323577881, 0.33858034014701843, 0.0, -5.81294925829996e-05, 0.0, 0.0002874153689468051, 0.0, 4.6690351349366405e-05, array([[ -5.09475384e-17]])]
[12.600000000000044, -0.6274497148767113, 5.120649337768555, 0.6405777335166931, 0.0, -0.00030781208212876904, 0.0, 0.00011280815127793454, 0.0, 3.6566100189334844e-05, array([[ -9.98633683e-18]])]
[12.650000000000045, -1.2406144032254813, 5.182373523712158, 0.543811559677124, 0.0, -0.00037068623905228026, 0.0, -9.827061246223743e-05, 0.0, 3.7950374888834346e-05, array([[ -2.98017043e-18]])]
[12.700000000000045, -1.208363049030304, 5.199265003204346, 0.28610044717788696, 0.0, -0.00027898964351289694, 0.0, -0.00011707911134679789, 0.0, 1.0805924423490898e-05, array([[ -2.33641389e-17]])]
[12.750000000000046, -0.6744936119765043, 5.207755088806152, -0.4008163809776306, 0.0, -6.425753832380714e-05, 0.0, 4.4356287683809304e-05, 0.0, 5.327218781310514e-05, array([[ -1.07702296e-19]])]
[12.800000000000047, 0.6201333896070719, 5.197749137878418, -0.6694380044937134, 0.0, 0.00014626584780730764, 0.0, 0.00025882356410060215, 0.0, 8.094087218448625e-05, array([[ -2.63385286e-21]])]
[12.850000000000048, 1.2753189048543572, 5.141931056976318, -1.0271166563034058, 0.0, 0.00030825349078831475, 0.0, 0.0006075228495349132, 0.0, 4.999550500358844e-05, array([[ -5.23221643e-25]])]
[12.900000000000048, 1.6685105014592407, 5.120467185974121, -0.7739629745483398, 0.0, 0.00017550548575467786, 0.0, 0.00046482175996957916, 0.0, 4.673949832594808e-05, array([[ -1.08693876e-21]])]
[12.950000000000049, 1.1553872868046164, 5.119382381439209, 0.4688018262386322, 0.0, 8.327551263689812e-05, 0.0, -7.798522586875753e-05, 0.0, 0.00011379323608189306, array([[ -1.26317581e-17]])]
[13.00000000000005, -0.4977341800555587, 5.134742736816406, 0.7800875902175903, 0.0, -1.685425606139857e-05, 0.0, -0.00012415813155263456, 0.0, 2.3603279875745566e-05, array([[ -1.11853317e-18]])]
[13.05000000000005, -1.1161342540755865, 5.223511219024658, 1.0281671285629272, 0.0, -9.052219918347032e-05, 0.0, -0.0001796326111141166, 0.0, 5.109010732181473e-05, array([[ -7.06504900e-22]])]
[13.100000000000051, -1.6110078283026814, 5.285330772399902, 0.39634862542152405, 0.0, 1.5707832954723882e-05, 0.0, 0.0001875329529136458, 0.0, 3.8945158270835085e-05, array([[ -1.22679744e-19]])]
[13.150000000000052, -1.3074526858329771, 5.300941467285156, 0.013206635601818562, 0.0, 0.00011427484190051568, 0.0, 0.0005284605314852422, 0.0, -1.7840069201431276e-05, array([[ -5.53175392e-19]])]
[13.200000000000053, 0.037006592252291734, 5.295135021209717, -0.5603293180465698, 0.0, 0.0003118052074104489, 0.0, 0.0012379219911386248, 0.0, 2.800992046874448e-05, array([[ -5.24152460e-19]])]
[13.250000000000053, 0.7160487762466072, 5.277502059936523, -0.8628051280975342, 0.0, 0.00039663114504643086, 0.0, 0.0016667938919033521, 0.0, 5.124396229388555e-05, array([[ -2.30134623e-24]])]
[13.300000000000054, 1.5193664267659186, 5.222762584686279, -0.84147709608078, 0.0, 0.00039904289632934474, 0.0, 0.0017368506549165488, 0.0, -3.5309723872700295e-06, array([[ -1.75524113e-25]])]
[13.350000000000055, 1.5117809572815895, 5.207724094390869, -0.38066545128822327, 0.0, 0.00017994907887181156, 0.0, 0.0009712624356475333, 0.0, 1.441731884394332e-05, array([[ -7.60451134e-20]])]
[13.400000000000055, 0.5065888798423112, 5.228681564331055, 0.6027056574821472, 0.0, 0.0001306169033953459, 0.0, 0.0003943605420246109, 0.0, 1.8802164427898501e-06, array([[ -1.33983780e-17]])]
[13.450000000000056, -0.24188887182623148, 5.254080772399902, 0.6724181175231934, 0.0, 0.00013656696413127064, 0.0, 5.165954722314108e-05, 0.0, -1.6855210777869327e-05, array([[ -5.70123363e-20]])]
[13.500000000000057, -1.261531882174313, 5.286999225616455, 0.5089448690414429, 0.0, -0.00012410723841507627, 0.0, -0.000281357408830278, 0.0, -4.786136147314956e-05, array([[ -1.05011174e-18]])]
[13.550000000000058, -1.3125002456456423, 5.3133320808410645, -0.039396993815898895, 0.0, -0.0003695775186241499, 0.0, -0.0004146179310546673, 0.0, -7.73049984168469e-05, array([[ -1.44331232e-19]])]
[13.600000000000058, -0.48380294255912293, 5.311758518218994, -0.42114996910095215, 0.0, -0.0004955173243649532, 0.0, -0.0003801852819613715, 0.0, -4.997626267756037e-05, array([[ -1.95426691e-20]])]
[13.650000000000059, 0.37943750185891983, 5.279797554016113, -0.9955650568008423, 0.0, -0.0006680228201913108, 0.0, -0.00015031770135597665, 0.0, -0.0001235243539624178, array([[ -5.36205250e-26]])]
[13.70000000000006, 1.3541322404146192, 5.21012020111084, -1.2237253189086914, 0.0, -0.0006849757781773257, 0.0, 6.006526094236739e-05, 0.0, -0.00015090629159035605, array([[ -6.28401693e-28]])]
[13.75000000000006, 1.5738644250854847, 5.182260036468506, -0.7919824123382568, 0.0, -0.000619611146231924, 0.0, 2.77638997931459e-05, 0.0, -0.00011447944380096382, array([[ -5.06991301e-23]])]
[13.800000000000061, 0.8297568375244736, 5.170869827270508, -0.3541080057621002, 0.0, -0.0004031779346379774, 0.0, -0.0003190595457243023, 0.0, -0.00010041376959953092, array([[ -6.87244471e-19]])]
[13.850000000000062, 0.08991157565265895, 5.1997551918029785, 0.6586729884147644, 0.0, -0.0003163784130183663, 0.0, -0.0002464667344007953, 0.0, -0.00021878745196291102, array([[  5.33586710e-20]])]
[13.900000000000063, -1.3430381006747483, 5.2178263664245605, 0.6820807456970215, 0.0, -0.0003304714055439613, 0.0, -0.0003117383031949058, 0.0, -0.00014729387435088144, array([[ -5.68035525e-19]])]
[13.950000000000063, -1.6316660768166185, 5.261948585510254, 0.10263403505086899, 0.0, -0.0002568711595023095, 0.0, -0.0004593580078203235, 0.0, -9.974474098584408e-05, array([[  2.93986350e-19]])]
[14.000000000000064, -0.834878277927637, 5.259686470031738, -0.5457923412322998, 0.0, -0.00015421125888008866, 0.0, -0.0004069563614842035, 0.0, -0.00014765118081450063, array([[ -8.26129370e-19]])]
[14.050000000000065, -0.12238996114581821, 5.237209320068359, -0.9293092489242554, 0.0, -0.00019878187535744872, 0.0, -0.0002927816324807407, 0.0, -8.510753555656939e-05, array([[ -4.88710075e-25]])]
[14.100000000000065, 1.2965223028883337, 5.220087051391602, -1.3384038209915161, 0.0, -0.00012369716908764862, 0.0, -0.00011811807264241708, 0.0, -1.4491209478097243e-05, array([[ -8.83603203e-27]])]
[14.150000000000066, 1.7606522580608726, 5.14276123046875, -0.9480631947517395, 0.0, -1.3518808304827685e-05, 0.0, 0.0001862906204863354, 0.0, 4.096547478090851e-05, array([[ -1.89141749e-24]])]
[14.200000000000067, 1.3883016977831721, 5.125244140625, 0.11904535442590714, 0.0, -0.000143370720450419, 0.0, -0.00017818721961009593, 0.0, 4.9746051306469084e-05, array([[ -1.08702542e-19]])]
[14.250000000000068, 0.6640607272833585, 5.141556262969971, 0.6220160722732544, 0.0, -3.3027792766120234e-05, 0.0, -0.00017336777235455922, 0.0, 3.860937361480617e-05, array([[  1.29563741e-18]])]
[14.300000000000068, -0.8871025554090738, 5.1702985763549805, 0.9930726289749146, 0.0, -4.78964223856296e-05, 0.0, -0.0002728019561037222, 0.0, 3.153237368435466e-05, array([[ -7.38824717e-21]])]
[14.350000000000069, -1.572160507328808, 5.274733066558838, 0.9544638991355896, 0.0, -0.00023297594682703153, 0.0, -0.00037352020355705637, 0.0, -1.2431956760425721e-05, array([[  9.81138660e-22]])]
[14.40000000000007, -1.6262552654743194, 5.326329708099365, 0.39503511786460876, 0.0, -0.00039894832174071517, 0.0, -6.498930050375705e-05, 0.0, -0.00011825109013718048, array([[ -2.73523080e-20]])]
[14.45000000000007, -1.1180413740500807, 5.339365482330322, 0.08915576338768005, 0.0, -0.0004152105760002902, 0.0, 0.0002986052675894406, 0.0, -0.00016856508776393717, array([[  3.16917936e-19]])]
[14.500000000000071, 0.19211012644693257, 5.3352885246276855, -0.5536253452301025, 0.0, -0.0004264537594754216, 0.0, 0.0009842046925711682, 0.0, -0.00024019402740695705, array([[ -1.16860703e-19]])]
[14.550000000000072, 0.914129760377109, 5.313085556030273, -0.881463885307312, 0.0, -0.00037242428719313293, 0.0, 0.0014603561095502737, 0.0, -0.000226094800908264, array([[ -6.81318026e-26]])]
[14.600000000000072, 1.7250377225503324, 5.298155784606934, -0.8867526650428772, 0.0, -0.0003347034168057963, 0.0, 0.001458009644366271, 0.0, -0.00030193120854229944, array([[ -1.17834958e-24]])]
[14.650000000000073, 1.4888694051280615, 5.274758338928223, 0.03840752691030502, 0.0, -0.00016615000407883647, 0.0, 0.0005471186268679264, 0.0, -0.00013921434195697716, array([[  1.19319163e-18]])]
[14.700000000000074, 0.17528603952378036, 5.297527313232422, 0.6675748825073242, 0.0, -0.0002418763957614358, 0.0, 0.0003260621067858127, 0.0, -0.00012083229802590129, array([[ -7.86170225e-20]])]
[14.750000000000075, -0.770231097266078, 5.360755443572998, 0.746965229511261, 0.0, -8.692920692324478e-05, 0.0, -0.00021824799006219876, 0.0, -0.00015382650684818278, array([[  9.04701268e-21]])]
[14.800000000000075, -1.2330296144634485, 5.3849711418151855, 0.5169191956520081, 0.0, 7.663022546232766e-05, 0.0, -0.0004660823940878943, 0.0, -7.925393451496575e-05, array([[ -5.69322779e-20]])]
[14.850000000000076, -1.1389226872101426, 5.4118146896362305, -0.16204629838466644, 0.0, 0.0003095004453104275, 0.0, -0.0006368487281729602, 0.0, 4.0362422770562405e-05, array([[  2.70889620e-20]])]
[14.900000000000077, -0.11356974337249993, 5.3917717933654785, -0.8131678104400635, 0.0, 0.0005181645527307266, 0.0, -0.0005716319197556292, 0.0, 5.9026076598191806e-05, array([[ -1.08100533e-21]])]
[14.950000000000077, 0.6434236984327435, 5.366265296936035, -1.1201775074005127, 0.0, 0.0006924931865397313, 0.0, -0.0004671934943583926, 0.0, 9.070685037625424e-05, array([[ -6.73484539e-29]])]
[15.000000000000078, 1.641550082042813, 5.291530609130859, -1.2357128858566284, 0.0, 0.000789704198130624, 0.0, -0.00019336105843949922, 0.0, 0.0001656450757468885, array([[ -1.35859225e-30]])]
[15.050000000000079, 1.6908951434865593, 5.258813858032227, -0.6894518136978149, 0.0, 0.0006505957649897909, 0.0, -0.00030518612505071234, 0.0, 0.00017894053865548943, array([[  1.04459963e-22]])]
[15.10000000000008, 0.7475492060929537, 5.252710342407227, -0.37447673082351685, 0.0, 0.0004294690010858144, 0.0, -0.00039606962211916486, 0.0, 0.00018148357617839072, array([[ -4.11812361e-20]])]
[15.15000000000008, 0.134110731780529, 5.2761454582214355, 0.47696149349212646, 0.0, 0.00023264182650338798, 0.0, -0.0004340815709937119, 0.0, 0.00013802258509943807, array([[  1.03259697e-18]])]
[15.200000000000081, -1.1270465804263947, 5.295679092407227, 0.4437602460384369, 0.0, 0.00011668024441469688, 0.0, -0.0004765410789591676, 0.0, 8.746905748481202e-05, array([[ -2.80477432e-19]])]
[15.250000000000082, -1.3574682713672517, 5.320974349975586, -0.15277265012264252, 0.0, 4.563829988735881e-05, 0.0, -0.0004558852967997691, 0.0, -3.8785504204093437e-05, array([[  2.41579738e-19]])]
[15.300000000000082, -0.565898900590837, 5.3184027671813965, -0.41840702295303345, 0.0, 8.271349591106272e-05, 0.0, -0.0002641850024276248, 0.0, -0.0001298232212856694, array([[ -4.65188825e-21]])]
