time, uz, alt, vel_alt, uthe, roll, uphi, pitch, upsi, yaw, F
[0.0, 0.0, -0.055475469678640366, -0.03402578458189964, 0.0, -0.004556137144384751, 0.0, 0.022215912606307692, 0.0, -0.097124248630619, array([[ 8.15837809]])]
[0.05, -8.159858812824426, -0.055199652910232544, -0.034389935433864594, 0.0, -0.004559089751584019, 0.0, 0.02219930234630655, 0.0, -0.09708254250644754, array([[ 22.0887842]])]
[0.1, -22.09052212482552, -0.05506090819835663, -0.034517474472522736, 0.0, -0.0045027558995344085, 0.0, 0.022191861194009097, 0.0, -0.09707092174273659, array([[ 47.57619055]])]
[0.15000000000000002, -47.577324863229165, -0.05501343309879303, -0.03452648967504501, 0.0, -0.004486658817272997, 0.0, 0.022256724521472617, 0.0, -0.09702838646671713, array([[-1264.81167191]])]
[0.2, 1265.1940243235115, -0.05501708760857582, -0.03500475734472275, 0.0, -0.004458850307330551, 0.0, 0.022212447246792003, 0.0, -0.09703545980772693, array([[-5002.513131]])]
[0.25, 5003.208080855524, -0.04772640019655228, 0.3993236720561981, 0.0, -0.004517791829446781, 0.0, 0.019845801071638212, 0.0, -0.09543997265997121, array([[-2110.23925242]])]
[0.3, 2111.4692544336344, -0.029702385887503624, 0.7920017242431641, 0.0, -0.0048312692293734655, 0.0, 0.013259971070819882, 0.0, -0.08917770955748407, array([[-19.71550524]])]
[0.35, 20.32382524989682, 0.06815715879201889, 1.376987099647522, 0.0, -0.003449930138957977, 0.0, 0.00850005411938341, 0.0, -0.07332074215508078, array([[ -4.04120617e-05]])]
[0.39999999999999997, 0.4968479254616366, 0.12693431973457336, 2.2574501037597656, 0.0, -0.0024166011138819165, 0.0, 0.005806263121007616, 0.0, -0.06425346524064315, array([[ -1.42477116e-20]])]
[0.44999999999999996, -0.2545594114437699, 0.31181344389915466, 2.585174560546875, 0.0, -0.0003687081896370651, 0.0, 0.0031694571931350545, 0.0, -0.05106887316677092, array([[ -2.44628483e-28]])]
[0.49999999999999994, 0.011560300886631021, 0.38349613547325134, 2.4414587020874023, 0.0, 0.00048161119931606876, 0.0, 0.002190299563671614, 0.0, -0.04335143357754571, array([[ -9.74312669e-25]])]
[0.5499999999999999, 0.4484427085518836, 0.5380406975746155, 1.7836560010910034, 0.0, 0.001619685024232356, 0.0, 0.0006151072595784548, 0.0, -0.03150094856141155, array([[ -1.12199612e-16]])]
[0.6, 1.5127715921401979, 0.5862062573432922, 1.6164554357528687, 0.0, 0.002101659181430011, 0.0, -6.289414346002978e-05, 0.0, -0.025162326512573652, array([[ -2.52895250e-08]])]
[0.65, 2.2114780424110783, 0.7113304734230042, 2.0890445709228516, 0.0, 0.0022682220323227494, 0.0, -0.000225920309526443, 0.0, -0.016806773145437857, array([[ -8.23678182e-17]])]
[0.7000000000000001, 2.476233940720558, 0.7766775488853455, 2.476073741912842, 0.0, 0.0022218078216735193, 0.0, 1.1967910884800385e-05, 0.0, -0.013540026475700245, array([[ -1.25979813e-25]])]
[0.7500000000000001, 1.703147358894348, 0.9936952590942383, 3.4490997791290283, 0.0, 0.0015278231556783966, 0.0, 3.7546078648366725e-05, 0.0, -0.010920951463234222, array([[ -8.74202559e-41]])]
[0.8000000000000002, 1.048763238787651, 1.0965913534164429, 3.8127858638763428, 0.0, 0.0012925358465865218, 0.0, 0.00018885702295512693, 0.0, -0.009741235306531053, array([[ -1.33648314e-68]])]
[0.8500000000000002, 0.16782122433185576, 1.443085789680481, 4.676784515380859, 0.0, 0.0007252782858466935, 0.0, 0.00028374149607354596, 0.0, -0.008248733303279751, array([[ -8.60356818e-90]])]
[0.9000000000000002, -0.28171951234340664, 1.536491870880127, 4.599715709686279, 0.0, 0.0005049527502496504, 0.0, 0.00029937142962411834, 0.0, -0.007229052032976706, array([[ -1.88145595e-103]])]
[0.9500000000000003, -0.48756707489490503, 1.8484376668930054, 3.9860587120056152, 0.0, 5.52628120358998e-05, 0.0, 0.00039628048902231477, 0.0, -0.005610078897090876, array([[ -2.56801598e-89]])]
[1.0000000000000002, 0.22705101549625395, 1.9568980932235718, 3.7181894779205322, 0.0, -0.00014286307812419488, 0.0, 0.0004206536563516594, 0.0, -0.0047240218528877805, array([[ -1.80603098e-66]])]
[1.0500000000000003, 0.8628313547372817, 2.203092575073242, 3.15614914894104, 0.0, -0.0004327205348298057, 0.0, 0.0006231824771041372, 0.0, 0.0026133921144996337, array([[ -8.61063103e-54]])]
[1.1000000000000003, 0.975155131816864, 2.2941322326660156, 3.2863094806671143, 0.0, -0.00041946540251070055, 0.0, 0.0006301258921712331, 0.0, 0.0033293020393904142, array([[ -6.16692999e-52]])]
[1.1500000000000004, 0.7759475529193878, 2.5583014488220215, 4.021866321563721, 0.0, -0.00012935262956260783, 0.0, 0.0005449064606977876, 0.0, 0.0038619672080711805, array([[ -1.31950264e-65]])]
[1.2000000000000004, -0.1917394948005676, 2.675044298171997, 4.224730968475342, 0.0, -6.040990261947998e-06, 0.0, 0.00047782180158895495, 0.0, 0.003704286988823088, array([[ -1.78375165e-89]])]
[1.2500000000000004, -1.0673001074790953, 2.8480117321014404, 4.251001358032227, 0.0, 1.324834368256471e-05, 0.0, 0.0004979099893585439, 0.0, 0.003477794480960168, array([[ -2.85168753e-91]])]
[1.3000000000000005, -1.6434739077091216, 3.0899744033813477, 3.7210073471069336, 0.0, 4.579575303732683e-06, 0.0, 0.0007837434971890391, 0.0, 0.0024059973931080847, array([[ -1.47617317e-70]])]
[1.3500000000000005, -1.2497169828414916, 3.3355929851531982, 3.030118227005005, 0.0, -5.109548198711592e-05, 0.0, 0.0010504808409050974, 0.0, 0.0013082116172715356, array([[ -2.43868620e-57]])]
[1.4000000000000006, -0.6107838231325149, 3.41782808303833, 2.760890245437622, 0.0, -0.0001643013880295996, 0.0, 0.001245320960816259, 0.0, 0.0005215914939080394, array([[ -2.00206331e-40]])]
[1.4500000000000006, 0.1698086076974869, 3.5940356254577637, 2.0705411434173584, 0.0, -0.0002653289365091359, 0.0, 0.0015258804481718246, 0.0, -0.001178375863530755, array([[ -4.91392172e-31]])]
[1.5000000000000007, 0.5477363109588622, 3.649665117263794, 1.8264257907867432, 0.0, -0.0003095249993008524, 0.0, 0.0017104853852848404, 0.0, -0.0020641970200508714, array([[ -2.10284146e-20]])]
[1.5500000000000007, 0.8903128600120545, 3.767889976501465, 1.5124261379241943, 0.0, -0.00041170402806652224, 0.0, 0.0016770776419320229, 0.0, -0.0032835029388731895, array([[ -2.65895821e-16]])]
[1.6000000000000008, 0.6795321315526964, 3.814131259918213, 1.7229784727096558, 0.0, -0.0003545835147230019, 0.0, 0.0013520627668224788, 0.0, -0.0038066931953908987, array([[ -1.47557799e-19]])]
[1.6500000000000008, 0.27378940522670747, 3.959975481033325, 2.14748477935791, 0.0, -0.00042940134734627825, 0.0, 0.0008997884034615245, 0.0, -0.004045872420994346, array([[ -1.48064197e-25]])]
[1.7000000000000008, -0.5707506901025772, 4.021247386932373, 2.0997474193573, 0.0, -0.00036212337029573836, 0.0, 0.000735223392607687, 0.0, -0.0038655076388427636, array([[ -8.69066760e-28]])]
[1.7500000000000009, -0.8567856672406196, 4.1569061279296875, 1.5282931327819824, 0.0, -0.0002665056163428637, 0.0, 0.000677129344711499, 0.0, -0.0032769249508373365, array([[ -5.69672324e-23]])]
[1.800000000000001, -1.0349375727772712, 4.1971611976623535, 1.261597752571106, 0.0, -0.00016367594074228654, 0.0, 0.0006897925515752265, 0.0, -0.002757219960378337, array([[ -2.05184670e-15]])]
[1.850000000000001, -0.5877171874046305, 4.265140056610107, 0.5705681443214417, 0.0, -0.00016661655866972243, 0.0, 0.0007420760128944853, 0.0, -0.0019860217085990554, array([[ -1.92268221e-10]])]
[1.900000000000001, -0.18689061890687195, 4.278843402862549, 0.3020974397659302, 0.0, -0.0001451112754938355, 0.0, 0.0007833673345125006, 0.0, -0.0013294529526248478, array([[ -7.14834840e-10]])]
[1.950000000000001, 0.4921531118150317, 4.278674602508545, -0.369172602891922, 0.0, -3.209515941833356e-05, 0.0, 0.0009665871995809506, 0.0, -0.0006618897191501082, array([[ -1.73357983e-11]])]
[2.000000000000001, 0.8060682849759367, 4.267809867858887, -0.4809127151966095, 0.0, 7.829199304341409e-05, 0.0, 0.0009952552332643137, 0.0, -0.00017208878608774517, array([[ -3.42592133e-12]])]
[2.0500000000000007, 1.0448772267658994, 4.248826503753662, -0.4849523901939392, 0.0, 9.218518823265207e-05, 0.0, 0.0009878114124967545, 0.0, 3.612323677405364e-05, array([[ -4.66735944e-12]])]
[2.1000000000000005, 0.5771304937498751, 4.2376179695129395, 0.1635444611310959, 0.0, 7.104982696870246e-05, 0.0, 0.0006438565782584368, 0.0, 0.000435315524946778, array([[ -1.51173915e-09]])]
[2.1500000000000004, -0.29877860074563173, 4.280340671539307, 0.7366428375244141, 0.0, 0.00010317639019798772, 0.0, 0.0008368950585832217, 0.0, 0.0003098225263436637, array([[ -2.32543319e-11]])]
[2.2, -1.114316826141468, 4.299923419952393, 0.5753771066665649, 0.0, 4.866561805990189e-05, 0.0, 0.0007379243904285296, 0.0, 0.0001282286763664134, array([[ -1.00859401e-10]])]
[2.25, -0.9484225084369098, 4.319736957550049, -0.09059439599514008, 0.0, -8.640507913293572e-05, 0.0, 0.0006187571762119086, 0.0, -0.0002125311538679752, array([[ -4.99292888e-10]])]
[2.3, 0.15760714856545593, 4.3143744468688965, -0.358570396900177, 0.0, -0.00020030679352985373, 0.0, 0.0006336165321724541, 0.0, -0.000419424620239815, array([[ -1.07038648e-11]])]
[2.3499999999999996, 1.0837902698027837, 4.267004489898682, -1.0017187595367432, 0.0, -0.0002686670940347808, 0.0, 0.0005672214729515881, 0.0, -0.0007309868545259605, array([[ -1.95414320e-14]])]
[2.3999999999999995, 1.7656775553524688, 4.238636493682861, -0.9845329523086548, 0.0, -0.0003407437292416084, 0.0, 0.0006001244822522488, 0.0, -0.000788669852309337, array([[ -6.54779905e-17]])]
[2.4499999999999993, 1.8792377561330793, 4.207329750061035, 0.11133591830730438, 0.0, -0.0001878860801127955, 0.0, 0.0005279228136432359, 0.0, -0.0009078927413106718, array([[ -2.65593737e-11]])]
[2.499999999999999, 0.8347365914550776, 4.217936992645264, 0.5685840249061584, 0.0, -0.0001976905425353617, 0.0, 0.00046214259094696575, 0.0, -0.000771670223111533, array([[ -3.71008198e-10]])]
[2.549999999999999, -0.3817619156480142, 4.297441005706787, 1.4073110818862915, 0.0, -7.524756825090321e-05, 0.0, 0.00046516393053752295, 0.0, -0.0005483480191105463, array([[ -8.02327095e-18]])]
[2.5999999999999988, -1.4758342000097036, 4.3359270095825195, 1.2436885833740234, 0.0, -4.1510610744529034e-05, 0.0, 0.000496758839360515, 0.0, -0.0004168426256847978, array([[ -4.12265288e-16]])]
[2.6499999999999986, -1.6936027578264468, 4.404199123382568, 0.5774717926979065, 0.0, 3.120423423089486e-05, 0.0, 0.0007360243919785313, 0.0, -0.0002672838439656876, array([[ -5.55359526e-13]])]
[2.6999999999999984, -1.009668115674894, 4.417999267578125, 0.3094083368778229, 0.0, 0.0001548224672444345, 0.0, 0.0008715180087331683, 0.0, -0.00023831513293427514, array([[ -8.31425527e-11]])]
[2.7499999999999982, -0.09397484208524817, 4.418679714202881, -0.3810200095176697, 0.0, 0.0002629724434680774, 0.0, 0.0012549704850228793, 0.0, -0.00015628411905635743, array([[ -1.68322239e-12]])]
[2.799999999999998, 1.0073514077456736, 4.40559196472168, -0.6495449542999268, 0.0, 0.00037516527778534703, 0.0, 0.0015063274997289516, 0.0, -6.209479167347427e-05, array([[ -1.74673347e-14]])]
[2.849999999999998, 1.6366101761907514, 4.357202053070068, -0.3555041551589966, 0.0, 0.00039074050836628607, 0.0, 0.0017761245810769609, 0.0, -2.0220667353040033e-05, array([[ -1.31431866e-15]])]
[2.8999999999999977, 1.3726590082421912, 4.354157447814941, 0.09710627794265747, 0.0, 0.0002699549568820394, 0.0, 0.0011774529025455286, 0.0, -0.00012881045057154544, array([[ -2.32869918e-10]])]
[2.9499999999999975, 0.28774593197744547, 4.403364658355713, 1.1250455379486084, 0.0, 0.00018985603742219015, 0.0, 0.001048375190980959, 0.0, -0.0004424424641336494, array([[ -5.22479543e-12]])]
[2.9999999999999973, -0.8545019921980703, 4.43500280380249, 1.0743769407272339, 0.0, 0.0001334208162194306, 0.0, 0.0009278854126927645, 0.0, -0.00045596703961094256, array([[ -5.16300266e-15]])]
[3.049999999999997, -1.4148683284968084, 4.495382785797119, 0.509493887424469, 0.0, 3.790544601532897e-05, 0.0, 0.0006668057074227803, 0.0, -0.0004725378668467174, array([[ -9.24185718e-12]])]
[3.099999999999997, -1.0792843267974224, 4.506562232971191, 0.24351342022418976, 0.0, 3.1003398730723035e-05, 0.0, 0.000562867507665978, 0.0, -0.0003872365205032146, array([[ -2.33642670e-11]])]
[3.149999999999997, -0.02305340127545669, 4.500524044036865, -0.4469445049762726, 0.0, 1.4166331379979534e-05, 0.0, 0.0005061031871172875, 0.0, -0.0003754405437375999, array([[ -6.09430025e-12]])]
[3.1999999999999966, 0.993309749445453, 4.485002517700195, -0.7160707116127014, 0.0, -3.8113605947004405e-05, 0.0, 0.0004763286522125756, 0.0, -0.00039770674141491986, array([[ -1.17407099e-15]])]
[3.2499999999999964, 1.7842410514503728, 4.431540489196777, -0.4283778667449951, 0.0, -9.226368932913432e-05, 0.0, 0.0005365203051752907, 0.0, -0.0004518389667555107, array([[ -7.10178158e-17]])]
[3.2999999999999963, 1.610578100681305, 4.4264631271362305, 0.022607464343309402, 0.0, -5.2808302416619895e-06, 0.0, 0.00042616973008515586, 0.0, -0.0004061281588845766, array([[ -5.88487159e-11]])]
[3.349999999999996, 0.5364420069225023, 4.441411018371582, 0.6716174483299255, 0.0, 9.868397359074726e-06, 0.0, 0.00041286753485717334, 0.0, -0.00044001106171460155, array([[ -4.47677949e-12]])]
[3.399999999999996, -0.6007630963206226, 4.509241580963135, 1.3930246829986572, 0.0, -6.814425129988885e-05, 0.0, 0.0003269743368796003, 0.0, -0.0004632892991853231, array([[ -4.23346248e-19]])]
[3.4499999999999957, -1.565482132229954, 4.599160194396973, 0.929983377456665, 0.0, 5.842688921930847e-05, 0.0, 0.0003650800823140086, 0.0, -0.000385632984194853, array([[ -7.28808653e-15]])]
[3.4999999999999956, -1.4274787075165585, 4.623095989227295, 0.664956271648407, 0.0, 0.00019198236902389206, 0.0, 0.000459201421866994, 0.0, -0.00024862232989952224, array([[ -2.39174508e-13]])]
[3.5499999999999954, -0.6108514540640108, 4.649620532989502, -0.024404648691415787, 0.0, 0.0004742246991124489, 0.0, 0.0007348550074911025, 0.0, -0.000197747360139946, array([[ -2.53660116e-12]])]
[3.599999999999995, 0.5498463493052159, 4.646542549133301, -0.29307088255882263, 0.0, 0.000628662818522085, 0.0, 0.0010281345446082012, 0.0, -5.716513700939388e-05, array([[ -1.23849527e-13]])]
[3.649999999999995, 1.3660295425123843, 4.608492851257324, -0.5075623393058777, 0.0, 0.0007400331060500552, 0.0, 0.0013631208890788368, 0.0, 5.681258219225933e-05, array([[ -2.87024021e-15]])]
[3.699999999999995, 1.4791601981874583, 4.601687908172607, -0.24193090200424194, 0.0, 0.0004964559308085301, 0.0, 0.00115205613174855, 0.0, 9.587504268795602e-05, array([[ -4.69847846e-13]])]
[3.7499999999999947, 0.9687417822149623, 4.606223106384277, 0.3949563503265381, 0.0, 0.000277372499043165, 0.0, 0.0009759989975573313, 0.0, 0.0001314649507411007, array([[ -3.20168211e-12]])]
[3.7999999999999945, -0.1474196455432681, 4.660531044006348, 1.319569706916809, 0.0, 0.0002754887894857259, 0.0, 0.0007427323889012233, 0.0, 0.0001656551306345663, array([[ -3.00855231e-19]])]
[3.8499999999999943, -1.3172883267683209, 4.762660503387451, 1.1575050354003906, 0.0, -3.4781209516568785e-05, 0.0, 0.000747075564763549, 0.0, 0.00010518554348992424, array([[ -3.91643569e-18]])]
[3.899999999999994, -1.7822834602510556, 4.792107105255127, 0.8947728872299194, 0.0, -0.0002939772882866489, 0.0, 0.0008144211200458398, 0.0, 0.0001308727076044719, array([[ -4.98825675e-16]])]
[3.949999999999994, -1.0893254870129745, 4.833072185516357, 0.20600701868534088, 0.0, -0.000779755769400855, 0.0, 0.0010556807110710532, 0.0, 0.00013749292709631616, array([[ -1.12640058e-13]])]
[3.999999999999994, 0.04630125944048255, 4.835733890533447, -0.06268451362848282, 0.0, -0.0010425807407513001, 0.0, 0.0012574451849428248, 0.0, 0.00010791481675893182, array([[ -4.26956019e-14]])]
[4.049999999999994, 0.9602652725438083, 4.808624267578125, -0.6368957757949829, 0.0, -0.0013547543507027656, 0.0, 0.0016446710108023459, 0.0, -1.2072249367892425e-05, array([[ -3.08709599e-17]])]
[4.099999999999993, 1.5757628989452495, 4.794865608215332, -0.3572838604450226, 0.0, -0.0011579518757628665, 0.0, 0.0013765943011519706, 0.0, -5.06989014979179e-05, array([[ -4.38960118e-15]])]
[4.149999999999993, 1.2778958445368378, 4.8093767166137695, 0.7393966913223267, 0.0, -0.00064349077750938, 0.0, 0.0009263180363574437, 0.0, -0.00012791870864795865, array([[ -4.42729001e-15]])]
[4.199999999999993, 0.25812576504424656, 4.83714485168457, 1.176483392715454, 0.0, -0.0005209809157486876, 0.0, 0.0006978123215864347, 0.0, -0.0001812446525322137, array([[ -6.39769315e-19]])]
[4.249999999999993, -0.929079707097262, 4.940082550048828, 1.2961496114730835, 0.0, -0.00012111810523972233, 0.0, 0.0006405532552237684, 0.0, -0.0001966116954858017, array([[ -5.11215207e-21]])]
[4.299999999999993, -1.708912699408829, 4.975124359130859, 1.0483497381210327, 0.0, -3.812138104879624e-05, 0.0, 0.0006672536548873705, 0.0, -0.00020450923007818718, array([[ -1.04739142e-18]])]
[4.3499999999999925, -1.359347021933645, 5.0120673179626465, 0.6707755923271179, 0.0, 2.6672547768056074e-05, 0.0, 0.00070748795878784, 0.0, -0.00023516998237835157, array([[ -2.95622535e-16]])]
[4.399999999999992, -0.6355759799655057, 5.038204669952393, 0.09611906111240387, 0.0, 0.0002968464513505233, 0.0, 0.0009304163870002933, 0.0, -0.0003533053934661668, array([[ -2.41121417e-15]])]
[4.449999999999992, 0.2399766018614197, 5.023647785186768, -0.5914247035980225, 0.0, 0.0004486503827370295, 0.0, 0.0013010763319460789, 0.0, -0.0005104437512801396, array([[ -2.04594763e-16]])]
[4.499999999999992, 0.998907729778439, 4.995306491851807, -0.9058747887611389, 0.0, 0.0005661895910828949, 0.0, 0.001543873574803036, 0.0, -0.0005318777876084414, array([[ -1.68230215e-21]])]
[4.549999999999992, 1.559305041665211, 4.9509968757629395, -0.40980419516563416, 0.0, 0.0004796934930433751, 0.0, 0.0012427286040406125, 0.0, -0.0005328596780560503, array([[ -9.31394218e-21]])]
[4.599999999999992, 1.0838173162005842, 4.946976184844971, 0.03983252868056297, 0.0, 0.00026929526675408216, 0.0, 0.0009715238894919137, 0.0, -0.0004807647878731697, array([[ -1.03959598e-14]])]
[4.6499999999999915, -0.04184074522926362, 4.99998664855957, 0.9111745953559875, 0.0, 0.0001682468846341898, 0.0, 0.0006416019742029678, 0.0, -0.00042284752294855426, array([[ -6.25187330e-16]])]
[4.699999999999991, -1.2059192286245517, 5.017989635467529, 0.7606911063194275, 0.0, 6.476812463041546e-05, 0.0, 0.0004719701112690865, 0.0, -0.00035359676216023946, array([[ -7.74963488e-17]])]
[4.749999999999991, -1.4610590255260467, 5.043675422668457, 0.3946705162525177, 0.0, -6.4665476985509965e-06, 0.0, 0.0004346424764638232, 0.0, -0.00033877779048502944, array([[ -1.67535934e-15]])]
[4.799999999999991, -0.9410883842967434, 5.053934097290039, -0.17752669751644135, 0.0, -0.0002554023563610501, 0.0, 0.0005412385366556438, 0.0, -0.00045028177167004575, array([[ -3.56951758e-16]])]
[4.849999999999991, -0.028620275668799513, 5.020431041717529, -0.8686031699180603, 0.0, -0.0004934949819514264, 0.0, 0.0007114196204868694, 0.0, -0.0004114445073622513, array([[ -2.17204693e-18]])]
[4.899999999999991, 1.084194204583764, 4.994122505187988, -1.1378824710845947, 0.0, -0.0005999276270865869, 0.0, 0.0008062587385173653, 0.0, -0.00042331193258006954, array([[ -1.69061610e-24]])]
[4.94999999999999, 1.7037009370140732, 4.920064926147461, -0.6595274806022644, 0.0, -0.0004966542400266916, 0.0, 0.0008759059220909321, 0.0, -0.0003403426242442157, array([[ -2.73040985e-18]])]
[4.99999999999999, 1.3193909590691328, 4.909098148345947, -0.21212907135486603, 0.0, -0.0003168673769359048, 0.0, 0.0005574653422603805, 0.0, -0.000351171586588638, array([[ -3.44194958e-15]])]
[5.04999999999999, 0.19134276222437965, 4.938297271728516, 0.9300023913383484, 0.0, -0.00024292412465115972, 0.0, 0.0005833165561911429, 0.0, -0.0003995386993815039, array([[ -1.35703684e-14]])]
[5.09999999999999, -0.9490968362241847, 4.967502593994141, 0.9585378766059875, 0.0, -6.097944518131793e-05, 0.0, 0.0003958746223774337, 0.0, -0.0003273244845276719, array([[ -7.39213531e-18]])]
[5.14999999999999, -1.706959549449384, 5.02083683013916, 0.36331409215927124, 0.0, 5.7237804912002184e-05, 0.0, 0.00025707611031569626, 0.0, -0.0002500920342632934, array([[ -3.93837746e-16]])]
[5.1999999999999895, -1.3159626760147507, 5.02899694442749, 0.09652847796678543, 0.0, 0.00012015051642105042, 0.0, 0.0001883894338365885, 0.0, -0.0002671154000429156, array([[ -2.88891246e-15]])]
[5.249999999999989, -0.41974165711551614, 5.010573387145996, -0.6712870001792908, 0.0, 0.00025750904768841377, 0.0, 0.00026932782497711346, 0.0, -0.00015211544184592465, array([[ -4.18285165e-19]])]
[5.299999999999989, 0.7564943744800985, 4.99636173248291, -0.8633191585540771, 0.0, 0.00036280478316772126, 0.0, 0.0003896865993826323, 0.0, -4.4267795302379056e-05, array([[ -5.14126110e-21]])]
[5.349999999999989, 1.5846298693493008, 4.926440715789795, -0.9241803288459778, 0.0, 0.00047000353056774976, 0.0, 0.0005493193679900351, 0.0, -1.5212362093649506e-05, array([[ -1.26355535e-23]])]
[5.399999999999989, 1.8174169456213711, 4.907532691955566, -0.5320132374763489, 0.0, 0.0003606833302153982, 0.0, 0.00046328019260690216, 0.0, 2.0735503976208446e-05, array([[ -3.85127738e-17]])]
[5.449999999999989, 1.0592322372086345, 4.913926124572754, 0.6185775399208069, 0.0, 0.0001228671576558205, 0.0, 0.000336029810578443, 0.0, 7.14174030738547e-05, array([[ -3.16423156e-14]])]
[5.4999999999999885, -0.055865205690465866, 4.93948221206665, 1.0571850538253784, 0.0, 0.00023682164581161392, 0.0, 0.0002472214548925042, 0.0, 1.157750989873223e-05, array([[ -1.67092858e-18]])]
[5.549999999999988, -1.2494998381659388, 4.992424964904785, 1.2764326333999634, 0.0, 0.0001651645211436372, 0.0, 0.0002225992971589744, 0.0, -4.50787440170821e-05, array([[ -3.50015305e-21]])]
[5.599999999999988, -1.8369963702559469, 5.058265686035156, 0.7588082551956177, 0.0, -0.0002947509928272891, 0.0, 0.000722385826587343, 0.0, -0.0001785562286719783, array([[ -3.88646333e-17]])]
[5.649999999999988, -1.2686430693417787, 5.083562850952148, 0.3775413930416107, 0.0, -0.00034694975654180814, 0.0, 0.0008452044857175365, 0.0, -0.00021838301541181793, array([[ -8.88242957e-16]])]
[5.699999999999988, -0.1461453532986334, 5.092360496520996, -0.19863881170749664, 0.0, -0.0007042630004822474, 0.0, 0.001600699930415596, 0.0, -0.00032905632157802716, array([[ -1.45960227e-16]])]
[5.749999999999988, 0.7798906006850302, 5.057016849517822, -0.8737421631813049, 0.0, -0.0009867317967354279, 0.0, 0.0024820943593863365, 0.0, -0.0005010866242797013, array([[ -1.41009817e-21]])]
[5.799999999999987, 1.3168907774984835, 5.034142971038818, -0.8392199277877808, 0.0, -0.0010385368027264364, 0.0, 0.002767523978021393, 0.0, -0.0005302963201710449, array([[ -4.82667442e-21]])]
[5.849999999999987, 1.370728179682046, 5.0085954666137695, -0.4748971462249756, 0.0, -0.0009645068371508399, 0.0, 0.002512091078942553, 0.0, -0.0005277946534512068, array([[ -1.85416535e-17]])]
[5.899999999999987, 0.5825339378556236, 5.012160778045654, 0.4713130593299866, 0.0, -0.0005503777711215125, 0.0, 0.001328106711225713, 0.0, -0.00038668360950136173, array([[ -1.78624222e-15]])]
[5.949999999999987, -0.5960092610865814, 5.044722557067871, 0.905583381652832, 0.0, -0.0005109549253252629, 0.0, 0.0011526797074235624, 0.0, -0.000369416662897414, array([[ -5.30177232e-18]])]
[5.999999999999987, -1.5229893427528438, 5.103074073791504, 0.7372769117355347, 0.0, -0.00017305557406228748, 0.0, 0.0005794661844796527, 0.0, -0.0002833612705129289, array([[ -2.31152726e-17]])]
[6.0499999999999865, -1.4824830975383518, 5.128046989440918, 0.36835843324661255, 0.0, -5.170613461100927e-05, 0.0, 0.0005055951338403513, 0.0, -0.00023966004467245746, array([[ -4.09631335e-16]])]
[6.099999999999986, -0.7278686771728093, 5.136575222015381, -0.20518425107002258, 0.0, 0.00046868774998412604, 0.0, 0.00037438934390328886, 0.0, -0.00018443116178617778, array([[ -6.07193258e-17]])]
[6.149999999999986, 0.19315722336992625, 5.1010284423828125, -0.8876811861991882, 0.0, 0.0008996983819847402, 0.0, 0.00043363029027092785, 0.0, -0.0001551582242537475, array([[ -4.32254293e-22]])]
[6.199999999999986, 1.0186564953625201, 5.030409812927246, -1.0337638854980469, 0.0, 0.0011573015293496927, 0.0, 0.0004971866478773837, 0.0, -0.00012033660013638622, array([[ -6.95862336e-25]])]
[6.249999999999986, 1.4888345898687838, 5.006088733673096, -0.5621129274368286, 0.0, 0.0007373044147663033, 0.0, 0.00036152016669161076, 0.0, -5.7776498054752914e-05, array([[ -4.13847481e-18]])]
[6.299999999999986, 0.9706713733822108, 4.998283863067627, -0.11499826610088348, 0.0, 0.000450816757876881, 0.0, 0.00020899557823633952, 0.0, -8.331935486413655e-05, array([[ -1.71132022e-15]])]
[6.349999999999985, -0.2115865986794216, 5.034888744354248, 0.9502192735671997, 0.0, 0.0003944755052012915, 0.0, 0.00022773637031115894, 0.0, -0.00023850624731260072, array([[ -2.82986368e-18]])]
[6.399999999999985, -1.7560597308725119, 5.062489032745361, 0.8505305647850037, 0.0, 0.00011354503648843392, 0.0, 0.000145023079076986, 0.0, -0.0002683829009743923, array([[ -9.10286870e-18]])]
[6.449999999999985, -1.7994159296154975, 5.104994773864746, 0.19620269536972046, 0.0, -0.0003336734877825709, 0.0, 0.00029069704044384616, 0.0, -0.00036638890837797396, array([[ -3.71902122e-16]])]
[6.499999999999985, -1.215134856253862, 5.108438491821289, -0.07141724973917007, 0.0, -0.0006728997738829899, 0.0, 0.0004695555003615285, 0.0, -0.00031322477544395804, array([[ -3.15994064e-16]])]
[6.549999999999985, -0.09143985938280788, 5.082225322723389, -0.7624059319496155, 0.0, -0.0009956196802285763, 0.0, 0.0009867203217325251, 0.0, -0.0002995652895086847, array([[ -4.87859810e-18]])]
[6.5999999999999845, 0.8615798896551131, 5.058746814727783, -1.0313118696212769, 0.0, -0.0012478223613244497, 0.0, 0.0013669062779155647, 0.0, -0.00027008701309612116, array([[ -1.45176860e-23]])]
[6.649999999999984, 1.6262754912301898, 4.9829020500183105, -0.900313675403595, 0.0, -0.001263278588905937, 0.0, 0.0015915437952173338, 0.0, -0.00023947226432872003, array([[ -7.70806776e-25]])]
[6.699999999999984, 1.4383253486827017, 4.965956687927246, -0.5115331411361694, 0.0, -0.0007995773146177043, 0.0, 0.0010882620963901944, 0.0, -0.00030313380757202924, array([[ -1.98670147e-17]])]
[6.749999999999984, 0.5740219486504793, 4.976692199707031, 0.6294242739677429, 0.0, -0.0007359933633904829, 0.0, 0.0006292860125882159, 0.0, -0.00033192731753884204, array([[ -1.13754456e-14]])]
[6.799999999999984, -0.5494079441204553, 5.000350475311279, 0.8284456133842468, 0.0, -0.00041522096070320655, 0.0, 0.0004295863553413474, 0.0, -0.0003496551653378265, array([[ -4.02240050e-17]])]
[6.849999999999984, -1.5298082018271086, 5.056262493133545, 0.41551509499549866, 0.0, -8.222589951846284e-05, 0.0, 0.00021141159864139852, 0.0, -0.0002966382019738477, array([[ -1.38936001e-16]])]
[6.8999999999999835, -1.36984710521996, 5.066437244415283, 0.15098953247070312, 0.0, 9.582881623296338e-05, 0.0, 0.0001708281705415133, 0.0, -0.00028768619361875747, array([[ -1.65989767e-15]])]
[6.949999999999983, -0.550751919448374, 5.057722091674805, -0.538976788520813, 0.0, 0.0003998874248494227, 0.0, 0.00018383713817194977, 0.0, -0.00021634515691373347, array([[ -1.79265590e-16]])]
[6.999999999999983, 0.6055833356827499, 5.031540393829346, -0.9231850504875183, 0.0, 0.00063718120584244, 0.0, 0.00033505309881786625, 0.0, -0.0001225405915079948, array([[ -5.45663293e-22]])]
[7.049999999999983, 1.5779439074546098, 4.971883773803711, -1.091501235961914, 0.0, 0.0007364503107018654, 0.0, 0.0006225114750250528, 0.0, 0.00013703790256263364, array([[ -1.22245184e-23]])]
[7.099999999999983, 1.7929706571251154, 4.940509796142578, -0.6149967908859253, 0.0, 0.0005193413237563359, 0.0, 0.0003592475193604997, 0.0, 0.00020096517727553976, array([[ -4.46308561e-18]])]
[7.149999999999983, 1.1577137064188718, 4.9323577880859375, -0.1726856827735901, 0.0, 0.00046345883405176866, 0.0, 0.00023485449703476358, 0.0, 0.0002016006465483462, array([[ -3.72288763e-15]])]
[7.199999999999982, 0.24640642762184511, 4.956552505493164, 0.7817575931549072, 0.0, 6.943959262783215e-05, 0.0, 0.0001621019411838245, 0.0, -1.848833063739247e-06, array([[ -1.79804713e-16]])]
[7.249999999999982, -0.9863951216265556, 5.031322002410889, 0.8231224417686462, 0.0, 0.00019290470276574133, 0.0, -0.00012418644004839085, 0.0, -4.58677461654869e-05, array([[ -2.71349290e-17]])]
[7.299999999999982, -1.6248303100466728, 5.053555011749268, 0.576390266418457, 0.0, 0.0003309356003056716, 0.0, -0.00017417683227639354, 0.0, -9.528069985046456e-05, array([[ -3.67416670e-16]])]
[7.349999999999982, -1.091672212146222, 5.072376251220703, 0.19775280356407166, 0.0, 0.0003739067565905361, 0.0, -0.00014625296597979947, 0.0, -0.0001581623204763943, array([[ -1.66451517e-15]])]
[7.399999999999982, 0.018427276983858824, 5.072084903717041, -0.37740206718444824, 0.0, 0.0005503159033231976, 0.0, 2.0598488555559488e-05, 0.0, -0.0001638612816102552, array([[ -2.48870682e-17]])]
[7.4499999999999815, 0.9437699668109416, 5.052846908569336, -0.7598798274993896, 0.0, 0.0006023138862214641, 0.0, 5.7020172784860475e-05, 0.0, -0.00014901408658796748, array([[ -2.66193440e-20]])]
[7.499999999999981, 1.4783034901320933, 5.001628398895264, -0.8824893832206726, 0.0, 0.0005919653118707643, 0.0, 0.000271101942109902, 0.0, -0.00019076069126859735, array([[ -2.84651988e-21]])]
[7.549999999999981, 1.3959642279893159, 4.981046199798584, 0.17539715766906738, 0.0, 0.00022862504692478729, 0.0, -4.9572973470796024e-05, 0.0, -0.000322091872284998, array([[ -2.58061154e-16]])]
[7.599999999999981, 0.41744533644989157, 4.9950852394104, 0.6204049587249756, 0.0, 0.00022788871720224468, 0.0, -9.933148495048739e-05, 0.0, -0.0003431709468806949, array([[ -6.85758676e-16]])]
[7.649999999999981, -0.7723859815672032, 5.067072868347168, 0.9318802356719971, 0.0, 0.00017124632752902848, 0.0, -6.963067486984413e-05, 0.0, -0.00028736316597547843, array([[ -1.57083442e-18]])]
[7.699999999999981, -1.627476183436811, 5.093566417694092, 0.7486213445663452, 0.0, -3.523353755866134e-06, 0.0, -0.00017364402426833464, 0.0, -0.0001553529735053754, array([[ -2.42268637e-17]])]
[7.7499999999999805, -1.5638529450818897, 5.129563331604004, 0.0790448933839798, 0.0, -0.00021863724846728482, 0.0, -1.8284648065581423e-05, 0.0, -7.375498416185849e-05, array([[ -4.57966480e-16]])]
[7.79999999999998, -0.8797486602142448, 5.130519866943359, -0.1891104131937027, 0.0, -0.00037635207749118945, 0.0, 0.00014448364779650155, 0.0, 1.9276067773124914e-05, array([[ -8.14875554e-17]])]
[7.84999999999998, 0.03461303841322669, 5.097650051116943, -0.8799780011177063, 0.0, -0.0005362965910151697, 0.0, 0.0005444046196082264, 0.0, 8.102885381986371e-05, array([[ -4.34603171e-19]])]
[7.89999999999998, 1.0482110555842516, 5.072580337524414, -1.1452012062072754, 0.0, -0.0007021685231729225, 0.0, 0.0008769670306902482, 0.0, 0.00017881624205145079, array([[ -3.08323954e-25]])]
[7.94999999999998, 1.5902427517995237, 4.993373870849609, -0.8613910675048828, 0.0, -0.0006030150021370103, 0.0, 0.0008715350732854683, 0.0, 0.00033379319175937637, array([[ -1.30405536e-26]])]
[7.99999999999998, 1.351047909562476, 4.977982521057129, -0.4249516725540161, 0.0, -0.0003574924557484737, 0.0, 0.00037808251250928974, 0.0, 0.0002997650897300282, array([[ -6.80764518e-17]])]
[8.04999999999998, 0.18476114466786392, 4.994324207305908, 0.7205590605735779, 0.0, -0.00040455038950161905, 0.0, 0.00018524923385185838, 0.0, 0.00017225884790947045, array([[ -9.42811177e-15]])]
[8.09999999999998, -0.880775373615315, 5.019225120544434, 0.8146238923072815, 0.0, -0.00019138001584610842, 0.0, -3.837999521482928e-05, 0.0, 0.00021006356838273438, array([[ -3.61746612e-17]])]
[8.14999999999998, -1.7223434133082627, 5.065253734588623, 0.247670516371727, 0.0, 2.0470345041536794e-05, 0.0, -0.000180319535381213, 0.0, 0.0002471472562047847, array([[ -1.86111418e-15]])]
[8.199999999999982, -1.341767877675591, 5.0707526206970215, -0.018827198073267937, 0.0, 1.8638375495280086e-05, 0.0, -0.00013262558015653047, 0.0, 0.0002073612615164859, array([[ -8.90571824e-16]])]
[8.249999999999982, -0.45243715505115595, 5.045013427734375, -0.7870395183563232, 0.0, 0.00015185473910150817, 0.0, 0.00022463252890259398, 0.0, 0.00013691002184953852, array([[ -2.12793321e-17]])]
[8.299999999999983, 0.7144790725782513, 5.029775142669678, -0.9787905216217041, 0.0, 0.00021029265658850622, 0.0, 0.0004673484777215785, 0.0, 9.88413544972639e-05, array([[ -1.17246713e-22]])]
[8.349999999999984, 1.6193276062980293, 4.954166889190674, -1.1383445262908936, 0.0, 0.000268013904771215, 0.0, 0.000812142786940044, 0.0, 5.355103759988703e-05, array([[ -3.73152470e-24]])]
[8.399999999999984, 1.899238102994859, 4.929070472717285, -0.8427349328994751, 0.0, 0.00013807780369721554, 0.0, 0.0004809129095643605, 0.0, 9.359920692694122e-05, array([[ -2.99040421e-20]])]
[8.449999999999985, 1.3294709035381675, 4.915573596954346, 0.28713086247444153, 0.0, 5.724626909450529e-05, 0.0, 0.0002801017255416483, 0.0, -5.91661539275543e-05, array([[ -2.57330371e-14]])]
[8.499999999999986, 0.23652226034554433, 4.932738780975342, 0.7288278937339783, 0.0, 4.170013691013509e-05, 0.0, 4.7321401318616254e-05, 0.0, -1.3991766111016547e-05, array([[ -5.83904895e-16]])]
[8.549999999999986, -0.9540682493522756, 5.019700050354004, 0.8773989677429199, 0.0, -5.9209200207184986e-05, 0.0, 8.440183013318511e-05, 0.0, -4.788131536523366e-05, array([[ -4.30394182e-19]])]
[8.599999999999987, -1.7355906856805086, 5.037326335906982, 0.7007352113723755, 0.0, -0.00011976007668805976, 0.0, 0.00014413123522172386, 0.0, 1.4152709563934748e-05, array([[ -1.28548066e-16]])]
[8.649999999999988, -1.2981704117357729, 5.069310188293457, 0.017468519508838654, 0.0, -0.00014389695851919402, 0.0, 0.0004509623013896958, 0.0, 9.117333562270743e-05, array([[ -1.70331291e-15]])]
[8.699999999999989, -0.26682715712114996, 5.068053245544434, -0.25155478715896606, 0.0, -0.00014671805569184713, 0.0, 0.0007383383816418284, 0.0, 0.0001331298795883887, array([[ -1.35818689e-16]])]
[8.74999999999999, 0.7229219520092011, 5.029569625854492, -0.9409945607185364, 0.0, -7.372053234485397e-05, 0.0, 0.001246720973448996, 0.0, 0.00018877196135866313, array([[ -4.15906318e-19]])]
[8.79999999999999, 1.3102176787704227, 5.003879547119141, -0.9840306639671326, 0.0, -6.453361040203025e-05, 0.0, 0.0015403783927319956, 0.0, 0.0002511455805261337, array([[ -1.61717589e-22]])]
[8.84999999999999, 1.4301028401032088, 4.97194242477417, -0.648930013179779, 0.0, -8.077064453233275e-05, 0.0, 0.0013846973140743855, 0.0, 0.0003157083502183256, array([[ -1.39364575e-18]])]
[8.899999999999991, 0.7312867844849824, 4.964975357055664, 0.29102328419685364, 0.0, -0.00011329155787759213, 0.0, 0.0004918751041480793, 0.0, 0.00019620786674619072, array([[ -9.89365166e-15]])]
[8.949999999999992, -0.4386844696104427, 5.023275375366211, 1.0087493658065796, 0.0, -0.00012170004063319054, 0.0, 0.0003312449300675282, 0.0, 0.00014193043171456727, array([[ -2.06377967e-18]])]
[8.999999999999993, -1.4640980355814097, 5.051971912384033, 0.8526082634925842, 0.0, -0.00019923713433122342, 0.0, 0.00018607913365853524, 0.0, 0.00022808021011873355, array([[ -1.10820788e-17]])]
[9.049999999999994, -1.6811917746439575, 5.0968780517578125, 0.11152203381061554, 0.0, -0.000302427695570347, 0.0, 0.0002592695019939342, 0.0, 0.00029414580037935806, array([[ -1.30455954e-15]])]
[9.099999999999994, -1.1110422877222283, 5.0992865562438965, -0.07977289706468582, 0.0, -0.00034594432709449363, 0.0, 0.0003985109678596256, 0.0, 0.0003151894983397474, array([[ -3.66143321e-16]])]
[9.149999999999995, -0.2049938714504238, 5.075679779052734, -0.7702006697654724, 0.0, -0.0003832697042153441, 0.0, 0.0007467707740733327, 0.0, 0.0003346714880801649, array([[ -5.04276576e-18]])]
[9.199999999999996, 0.9322128835320472, 5.053360939025879, -1.039690375328064, 0.0, -0.0004197374886702591, 0.0, 0.0010349545783924095, 0.0, 0.00032178474785404343, array([[ -1.24490074e-23]])]
[9.249999999999996, 1.6637091107293962, 5.010863304138184, -1.1431453227996826, 0.0, -0.0004326000206286618, 0.0, 0.0012260552524755472, 0.0, 0.0003058895662441004, array([[ -1.12845669e-24]])]
[9.299999999999997, 1.4641730194166303, 4.969608783721924, -0.3594999611377716, 0.0, -0.00023964649095660522, 0.0, 0.0006677309691825678, 0.0, 0.00029562228236318144, array([[ -2.09989197e-16]])]
[9.349999999999998, 0.46923335782252273, 4.971909999847412, 0.27783364057540894, 0.0, -0.00022289708786795047, 0.0, 0.0005040561764366423, 0.0, 0.00029412882919053974, array([[ -9.74967308e-15]])]
[9.399999999999999, -0.6562376156821748, 5.016087532043457, 0.7980591654777527, 0.0, -0.00023697896136786405, 0.0, 0.0001816497385192973, 0.0, 0.0002497406931416223, array([[ -5.01459893e-17]])]
[9.45, -1.4083799900487064, 5.073403358459473, 0.2920159697532654, 0.0, 9.791569190582861e-05, 0.0, -0.00011224116856801297, 0.0, 0.0002266602495610416, array([[ -2.06375726e-16]])]
[9.5, -1.3488969391584393, 5.080082893371582, 0.10310918092727661, 0.0, 0.00026997312811172924, 0.0, -0.00011415731709120466, 0.0, 0.00018602077442937651, array([[ -1.23071092e-15]])]
[9.55, -0.5441501861810671, 5.071735858917236, -0.5870293378829956, 0.0, 0.0005440882770520505, 0.0, -8.022973582118103e-05, 0.0, 0.00020514903531258403, array([[ -8.28629287e-17]])]
[9.600000000000001, 0.6119875869154932, 5.05501651763916, -0.8556233048439026, 0.0, 0.0006695559770661172, 0.0, 5.291242129497282e-05, 0.0, 0.00016961663481840342, array([[ -2.20306559e-21]])]
[9.650000000000002, 1.4941674990579483, 4.986777305603027, -1.0453540086746216, 0.0, 0.0007205054320207153, 0.0, 0.00034215971224020353, 0.0, 9.444791645926498e-05, array([[ -3.52455188e-24]])]
[9.700000000000003, 1.8883534432947633, 4.965488433837891, -0.6840147972106934, 0.0, 0.0004129202229587812, 0.0, 0.0002362216277408409, 0.0, 8.17293606684084e-05, array([[ -6.84851182e-19]])]
[9.750000000000004, 1.2853510587662456, 4.964354515075684, 0.4523131549358368, 0.0, 0.00021054000238284327, 0.0, 2.0526392618472725e-07, 0.0, 0.0001551847136290308, array([[ -6.40167128e-15]])]
[9.800000000000004, 0.1830182470381324, 4.986271858215332, 0.8894878029823303, 0.0, -7.906605508649935e-05, 0.0, -8.411258739482219e-05, 0.0, 0.0001843536354749285, array([[ -1.97956599e-17]])]
[9.850000000000005, -1.0422006630897522, 5.0719428062438965, 0.9745461940765381, 0.0, 0.00015152577016784235, 0.0, -2.9222314879442774e-05, 0.0, 0.00024453379375321036, array([[ -1.60142390e-20]])]
[9.900000000000006, -1.7439152782410383, 5.099001884460449, 0.7337865829467773, 0.0, 0.00019404956494746445, 0.0, -1.5673921889226545e-05, 0.0, 0.0001738963714056682, array([[ -2.76566370e-17]])]
[9.950000000000006, -1.4246729921177028, 5.1347198486328125, 0.05071394890546799, 0.0, 0.00023278705684248144, 0.0, 0.00024460160983463163, 0.0, 0.00013447691322627918, array([[ -4.78753770e-16]])]
[10.000000000000007, -0.43108923491090484, 5.135359764099121, -0.2181643396615982, 0.0, 0.0003135868639930436, 0.0, 0.00045999800031843515, 0.0, 0.00010215178911627701, array([[ -5.72551504e-17]])]
[10.050000000000008, 0.6333246688917279, 5.1227288246154785, -0.6016939282417297, 0.0, 0.000378612035533038, 0.0, 0.0005892681043882482, 0.0, 9.022151939795755e-05, array([[ -2.35156557e-19]])]
[10.100000000000009, 1.1851140366494655, 5.076557159423828, -1.0345858335494995, 0.0, 0.0004807113320835273, 0.0, 0.001140188447324745, 0.0, 3.508735265256687e-05, array([[ -9.48265372e-24]])]
[10.15000000000001, 1.5287799713760613, 5.029873371124268, -0.2396121770143509, 0.0, 0.00021076565932453127, 0.0, 0.0006552698967608916, 0.0, 2.8644619180393636e-05, array([[ -6.52596046e-20]])]
[10.20000000000001, 0.7558930460456759, 5.0322585105896, 0.20611806213855743, 0.0, 0.0001813239710814392, 0.0, 0.0003398915021107333, 0.0, 4.445359244978655e-05, array([[ -3.33064821e-15]])]
[10.25000000000001, -0.3830593325197663, 5.085137844085693, 0.9183541536331177, 0.0, -4.5443185343352494e-05, 0.0, 0.0001770722121224053, 0.0, 0.00011623698178957563, array([[ -8.24141570e-17]])]
[10.300000000000011, -1.388734053336084, 5.123287677764893, 0.6637900471687317, 0.0, -0.00013952735482755527, 0.0, 7.64594889471852e-05, 0.0, 0.00011336968543944391, array([[ -4.25471512e-17]])]
[10.350000000000012, -1.539925729036331, 5.1421709060668945, 0.4062460958957672, 0.0, -0.000123463824891479, 0.0, 7.383442946395203e-05, 0.0, 0.00010831283991505277, array([[ -2.80046212e-16]])]
[10.400000000000013, -1.0050443152338262, 5.1571245193481445, -0.1657349020242691, 0.0, -0.0002494521046953757, 0.0, 0.00037629323714595325, 0.0, 1.8919147783588884e-05, array([[ -6.39641770e-17]])]
[10.450000000000014, -0.030277888439595634, 5.128886699676514, -0.8570296764373779, 0.0, -0.00026309526115265677, 0.0, 0.0008671162617619721, 0.0, -7.279031769177779e-06, array([[ -5.92131194e-22]])]
[10.500000000000014, 0.9926492620259523, 5.104772090911865, -1.1261197328567505, 0.0, -0.00030593899576760055, 0.0, 0.0011712652463571815, 0.0, -9.382947864540165e-05, array([[ -3.14205060e-25]])]
[10.550000000000015, 1.6488656114041804, 5.031479358673096, -0.7598384022712708, 0.0, -0.00032329906538497704, 0.0, 0.0013312846130359404, 0.0, -5.711346000789207e-05, array([[ -7.61911015e-26]])]
[10.600000000000016, 1.3270306256040931, 5.019730567932129, -0.32096928358078003, 0.0, -0.000316466568081152, 0.0, 0.0007990673599920794, 0.0, -2.8702004042411084e-05, array([[ -1.44847952e-16]])]
[10.650000000000016, 0.23340809483081115, 5.024025917053223, 0.31685832142829895, 0.0, -0.00028129214460830557, 0.0, 0.0005984932772785004, 0.0, -2.6299517057849204e-05, array([[ -3.52575730e-15]])]
[10.700000000000017, -0.8972135409340226, 5.075785160064697, 0.927536129951477, 0.0, -0.00030517929842821897, 0.0, 0.0002334205918109479, 0.0, -0.00012790915257369632, array([[ -2.01613970e-18]])]
[10.750000000000018, -1.7454396386817097, 5.135496139526367, 0.36948633193969727, 0.0, -0.0004854890047469574, 0.0, 0.00019830705137313938, 0.0, -3.1995448316563846e-05, array([[ -3.78842680e-16]])]
[10.800000000000018, -1.3931787308305497, 5.146433353424072, 0.10327060520648956, 0.0, -0.0006048393061766679, 0.0, 0.000297927891738631, 0.0, -9.374039423171411e-05, array([[ -3.67854601e-16]])]
[10.85000000000002, -0.5472963695973154, 5.138351917266846, -0.5876078605651855, 0.0, -0.0006278735876296112, 0.0, 0.0005857180752691761, 0.0, -1.7464087379144363e-05, array([[ -2.43577180e-17]])]
[10.90000000000002, 0.6175204713270068, 5.122005462646484, -0.8565219640731812, 0.0, -0.0007234746935750654, 0.0, 0.0008583837139136015, 0.0, -4.103726390457748e-06, array([[ -6.28946648e-22]])]
[10.95000000000002, 1.486143910884857, 5.086406707763672, -1.102075457572937, 0.0, -0.0006956728233861115, 0.0, 0.0009977279350873243, 0.0, -2.285801457627781e-06, array([[ -1.05460646e-24]])]
[11.000000000000021, 1.7089422340318559, 5.036136150360107, -0.6211010217666626, 0.0, -0.00048315095827582193, 0.0, 0.0006957688515908094, 0.0, -2.7732121261815244e-05, array([[ -7.28665117e-19]])]
[11.050000000000022, 1.0216261684149504, 5.028658866882324, 0.516771137714386, 0.0, -0.0004752859341068854, 0.0, 0.0005175933304618997, 0.0, -1.0996889980027569e-05, array([[ -2.48696788e-15]])]
[11.100000000000023, -0.05038328452966857, 5.066298961639404, 0.9524938464164734, 0.0, -0.0002712574089451864, 0.0, 0.00010060110675334836, 0.0, -2.289574160727531e-06, array([[ -1.51920672e-18]])]
[11.150000000000023, -1.234268002733588, 5.120235919952393, 1.2527753114700317, 0.0, -0.0002526358271581104, 0.0, 9.602769278658513e-07, 0.0, 4.2568194623693256e-05, array([[ -6.92295501e-22]])]
[11.200000000000024, -1.8982075472921132, 5.190278053283691, 0.7504677772521973, 0.0, -0.00033123140749465735, 0.0, 0.00023820745215582273, 0.0, 8.164113942851753e-05, array([[ -4.11761584e-18]])]
[11.250000000000025, -1.2545554633438587, 5.229111194610596, 0.0625079870223999, 0.0, -0.0004834713589521973, 0.0, 0.0007559586429083133, 0.0, 0.00013123113906693274, array([[ -7.50567238e-17]])]
[11.300000000000026, -0.12137550264596932, 5.231026649475098, -0.2064388394355774, 0.0, -0.0005167963807944445, 0.0, 0.0011412851651092393, 0.0, 0.00011898069220687396, array([[ -1.09066337e-17]])]
[11.350000000000026, 0.7974914004653691, 5.196176052093506, -0.7590849995613098, 0.0, -0.0005634183536304794, 0.0, 0.0018099842836400508, 0.0, 0.0001681618648728475, array([[ -4.71147607e-20]])]
[11.400000000000027, 1.3718070473521948, 5.184422492980957, -0.645264744758606, 0.0, -0.0004936743881068971, 0.0, 0.0019271362390450284, 0.0, 0.00010801035105426367, array([[ -2.85409853e-20]])]
[11.450000000000028, 1.2782647912204264, 5.174581050872803, 0.2780403196811676, 0.0, -0.0003307188783748867, 0.0, 0.0009425414168338982, 0.0, 0.0001006594136429915, array([[ -2.45239190e-16]])]
[11.500000000000028, 0.3890758445858957, 5.192854881286621, 0.7178195714950562, 0.0, -0.0002733059952518003, 0.0, 0.0005645657350471735, 0.0, 0.00012973514585023807, array([[ -6.09205598e-18]])]
[11.55000000000003, -0.7851901472173631, 5.273576259613037, 0.9893382787704468, 0.0, -0.0001962389682241381, 0.0, 0.00010910775716478345, 0.0, 0.000209880602808825, array([[ -7.16420707e-21]])]
[11.60000000000003, -1.6207256053388117, 5.302548885345459, 0.7818487286567688, 0.0, -0.00010585294256259853, 0.0, -0.00013486990605461008, 0.0, 0.00014878550943278366, array([[ -3.14901975e-19]])]
[11.65000000000003, -1.4750027506425976, 5.331475257873535, 0.4117380678653717, 0.0, -8.350868138536907e-05, 0.0, -0.00023495254803713038, 0.0, 5.57279426107801e-05, array([[ -7.65183478e-18]])]
[11.700000000000031, -0.7269870707392692, 5.346364974975586, -0.16257236897945404, 0.0, 3.3254330679585945e-05, 0.0, -0.00041505016874991533, 0.0, -8.674511311787733e-05, array([[ -1.82701582e-18]])]
[11.750000000000032, 0.19155214535072446, 5.3181376457214355, -0.8533231616020203, 0.0, 0.00012610368760983446, 0.0, -0.0003191437788924683, 0.0, -0.00016953474266563027, array([[ -1.18470103e-20]])]
[11.800000000000033, 1.045748617053032, 5.294394016265869, -1.0952565670013428, 0.0, 0.00019663253792038003, 0.0, -0.00023373416141278592, 0.0, -0.00018049578018716845, array([[ -2.32675307e-26]])]
[11.850000000000033, 1.586858880110085, 5.223219871520996, -0.7346153855323792, 0.0, 0.00017774795853819062, 0.0, -0.00017322528613628792, 0.0, -0.0002440456407789598, array([[ -4.94178462e-27]])]
[11.900000000000034, 1.2522010930255054, 5.2136006355285645, -0.2950352132320404, 0.0, -5.288498959880051e-06, 0.0, -0.00030733262749517947, 0.0, -0.00024504095721807165, array([[ -5.65433631e-18]])]
[11.950000000000035, 0.1582612343505025, 5.243414878845215, 0.7578428387641907, 0.0, 0.00010311030801311429, 0.0, -0.0003552005344191008, 0.0, -0.00020325041015121842, array([[ -8.72469696e-17]])]
[12.000000000000036, -0.9701892429962753, 5.268245697021484, 0.6808434128761292, 0.0, 0.00011480681612703001, 0.0, -0.00035113904201572205, 0.0, -0.00014761841610054057, array([[ -2.33620282e-18]])]
[12.050000000000036, -1.5335275827348231, 5.306211948394775, 0.07441052049398422, 0.0, -9.709781573922939e-05, 0.0, -0.00019931968224625544, 0.0, -0.00013696757726460162, array([[ -1.80937296e-17]])]
[12.100000000000037, -1.1598032270744443, 5.308285236358643, -0.19266559183597565, 0.0, -0.0002427375729716108, 0.0, 3.655330157802495e-05, 0.0, -0.00011422239291129296, array([[ -2.88777348e-18]])]
[12.150000000000038, -0.11095372565090655, 5.277785301208496, -0.8846978545188904, 0.0, -0.0004381214397734833, 0.0, 0.0005770473929520786, 0.0, -9.428247350659633e-05, array([[ -1.43460090e-20]])]
[12.200000000000038, 0.9023674433305859, 5.252871990203857, -1.154115915298462, 0.0, -0.0005555972311508503, 0.0, 0.0010400305756272186, 0.0, -5.516412371276447e-05, array([[ -7.55928367e-27]])]
[12.250000000000039, 1.7097445610538125, 5.1746110916137695, -0.919906735420227, 0.0, -0.000529402322038631, 0.0, 0.0013714345800256958, 0.0, 5.6703825479782656e-05, array([[ -3.08820255e-28]])]
[12.30000000000004, 1.6048971191421149, 5.160008907318115, -0.49150705337524414, 0.0, -0.00047114291455124384, 0.0, 0.0007072847253536817, 0.0, 0.00010949949011075025, array([[ -8.55950422e-19]])]
[12.35000000000004, 0.5763868400081993, 5.176372051239014, 0.5381911993026733, 0.0, -0.00024680921137928757, 0.0, 0.0005028951067588699, 0.0, 3.154807601508474e-05, array([[ -6.17498914e-17]])]
[12.400000000000041, -0.5062672899663446, 5.206954002380371, 0.6481296420097351, 0.0, -0.000104824596984575, 0.0, 0.00022294816079624684, 0.0, -1.948352874964096e-05, array([[ -1.09716316e-17]])]
[12.450000000000042, -1.239221701659262, 5.2465667724609375, 0.269036203622818, 0.0, -0.000262822458237067, 0.0, -0.00014936706764232362, 0.0, -4.4740323480783415e-05, array([[ -2.17203401e-17]])]
[12.500000000000043, -1.2993796322122215, 5.254740238189697, 0.005706274416297674, 0.0, -0.0003603952578511734, 0.0, -0.0002850246712723924, 0.0, -4.774316423513822e-05, array([[ -3.44305484e-17]])]
[12.550000000000043, -0.44917452707188193, 5.240269184112549, -0.6841415762901306, 0.0, -0.0004557724590630755, 0.0, -0.00027809716204181306, 0.0, -4.7225388321484366e-05, array([[ -9.78609124e-19]])]
[12.600000000000044, 0.6441634752973913, 5.221627235412598, -0.9528628587722778, 0.0, -0.0005036944588440811, 0.0, -0.00018612637094449807, 0.0, -4.682042092581139e-05, array([[ -7.00481301e-24]])]
[12.650000000000045, 1.4773629688844083, 5.149360179901123, -1.1320514678955078, 0.0, -0.000549866734058895, 0.0, 5.484925795988548e-05, 0.0, -5.699762003830583e-05, array([[ -9.54511958e-27]])]
[12.700000000000045, 1.678561781644821, 5.1280317306518555, -0.7893751859664917, 0.0, -0.0003798031226656521, 0.0, -0.00012183304277742186, 0.0, -0.00012355142550641958, array([[ -3.11708517e-21]])]
[12.750000000000046, 1.091775803491473, 5.124703884124756, 0.34362220764160156, 0.0, -0.0004342181356224904, 0.0, -0.00027376538326157236, 0.0, -3.197216846541586e-05, array([[ -1.52462822e-16]])]
[12.800000000000047, -0.010048268586397013, 5.145816802978516, 0.7820186614990234, 0.0, -0.00030692498716904164, 0.0, -0.00030170528562536693, 0.0, -6.3600206373717e-06, array([[ -6.16794677e-18]])]
[12.850000000000048, -1.1971345108374951, 5.229953289031982, 0.8408328294754028, 0.0, -6.862460666149022e-05, 0.0, -0.0001432204039665593, 0.0, -2.191144737797763e-05, array([[ -1.07381957e-20]])]
[12.900000000000048, -1.8221001639217136, 5.25484037399292, 0.5821216702461243, 0.0, -3.790608513946316e-05, 0.0, 0.00018660888650762396, 0.0, -1.9391085818181982e-05, array([[ -8.85270777e-18]])]
[12.950000000000049, -1.1535215206816791, 5.2770609855651855, 0.20121607184410095, 0.0, 4.081090545934021e-06, 0.0, 0.0003644464976582255, 0.0, -2.0398331358255203e-05, array([[ -3.88522300e-17]])]
[13.00000000000005, 0.02780848134309057, 5.281569480895996, -0.37448132038116455, 0.0, 0.00011668884171235664, 0.0, 0.0014297742104992259, 0.0, 3.211503287641962e-05, array([[ -5.46104330e-19]])]
[13.05000000000005, 0.9059105148538946, 5.24078369140625, -1.0385326147079468, 0.0, 0.00017333661198357713, 0.0, 0.0023367846372868125, 0.0, 7.62354925095414e-05, array([[ -4.21304879e-25]])]
[13.100000000000051, 1.437707228772342, 5.219395637512207, -0.9073358178138733, 0.0, 0.0001652987716956202, 0.0, 0.002230656399224718, 0.0, 8.447811061071109e-05, array([[ -2.62020860e-23]])]
[13.150000000000052, 1.4219973400235175, 5.20088529586792, -0.3958622217178345, 0.0, 0.00015808711064249517, 0.0, 0.0017208871665003475, 0.0, 0.00010179425104158006, array([[ -1.99974959e-18]])]
[13.200000000000053, 0.41815588828641914, 5.217336177825928, 0.5506536960601807, 0.0, 0.00017829267620299684, 0.0, 0.0005970777251826808, 0.0, 0.0001620657153886561, array([[ -2.41301580e-17]])]
[13.250000000000053, -0.737177756242454, 5.256601333618164, 0.9112703204154968, 0.0, 0.00012468663604109126, 0.0, 0.0003623334259242987, 0.0, 0.00016220366455816173, array([[ -1.02706793e-19]])]
[13.300000000000054, -1.57657195687294, 5.31718635559082, 0.6554117798805237, 0.0, -0.0003827042167704852, 0.0, -0.0003095481749121928, 0.0, 1.4894923626471732e-05, array([[ -1.25146862e-18]])]
[13.350000000000055, -1.4061640924215315, 5.352035045623779, -0.018487822264432907, 0.0, -0.0005247849716370436, 0.0, -0.00047205525972959534, 0.0, -1.9263686888173766e-05, array([[ -9.99474906e-18]])]
[13.400000000000055, -0.5081824903562665, 5.352565765380859, -0.28688180446624756, 0.0, -0.0005642226692830696, 0.0, -0.0004908776093376173, 0.0, -0.0001018568929095749, array([[ -4.43696317e-19]])]
[13.450000000000056, 0.5533186387643219, 5.317923069000244, -0.9773830771446228, 0.0, -0.0007247700701801839, 0.0, -0.00034864829173694625, 0.0, -0.00011451308485604311, array([[ -5.94055674e-25]])]
[13.500000000000057, 1.1578378562256693, 5.294282913208008, -1.1301265954971313, 0.0, -0.0008013869669846941, 0.0, -0.00013961613898200306, 0.0, -0.0001661712297090998, array([[ -7.54381682e-27]])]
[13.550000000000058, 1.521368181630969, 5.257779598236084, -0.9862106442451477, 0.0, -0.0007449635842376752, 0.0, -5.458167725865399e-05, 0.0, -0.0002054877054511206, array([[ -1.46287002e-24]])]
[13.600000000000058, 0.9801981963217258, 5.236801624298096, -0.07452630251646042, 0.0, -0.0004013705439661255, 0.0, -0.0003187027225485628, 0.0, -0.00019676181803954563, array([[ -3.07144833e-17]])]
[13.650000000000059, -0.19548313289880748, 5.253791332244873, 0.5477122068405151, 0.0, -0.0003693381768948132, 0.0, -0.0003976438050565479, 0.0, -0.00012796868987524916, array([[ -1.34165927e-17]])]
[13.70000000000006, -1.2724637395143508, 5.313649654388428, 0.7867814302444458, 0.0, -0.00020288403817450405, 0.0, -0.00038010847361827295, 0.0, -4.00009461062804e-05, array([[ -2.43031220e-19]])]
[13.75000000000006, -1.6790958201512693, 5.358869552612305, 0.12539508938789368, 0.0, -5.366011528868032e-05, 0.0, 8.98464689562153e-05, 0.0, -1.5090981974970389e-05, array([[ -5.46504191e-18]])]
[13.800000000000061, -1.0480228450521825, 5.363613605499268, -0.1422611027956009, 0.0, -5.705927983669167e-06, 0.0, 0.0005653930990639115, 0.0, -2.5879777382736472e-05, array([[ -1.60068114e-18]])]
[13.850000000000062, -0.13784787204116583, 5.339707374572754, -0.8324533104896545, 0.0, 0.00013906643347707794, 0.0, 0.0013567185101259528, 0.0, -4.5418169851505935e-06, array([[ -1.19581241e-20]])]
[13.900000000000063, 0.9498774587363004, 5.319262981414795, -1.1003568172454834, 0.0, 0.00019310395686399732, 0.0, 0.0019520471395911817, 0.0, 1.561422804395157e-05, array([[ -1.22560600e-26]])]
[13.950000000000063, 1.6145754941925405, 5.279911518096924, -1.1153606176376343, 0.0, 0.0002503470966973347, 0.0, 0.0022743326462142974, 0.0, 2.9703203292070478e-05, array([[ -1.76483133e-26]])]
[14.000000000000064, 1.2614558174461126, 5.247965335845947, -0.2786470651626587, 0.0, 7.361850549196935e-05, 0.0, 0.0010526921218287817, 0.0, 8.635550326380068e-05, array([[ -3.68182225e-18]])]
[14.050000000000065, 0.2085941160097718, 5.256910800933838, 0.35746923089027405, 0.0, 3.787910108438104e-05, 0.0, 0.0008619181121639784, 0.0, 5.851615599135405e-05, array([[ -4.22993279e-17]])]
[14.100000000000065, -0.9441001630201935, 5.311697959899902, 0.8793060183525085, 0.0, 0.0001936421040519908, 0.0, 0.0003427009897395876, 0.0, -5.86352334438589e-05, array([[ -5.86184648e-20]])]
[14.150000000000066, -1.673591250516474, 5.368194580078125, 0.3084328770637512, 0.0, 8.926641305606962e-06, 0.0, -0.00019732803057924492, 0.0, -7.788825808007915e-05, array([[ -1.29072560e-18]])]
[14.200000000000067, -1.3095362015441059, 5.377967834472656, 0.04233323037624359, 0.0, -0.00010778577402580563, 0.0, -0.0005367844968317773, 0.0, -9.269413937763735e-05, array([[ -3.83536283e-18]])]
[14.250000000000068, -0.41903003133833405, 5.366940021514893, -0.6483656167984009, 0.0, -0.0002162685338814023, 0.0, -0.0008243656654241844, 0.0, -0.0001953036667070248, array([[ -8.98661880e-22]])]
[14.300000000000068, 0.7457685650140047, 5.351292133331299, -0.9170287251472473, 0.0, -0.00029515368040392345, 0.0, -0.0009553481602198542, 0.0, -0.00015580236771388923, array([[ -1.59861202e-24]])]
[14.350000000000069, 1.6154190663620829, 5.284547805786133, -1.0512299537658691, 0.0, -0.00032553288032054683, 0.0, -0.000925113135443311, 0.0, -0.00017062846968579382, array([[ -5.42257795e-28]])]
[14.40000000000007, 1.8611866137385367, 5.265900611877441, -0.6673210859298706, 0.0, -0.0002687666354902133, 0.0, -0.0008028229626559131, 0.0, -0.00022664218099183896, array([[ -3.91404153e-21]])]
[14.45000000000007, 1.1642020298168063, 5.271146774291992, 0.4699164927005768, 0.0, -0.00023789378250310326, 0.0, -0.0007557563433396097, 0.0, -0.00015197593686468392, array([[ -1.77470983e-17]])]
[14.500000000000071, 0.060252368822693844, 5.295699119567871, 0.9052928686141968, 0.0, -7.43277860672565e-05, 0.0, -0.0006936064713888897, 0.0, -4.650434442635064e-05, array([[ -5.10827176e-20]])]
[14.550000000000072, -1.1222478694096207, 5.397968769073486, 0.9247191548347473, 0.0, -0.00010324983619699778, 0.0, -0.0005711452115009657, 0.0, 1.2095971038826833e-06, array([[ -5.34313737e-21]])]
[14.600000000000072, -1.8884465638175605, 5.417870998382568, 0.7412206530570984, 0.0, -0.00019715526713289644, 0.0, -0.0005165026286567771, 0.0, 5.951474500365921e-06, array([[ -6.14345631e-20]])]
[14.650000000000073, -1.392169170640409, 5.446236610412598, 0.36149725317955017, 0.0, -0.0002935326643966656, 0.0, -0.0005019535456183555, 0.0, 3.480267364646656e-05, array([[ -1.06251562e-18]])]
[14.700000000000074, -0.3352674497291446, 5.460977077484131, -0.21288670599460602, 0.0, -0.00041146478457772907, 0.0, -9.540195160891559e-05, 0.0, 0.00010960143516597108, array([[ -1.22671900e-19]])]
[14.750000000000075, 0.650561185516417, 5.433806419372559, -0.8740244507789612, 0.0, -0.0005394953269613318, 0.0, 0.0003663808997917056, 0.0, 0.0001086400405167518, array([[ -4.93696853e-22]])]
[14.800000000000075, 1.1594373845309018, 5.413968086242676, -0.8953225612640381, 0.0, -0.0006137437205257268, 0.0, 0.0006407136894911117, 0.0, 6.883992490968722e-05, array([[ -8.51968711e-25]])]
[14.850000000000076, 1.3053165584430098, 5.384801387786865, -0.06263116747140884, 0.0, -0.00024808897644381544, 0.0, 0.00027325412045938044, 0.0, 2.5001331719419904e-05, array([[ -2.09940596e-18]])]
[14.900000000000077, 0.5094244983932003, 5.394262313842773, 0.38100311160087585, 0.0, -0.00025684906341704356, 0.0, 4.505287016878541e-05, 0.0, 4.053948135306242e-05, array([[ -2.53671252e-18]])]
[14.950000000000077, -0.6609460484609007, 5.470550060272217, 0.8866316080093384, 0.0, -8.749336558537316e-05, 0.0, -0.00010319645870322496, 0.0, 0.0002230456209138586, array([[ -7.01170371e-21]])]
[15.000000000000078, -1.651645788177848, 5.499969959259033, 0.6383143067359924, 0.0, 4.1417878566374084e-05, 0.0, -0.00030825637547885273, 0.0, 0.00024309664151140784, array([[ -4.27099714e-20]])]
[15.050000000000079, -1.5705565192922948, 5.5308966636657715, 0.07433046400547028, 0.0, 0.00020690456795515846, 0.0, -0.00036455799811209303, 0.0, 0.0004139286154414721, array([[ -2.32225748e-19]])]
[15.10000000000008, -0.965135889276862, 5.535562038421631, -0.19251935184001923, 0.0, 0.0003082488136736206, 0.0, -0.00018105063738889005, 0.0, 0.000436697758886759, array([[ -3.39986360e-20]])]
[15.15000000000008, -0.09763121038675308, 5.528223037719727, -0.5754589438438416, 0.0, 0.00034701631426344595, 0.0, -8.77871322419825e-05, 0.0, 0.0004523890210911811, array([[ -1.61393067e-22]])]
[15.200000000000081, 0.9146113427355884, 5.4880547523498535, -1.150372862815857, 0.0, 0.0005947704376481635, 0.0, 0.00047532060511379224, 0.0, 0.0005793233636978283, array([[ -8.50803010e-29]])]
[15.250000000000082, 1.501327963657677, 5.414620876312256, -0.916810154914856, 0.0, 0.0006709206203530213, 0.0, 0.0007720486770959961, 0.0, 0.0006905401483064328, array([[ -5.06562951e-25]])]
[15.300000000000082, 1.2242047171061858, 5.4000701904296875, -0.4955046772956848, 0.0, 0.0003899099014506381, 0.0, 0.00033690631362804047, 0.0, 0.0006385904526401631, array([[ -8.29444942e-21]])]
